{"features": [{"geometry": {"type": "Point", "coordinates": [89.57011, 24.31277]}, "type": "Feature", "id": "5087", "properties": {"status": "Implementation", "sectors": ["Energy"], "title": "Gas Tranmission and Development Project", "approvalYear": "2006", "locationName": "Ullapara", "id": "46004-35242-013-LN2188"}}, {"geometry": {"type": "Point", "coordinates": [88.91667, 23.83333]}, "type": "Feature", "id": "5088", "properties": {"status": "Implementation", "sectors": ["Energy"], "title": "Gas Tranmission and Development Project", "approvalYear": "2006", "locationName": "Kushtia District", "id": "46004-35242-013-LN2188"}}, {"geometry": {"type": "Point", "coordinates": [89.55171, 24.43237]}, "type": "Feature", "id": "5089", "properties": {"status": "Implementation", "sectors": ["Energy"], "title": "Gas Tranmission and Development Project", "approvalYear": "2006", "locationName": "Hatikumrul", "id": "46004-35242-013-LN2188"}}, {"geometry": {"type": "Point", "coordinates": [89.91274, 24.33682]}, "type": "Feature", "id": "5090", "properties": {"status": "Implementation", "sectors": ["Energy"], "title": "Gas Tranmission and Development Project", "approvalYear": "2006", "locationName": "Elenga", "id": "46004-35242-013-LN2188"}}, {"geometry": {"type": "Point", "coordinates": [90.38777, 24.2661]}, "type": "Feature", "id": "5091", "properties": {"status": "Implementation", "sectors": ["Energy"], "title": "Gas Tranmission and Development Project", "approvalYear": "2006", "locationName": "Dhanua", "id": "46004-35242-013-LN2188"}}, {"geometry": {"type": "Point", "coordinates": [90.61069, 23.78097]}, "type": "Feature", "id": "5092", "properties": {"status": "Implementation", "sectors": ["Energy"], "title": "Gas Tranmission and Development Project", "approvalYear": "2006", "locationName": "Chhota Manohardi", "id": "46004-35242-013-LN2188"}}, {"geometry": {"type": "Point", "coordinates": [90.61739, 23.78736]}, "type": "Feature", "id": "5093", "properties": {"status": "Implementation", "sectors": ["Energy"], "title": "Gas Tranmission and Development Project", "approvalYear": "2006", "locationName": "Bara Manohardi", "id": "46004-35242-013-LN2188"}}, {"geometry": {"type": "Point", "coordinates": [91.0117, 24.04016]}, "type": "Feature", "id": "5094", "properties": {"status": "Implementation", "sectors": ["Energy"], "title": "Gas Tranmission and Development Project", "approvalYear": "2006", "locationName": "Ashuganj", "id": "46004-35242-013-LN2188"}}, {"geometry": {"type": "Point", "coordinates": [89.0, 25.0]}, "type": "Feature", "id": "5095", "properties": {"status": "Implementation", "sectors": ["Energy"], "title": "Gas Tranmission and Development Project", "approvalYear": "2006", "locationName": "Rajshahi District", "id": "46004-35242-013-LN2188"}}, {"geometry": {"type": "Point", "coordinates": [89.61667, 24.33333]}, "type": "Feature", "id": "5096", "properties": {"status": "Implementation", "sectors": ["Energy"], "title": "Gas Tranmission and Development Project", "approvalYear": "2006", "locationName": "Sirajganj District", "id": "46004-35242-013-LN2188"}}, {"geometry": {"type": "Point", "coordinates": [89.33533, 24.00633]}, "type": "Feature", "id": "5097", "properties": {"status": "Implementation", "sectors": ["Energy"], "title": "Gas Tranmission and Development Project", "approvalYear": "2006", "locationName": "Pabna District", "id": "46004-35242-013-LN2188"}}, {"geometry": {"type": "Point", "coordinates": [89.16667, 23.08333]}, "type": "Feature", "id": "5098", "properties": {"status": "Implementation", "sectors": ["Energy"], "title": "Gas Tranmission and Development Project", "approvalYear": "2006", "locationName": "Jessore District", "id": "46004-35242-013-LN2188"}}, {"geometry": {"type": "Point", "coordinates": [89.33333, 22.5]}, "type": "Feature", "id": "5099", "properties": {"status": "Implementation", "sectors": ["Energy"], "title": "Gas Tranmission and Development Project", "approvalYear": "2006", "locationName": "Khulna District", "id": "46004-35242-013-LN2188"}}, {"geometry": {"type": "Point", "coordinates": [88.86369, 23.9649]}, "type": "Feature", "id": "5100", "properties": {"status": "Implementation", "sectors": ["Energy"], "title": "Gas Tranmission and Development Project", "approvalYear": "2006", "locationName": "Bheramara", "id": "46004-35242-013-LN2188"}}, {"geometry": {"type": "Point", "coordinates": [89.36, 24.45]}, "type": "Feature", "id": "5101", "properties": {"status": "Implementation", "sectors": ["Energy"], "title": "Gas Tranmission and Development Project", "approvalYear": "2006", "locationName": "Tarash", "id": "46004-35242-013-LN2188"}}, {"geometry": {"type": "Point", "coordinates": [88.95, 24.19]}, "type": "Feature", "id": "5102", "properties": {"status": "Implementation", "sectors": ["Energy"], "title": "Gas Tranmission and Development Project", "approvalYear": "2006", "locationName": "Lalpur", "id": "46004-35242-013-LN2188"}}, {"geometry": {"type": "Point", "coordinates": [88.98, 24.45]}, "type": "Feature", "id": "5103", "properties": {"status": "Implementation", "sectors": ["Energy"], "title": "Gas Tranmission and Development Project", "approvalYear": "2006", "locationName": "Natore S.", "id": "46004-35242-013-LN2188"}}, {"geometry": {"type": "Point", "coordinates": [89.65, 24.38]}, "type": "Feature", "id": "5104", "properties": {"status": "Implementation", "sectors": ["Energy"], "title": "Gas Tranmission and Development Project", "approvalYear": "2006", "locationName": "Kamarkhanda", "id": "46004-35242-013-LN2188"}}, {"geometry": {"type": "Point", "coordinates": [89.57011, 24.31277]}, "type": "Feature", "id": "5105", "properties": {"status": "Completion", "sectors": ["Energy"], "title": "GAS TRANSMISSION AND DEVELOPMENT PROJECT", "approvalYear": "2006", "locationName": "Ullapara", "id": "46004-35242-013-LN2189"}}, {"geometry": {"type": "Point", "coordinates": [88.91667, 23.83333]}, "type": "Feature", "id": "5106", "properties": {"status": "Completion", "sectors": ["Energy"], "title": "GAS TRANSMISSION AND DEVELOPMENT PROJECT", "approvalYear": "2006", "locationName": "Kushtia District", "id": "46004-35242-013-LN2189"}}, {"geometry": {"type": "Point", "coordinates": [89.55171, 24.43237]}, "type": "Feature", "id": "5107", "properties": {"status": "Completion", "sectors": ["Energy"], "title": "GAS TRANSMISSION AND DEVELOPMENT PROJECT", "approvalYear": "2006", "locationName": "Hatikumrul", "id": "46004-35242-013-LN2189"}}, {"geometry": {"type": "Point", "coordinates": [89.91274, 24.33682]}, "type": "Feature", "id": "5108", "properties": {"status": "Completion", "sectors": ["Energy"], "title": "GAS TRANSMISSION AND DEVELOPMENT PROJECT", "approvalYear": "2006", "locationName": "Elenga", "id": "46004-35242-013-LN2189"}}, {"geometry": {"type": "Point", "coordinates": [90.38777, 24.2661]}, "type": "Feature", "id": "5109", "properties": {"status": "Completion", "sectors": ["Energy"], "title": "GAS TRANSMISSION AND DEVELOPMENT PROJECT", "approvalYear": "2006", "locationName": "Dhanua", "id": "46004-35242-013-LN2189"}}, {"geometry": {"type": "Point", "coordinates": [90.61069, 23.78097]}, "type": "Feature", "id": "5110", "properties": {"status": "Completion", "sectors": ["Energy"], "title": "GAS TRANSMISSION AND DEVELOPMENT PROJECT", "approvalYear": "2006", "locationName": "Chhota Manohardi", "id": "46004-35242-013-LN2189"}}, {"geometry": {"type": "Point", "coordinates": [90.61739, 23.78736]}, "type": "Feature", "id": "5111", "properties": {"status": "Completion", "sectors": ["Energy"], "title": "GAS TRANSMISSION AND DEVELOPMENT PROJECT", "approvalYear": "2006", "locationName": "Bara Manohardi", "id": "46004-35242-013-LN2189"}}, {"geometry": {"type": "Point", "coordinates": [91.0117, 24.04016]}, "type": "Feature", "id": "5112", "properties": {"status": "Completion", "sectors": ["Energy"], "title": "GAS TRANSMISSION AND DEVELOPMENT PROJECT", "approvalYear": "2006", "locationName": "Ashuganj", "id": "46004-35242-013-LN2189"}}, {"geometry": {"type": "Point", "coordinates": [89.0, 25.0]}, "type": "Feature", "id": "5113", "properties": {"status": "Completion", "sectors": ["Energy"], "title": "GAS TRANSMISSION AND DEVELOPMENT PROJECT", "approvalYear": "2006", "locationName": "Rajshahi District", "id": "46004-35242-013-LN2189"}}, {"geometry": {"type": "Point", "coordinates": [89.61667, 24.33333]}, "type": "Feature", "id": "5114", "properties": {"status": "Completion", "sectors": ["Energy"], "title": "GAS TRANSMISSION AND DEVELOPMENT PROJECT", "approvalYear": "2006", "locationName": "Sirajganj District", "id": "46004-35242-013-LN2189"}}, {"geometry": {"type": "Point", "coordinates": [89.33533, 24.00633]}, "type": "Feature", "id": "5115", "properties": {"status": "Completion", "sectors": ["Energy"], "title": "GAS TRANSMISSION AND DEVELOPMENT PROJECT", "approvalYear": "2006", "locationName": "Pabna District", "id": "46004-35242-013-LN2189"}}, {"geometry": {"type": "Point", "coordinates": [89.16667, 23.08333]}, "type": "Feature", "id": "5116", "properties": {"status": "Completion", "sectors": ["Energy"], "title": "GAS TRANSMISSION AND DEVELOPMENT PROJECT", "approvalYear": "2006", "locationName": "Jessore District", "id": "46004-35242-013-LN2189"}}, {"geometry": {"type": "Point", "coordinates": [89.33333, 22.5]}, "type": "Feature", "id": "5117", "properties": {"status": "Completion", "sectors": ["Energy"], "title": "GAS TRANSMISSION AND DEVELOPMENT PROJECT", "approvalYear": "2006", "locationName": "Khulna District", "id": "46004-35242-013-LN2189"}}, {"geometry": {"type": "Point", "coordinates": [88.86369, 23.9649]}, "type": "Feature", "id": "5118", "properties": {"status": "Completion", "sectors": ["Energy"], "title": "GAS TRANSMISSION AND DEVELOPMENT PROJECT", "approvalYear": "2006", "locationName": "Bheramara", "id": "46004-35242-013-LN2189"}}, {"geometry": {"type": "Point", "coordinates": [89.36, 24.45]}, "type": "Feature", "id": "5119", "properties": {"status": "Completion", "sectors": ["Energy"], "title": "GAS TRANSMISSION AND DEVELOPMENT PROJECT", "approvalYear": "2006", "locationName": "Tarash", "id": "46004-35242-013-LN2189"}}, {"geometry": {"type": "Point", "coordinates": [88.95, 24.19]}, "type": "Feature", "id": "5120", "properties": {"status": "Completion", "sectors": ["Energy"], "title": "GAS TRANSMISSION AND DEVELOPMENT PROJECT", "approvalYear": "2006", "locationName": "Lalpur", "id": "46004-35242-013-LN2189"}}, {"geometry": {"type": "Point", "coordinates": [88.98, 24.45]}, "type": "Feature", "id": "5121", "properties": {"status": "Completion", "sectors": ["Energy"], "title": "GAS TRANSMISSION AND DEVELOPMENT PROJECT", "approvalYear": "2006", "locationName": "Natore S.", "id": "46004-35242-013-LN2189"}}, {"geometry": {"type": "Point", "coordinates": [89.65, 24.38]}, "type": "Feature", "id": "5122", "properties": {"status": "Completion", "sectors": ["Energy"], "title": "GAS TRANSMISSION AND DEVELOPMENT PROJECT", "approvalYear": "2006", "locationName": "Kamarkhanda", "id": "46004-35242-013-LN2189"}}, {"geometry": {"type": "Point", "coordinates": [89.55, 23.66667]}, "type": "Feature", "id": "5123", "properties": {"status": "Implementation", "sectors": ["Agriculture, natural resources and rural development"], "title": "SOUTHWEST AREA INTEGRATED WATER RESOURCES PLANNING & MANAGEMENT", "approvalYear": "2006", "locationName": "Rajbari District", "id": "46004-34418-013-LN2200"}}, {"geometry": {"type": "Point", "coordinates": [90.16667, 23.41667]}, "type": "Feature", "id": "5124", "properties": {"status": "Implementation", "sectors": ["Agriculture, natural resources and rural development"], "title": "SOUTHWEST AREA INTEGRATED WATER RESOURCES PLANNING & MANAGEMENT", "approvalYear": "2006", "locationName": "Faridpur District", "id": "46004-34418-013-LN2200"}}, {"geometry": {"type": "Point", "coordinates": [89.91667, 23.16667]}, "type": "Feature", "id": "5125", "properties": {"status": "Implementation", "sectors": ["Agriculture, natural resources and rural development"], "title": "SOUTHWEST AREA INTEGRATED WATER RESOURCES PLANNING & MANAGEMENT", "approvalYear": "2006", "locationName": "Gopalganj District", "id": "46004-34418-013-LN2200"}}, {"geometry": {"type": "Point", "coordinates": [89.43333, 23.43333]}, "type": "Feature", "id": "5126", "properties": {"status": "Implementation", "sectors": ["Agriculture, natural resources and rural development"], "title": "SOUTHWEST AREA INTEGRATED WATER RESOURCES PLANNING & MANAGEMENT", "approvalYear": "2006", "locationName": "Magura District", "id": "46004-34418-013-LN2200"}}, {"geometry": {"type": "Point", "coordinates": [89.16667, 23.08333]}, "type": "Feature", "id": "5127", "properties": {"status": "Implementation", "sectors": ["Agriculture, natural resources and rural development"], "title": "SOUTHWEST AREA INTEGRATED WATER RESOURCES PLANNING & MANAGEMENT", "approvalYear": "2006", "locationName": "Jessore District", "id": "46004-34418-013-LN2200"}}, {"geometry": {"type": "Point", "coordinates": [89.6, 23.13333]}, "type": "Feature", "id": "5128", "properties": {"status": "Implementation", "sectors": ["Agriculture, natural resources and rural development"], "title": "SOUTHWEST AREA INTEGRATED WATER RESOURCES PLANNING & MANAGEMENT", "approvalYear": "2006", "locationName": "Narail District", "id": "46004-34418-013-LN2200"}}, {"geometry": {"type": "Point", "coordinates": [90.0, 24.0]}, "type": "Feature", "id": "5129", "properties": {"status": "Completion", "sectors": ["Finance"], "title": "IMPROVEMENT OF CAPITAL MARKET AND INSURANCE GOVERNANCE PROJECT", "approvalYear": "2007", "locationName": "Bangladesh", "id": "46004-36197-013-LN2232"}}, {"geometry": {"type": "Point", "coordinates": [89.56439, 22.80978]}, "type": "Feature", "id": "5130", "properties": {"status": "Completion", "sectors": ["Agriculture, natural resources and rural development"], "title": "SECOND RURAL INFRASTRUCTURE IMPROVEMENT PROJECT", "approvalYear": "2006", "locationName": "Khulna", "id": "46004-36224-013-LN2254"}}, {"geometry": {"type": "Point", "coordinates": [88.75, 25.61667]}, "type": "Feature", "id": "5131", "properties": {"status": "Completion", "sectors": ["Agriculture, natural resources and rural development"], "title": "SECOND RURAL INFRASTRUCTURE IMPROVEMENT PROJECT", "approvalYear": "2006", "locationName": "Dinajpur District", "id": "46004-36224-013-LN2254"}}, {"geometry": {"type": "Point", "coordinates": [88.95, 25.96667]}, "type": "Feature", "id": "5132", "properties": {"status": "Completion", "sectors": ["Agriculture, natural resources and rural development"], "title": "SECOND RURAL INFRASTRUCTURE IMPROVEMENT PROJECT", "approvalYear": "2006", "locationName": "Nilphamari District", "id": "46004-36224-013-LN2254"}}, {"geometry": {"type": "Point", "coordinates": [89.66667, 25.75]}, "type": "Feature", "id": "5133", "properties": {"status": "Completion", "sectors": ["Agriculture, natural resources and rural development"], "title": "SECOND RURAL INFRASTRUCTURE IMPROVEMENT PROJECT", "approvalYear": "2006", "locationName": "Kurigram District", "id": "46004-36224-013-LN2254"}}, {"geometry": {"type": "Point", "coordinates": [89.25, 25.6]}, "type": "Feature", "id": "5134", "properties": {"status": "Completion", "sectors": ["Agriculture, natural resources and rural development"], "title": "SECOND RURAL INFRASTRUCTURE IMPROVEMENT PROJECT", "approvalYear": "2006", "locationName": "Rangpur District", "id": "46004-36224-013-LN2254"}}, {"geometry": {"type": "Point", "coordinates": [89.5, 25.25]}, "type": "Feature", "id": "5135", "properties": {"status": "Completion", "sectors": ["Agriculture, natural resources and rural development"], "title": "SECOND RURAL INFRASTRUCTURE IMPROVEMENT PROJECT", "approvalYear": "2006", "locationName": "Gaibandha District", "id": "46004-36224-013-LN2254"}}, {"geometry": {"type": "Point", "coordinates": [90.08333, 25.08333]}, "type": "Feature", "id": "5136", "properties": {"status": "Completion", "sectors": ["Agriculture, natural resources and rural development"], "title": "SECOND RURAL INFRASTRUCTURE IMPROVEMENT PROJECT", "approvalYear": "2006", "locationName": "Sherpur District", "id": "46004-36224-013-LN2254"}}, {"geometry": {"type": "Point", "coordinates": [90.9423, 22.89626]}, "type": "Feature", "id": "5137", "properties": {"status": "Completion", "sectors": ["Agriculture, natural resources and rural development"], "title": "SECOND RURAL INFRASTRUCTURE IMPROVEMENT PROJECT", "approvalYear": "2006", "locationName": "Rampur", "id": "46004-36224-013-LN2254"}}, {"geometry": {"type": "Point", "coordinates": [90.38803, 23.59414]}, "type": "Feature", "id": "5138", "properties": {"status": "Completion", "sectors": ["Agriculture, natural resources and rural development"], "title": "SECOND RURAL INFRASTRUCTURE IMPROVEMENT PROJECT", "approvalYear": "2006", "locationName": "Latabdi", "id": "46004-36224-013-LN2254"}}, {"geometry": {"type": "Point", "coordinates": [91.87198, 24.89904]}, "type": "Feature", "id": "5139", "properties": {"status": "Completion", "sectors": ["Agriculture, natural resources and rural development"], "title": "SECOND RURAL INFRASTRUCTURE IMPROVEMENT PROJECT", "approvalYear": "2006", "locationName": "Sylhet", "id": "46004-36224-013-LN2254"}}, {"geometry": {"type": "Point", "coordinates": [89.94812, 24.91965]}, "type": "Feature", "id": "5140", "properties": {"status": "Completion", "sectors": ["Agriculture, natural resources and rural development"], "title": "SECOND RURAL INFRASTRUCTURE IMPROVEMENT PROJECT", "approvalYear": "2006", "locationName": "Jamalpur", "id": "46004-36224-013-LN2254"}}, {"geometry": {"type": "Point", "coordinates": [90.72898, 24.88352]}, "type": "Feature", "id": "5141", "properties": {"status": "Completion", "sectors": ["Agriculture, natural resources and rural development"], "title": "SECOND RURAL INFRASTRUCTURE IMPROVEMENT PROJECT", "approvalYear": "2006", "locationName": "Netrakona", "id": "46004-36224-013-LN2254"}}, {"geometry": {"type": "Point", "coordinates": [91.18504, 23.46186]}, "type": "Feature", "id": "5142", "properties": {"status": "Completion", "sectors": ["Agriculture, natural resources and rural development"], "title": "SECOND RURAL INFRASTRUCTURE IMPROVEMENT PROJECT", "approvalYear": "2006", "locationName": "Comilla", "id": "46004-36224-013-LN2254"}}, {"geometry": {"type": "Point", "coordinates": [90.97773, 24.87564]}, "type": "Feature", "id": "5143", "properties": {"status": "Completion", "sectors": ["Agriculture, natural resources and rural development"], "title": "SECOND RURAL INFRASTRUCTURE IMPROVEMENT PROJECT", "approvalYear": "2006", "locationName": "Mohanganj", "id": "46004-36224-013-LN2254"}}, {"geometry": {"type": "Point", "coordinates": [89.96213, 24.15971]}, "type": "Feature", "id": "5144", "properties": {"status": "Completion", "sectors": ["Agriculture, natural resources and rural development"], "title": "SECOND RURAL INFRASTRUCTURE IMPROVEMENT PROJECT", "approvalYear": "2006", "locationName": "Delduar", "id": "46004-36224-013-LN2254"}}, {"geometry": {"type": "Point", "coordinates": [88.40812, 26.169]}, "type": "Feature", "id": "5145", "properties": {"status": "Completion", "sectors": ["Agriculture, natural resources and rural development"], "title": "SECOND RURAL INFRASTRUCTURE IMPROVEMENT PROJECT", "approvalYear": "2006", "locationName": "Ruhea", "id": "46004-36224-013-LN2254"}}, {"geometry": {"type": "Point", "coordinates": [90.34652, 23.63186]}, "type": "Feature", "id": "5146", "properties": {"status": "Completion", "sectors": ["Agriculture, natural resources and rural development"], "title": "SECOND RURAL INFRASTRUCTURE IMPROVEMENT PROJECT", "approvalYear": "2006", "locationName": "Kuchiamora", "id": "46004-36224-013-LN2254"}}, {"geometry": {"type": "Point", "coordinates": [89.45474, 22.69508]}, "type": "Feature", "id": "5147", "properties": {"status": "Completion", "sectors": ["Agriculture, natural resources and rural development"], "title": "SECOND RURAL INFRASTRUCTURE IMPROVEMENT PROJECT", "approvalYear": "2006", "locationName": "Katakhali", "id": "46004-36224-013-LN2254"}}, {"geometry": {"type": "Point", "coordinates": [89.22311, 24.27501]}, "type": "Feature", "id": "5148", "properties": {"status": "Completion", "sectors": ["Agriculture, natural resources and rural development"], "title": "SECOND RURAL INFRASTRUCTURE IMPROVEMENT PROJECT", "approvalYear": "2006", "locationName": "Jonail", "id": "46004-36224-013-LN2254"}}, {"geometry": {"type": "Point", "coordinates": [90.62892, 23.57221]}, "type": "Feature", "id": "5149", "properties": {"status": "Completion", "sectors": ["Agriculture, natural resources and rural development"], "title": "SECOND RURAL INFRASTRUCTURE IMPROVEMENT PROJECT", "approvalYear": "2006", "locationName": "Bhater Char", "id": "46004-36224-013-LN2254"}}, {"geometry": {"type": "Point", "coordinates": [92.03333, 24.76667]}, "type": "Feature", "id": "5150", "properties": {"status": "Completion", "sectors": ["Agriculture, natural resources and rural development"], "title": "SECOND RURAL INFRASTRUCTURE IMPROVEMENT PROJECT", "approvalYear": "2006", "locationName": "Bhadeswar", "id": "46004-36224-013-LN2254"}}, {"geometry": {"type": "Point", "coordinates": [90.77628, 23.2513]}, "type": "Feature", "id": "5151", "properties": {"status": "Completion", "sectors": ["Agriculture, natural resources and rural development"], "title": "SECOND RURAL INFRASTRUCTURE IMPROVEMENT PROJECT", "approvalYear": "2006", "locationName": "Bakila", "id": "46004-36224-013-LN2254"}}, {"geometry": {"type": "Point", "coordinates": [91.0117, 24.04016]}, "type": "Feature", "id": "5152", "properties": {"status": "Completion", "sectors": ["Agriculture, natural resources and rural development"], "title": "SECOND RURAL INFRASTRUCTURE IMPROVEMENT PROJECT", "approvalYear": "2006", "locationName": "Ashuganj", "id": "46004-36224-013-LN2254"}}, {"geometry": {"type": "Point", "coordinates": [89.83333, 25.0]}, "type": "Feature", "id": "5153", "properties": {"status": "Completion", "sectors": ["Agriculture, natural resources and rural development"], "title": "SECOND RURAL INFRASTRUCTURE IMPROVEMENT PROJECT", "approvalYear": "2006", "locationName": "Jamalpur District", "id": "46004-36224-013-LN2254"}}, {"geometry": {"type": "Point", "coordinates": [90.4, 24.75]}, "type": "Feature", "id": "5154", "properties": {"status": "Completion", "sectors": ["Agriculture, natural resources and rural development"], "title": "SECOND RURAL INFRASTRUCTURE IMPROVEMENT PROJECT", "approvalYear": "2006", "locationName": "Mymensingh District", "id": "46004-36224-013-LN2254"}}, {"geometry": {"type": "Point", "coordinates": [91.04079, 24.16321]}, "type": "Feature", "id": "5155", "properties": {"status": "Completion", "sectors": ["Agriculture, natural resources and rural development"], "title": "SECOND RURAL INFRASTRUCTURE IMPROVEMENT PROJECT", "approvalYear": "2006", "locationName": "Aruail", "id": "46004-36224-013-LN2254"}}, {"geometry": {"type": "Point", "coordinates": [88.8497, 25.09304]}, "type": "Feature", "id": "5156", "properties": {"status": "Completion", "sectors": ["Agriculture, natural resources and rural development"], "title": "SECOND RURAL INFRASTRUCTURE IMPROVEMENT PROJECT", "approvalYear": "2006", "locationName": "Aranagar", "id": "46004-36224-013-LN2254"}}, {"geometry": {"type": "Point", "coordinates": [91.31667, 22.96667]}, "type": "Feature", "id": "5157", "properties": {"status": "Completion", "sectors": ["Agriculture, natural resources and rural development"], "title": "SECOND RURAL INFRASTRUCTURE IMPROVEMENT PROJECT", "approvalYear": "2006", "locationName": "Feni District", "id": "46004-36224-013-LN2254"}}, {"geometry": {"type": "Point", "coordinates": [89.95, 23.86667]}, "type": "Feature", "id": "5158", "properties": {"status": "Completion", "sectors": ["Agriculture, natural resources and rural development"], "title": "SECOND RURAL INFRASTRUCTURE IMPROVEMENT PROJECT", "approvalYear": "2006", "locationName": "Manikganj District", "id": "46004-36224-013-LN2254"}}, {"geometry": {"type": "Point", "coordinates": [89.4, 22.2]}, "type": "Feature", "id": "5159", "properties": {"status": "Completion", "sectors": ["Agriculture, natural resources and rural development"], "title": "SECOND RURAL INFRASTRUCTURE IMPROVEMENT PROJECT", "approvalYear": "2006", "locationName": "Koyra", "id": "46004-36224-013-LN2254"}}, {"geometry": {"type": "Point", "coordinates": [89.86928, 25.1849]}, "type": "Feature", "id": "5160", "properties": {"status": "Completion", "sectors": ["Agriculture, natural resources and rural development"], "title": "SECOND RURAL INFRASTRUCTURE IMPROVEMENT PROJECT", "approvalYear": "2006", "locationName": "Bakshinganj", "id": "46004-36224-013-LN2254"}}, {"geometry": {"type": "Point", "coordinates": [91.1092, 23.19611]}, "type": "Feature", "id": "5161", "properties": {"status": "Completion", "sectors": ["Agriculture, natural resources and rural development"], "title": "SECOND RURAL INFRASTRUCTURE IMPROVEMENT PROJECT", "approvalYear": "2006", "locationName": "Gobindapur", "id": "46004-36224-013-LN2254"}}, {"geometry": {"type": "Point", "coordinates": [91.50361, 23.06917]}, "type": "Feature", "id": "5162", "properties": {"status": "Completion", "sectors": ["Agriculture, natural resources and rural development"], "title": "SECOND RURAL INFRASTRUCTURE IMPROVEMENT PROJECT", "approvalYear": "2006", "locationName": "Mohamaya", "id": "46004-36224-013-LN2254"}}, {"geometry": {"type": "Point", "coordinates": [91.74639, 22.40667]}, "type": "Feature", "id": "5163", "properties": {"status": "Completion", "sectors": ["Agriculture, natural resources and rural development"], "title": "SECOND RURAL INFRASTRUCTURE IMPROVEMENT PROJECT", "approvalYear": "2006", "locationName": "Latifpur", "id": "46004-36224-013-LN2254"}}, {"geometry": {"type": "Point", "coordinates": [91.11, 24.1]}, "type": "Feature", "id": "5164", "properties": {"status": "Completion", "sectors": ["Agriculture, natural resources and rural development"], "title": "SECOND RURAL INFRASTRUCTURE IMPROVEMENT PROJECT", "approvalYear": "2006", "locationName": "Sarail", "id": "46004-36224-013-LN2254"}}, {"geometry": {"type": "Point", "coordinates": [90.39, 23.6]}, "type": "Feature", "id": "5165", "properties": {"status": "Completion", "sectors": ["Agriculture, natural resources and rural development"], "title": "SECOND RURAL INFRASTRUCTURE IMPROVEMENT PROJECT", "approvalYear": "2006", "locationName": "Sirajdikhan", "id": "46004-36224-013-LN2254"}}, {"geometry": {"type": "Point", "coordinates": [88.98, 24.45]}, "type": "Feature", "id": "5166", "properties": {"status": "Completion", "sectors": ["Agriculture, natural resources and rural development"], "title": "SECOND RURAL INFRASTRUCTURE IMPROVEMENT PROJECT", "approvalYear": "2006", "locationName": "Natore S.", "id": "46004-36224-013-LN2254"}}, {"geometry": {"type": "Point", "coordinates": [88.47, 26.08]}, "type": "Feature", "id": "5167", "properties": {"status": "Completion", "sectors": ["Agriculture, natural resources and rural development"], "title": "SECOND RURAL INFRASTRUCTURE IMPROVEMENT PROJECT", "approvalYear": "2006", "locationName": "Thakurgaon S.", "id": "46004-36224-013-LN2254"}}, {"geometry": {"type": "Point", "coordinates": [89.98667, 24.33853]}, "type": "Feature", "id": "5168", "properties": {"status": "Completion", "sectors": ["Agriculture, natural resources and rural development"], "title": "SECOND RURAL INFRASTRUCTURE IMPROVEMENT PROJECT", "approvalYear": "2006", "locationName": "Tangail District", "id": "46004-36224-013-LN2254"}}, {"geometry": {"type": "Point", "coordinates": [90.36542, 23.81093]}, "type": "Feature", "id": "5169", "properties": {"status": "Completion", "sectors": ["Agriculture, natural resources and rural development"], "title": "SECOND RURAL INFRASTRUCTURE IMPROVEMENT PROJECT", "approvalYear": "2006", "locationName": "Dhaka District", "id": "46004-36224-013-LN2254"}}, {"geometry": {"type": "Point", "coordinates": [90.58333, 23.75]}, "type": "Feature", "id": "5170", "properties": {"status": "Completion", "sectors": ["Agriculture, natural resources and rural development"], "title": "SECOND RURAL INFRASTRUCTURE IMPROVEMENT PROJECT", "approvalYear": "2006", "locationName": "Narayanganj District", "id": "46004-36224-013-LN2254"}}, {"geometry": {"type": "Point", "coordinates": [90.36667, 23.55]}, "type": "Feature", "id": "5171", "properties": {"status": "Completion", "sectors": ["Agriculture, natural resources and rural development"], "title": "SECOND RURAL INFRASTRUCTURE IMPROVEMENT PROJECT", "approvalYear": "2006", "locationName": "Munshiganj District", "id": "46004-36224-013-LN2254"}}, {"geometry": {"type": "Point", "coordinates": [91.16667, 23.98333]}, "type": "Feature", "id": "5172", "properties": {"status": "Completion", "sectors": ["Agriculture, natural resources and rural development"], "title": "SECOND RURAL INFRASTRUCTURE IMPROVEMENT PROJECT", "approvalYear": "2006", "locationName": "Brahmanbaria District", "id": "46004-36224-013-LN2254"}}, {"geometry": {"type": "Point", "coordinates": [90.83333, 23.25]}, "type": "Feature", "id": "5173", "properties": {"status": "Completion", "sectors": ["Agriculture, natural resources and rural development"], "title": "SECOND RURAL INFRASTRUCTURE IMPROVEMENT PROJECT", "approvalYear": "2006", "locationName": "Chandpur District", "id": "46004-36224-013-LN2254"}}, {"geometry": {"type": "Point", "coordinates": [90.83333, 22.91667]}, "type": "Feature", "id": "5174", "properties": {"status": "Completion", "sectors": ["Agriculture, natural resources and rural development"], "title": "SECOND RURAL INFRASTRUCTURE IMPROVEMENT PROJECT", "approvalYear": "2006", "locationName": "Lakshmipur District", "id": "46004-36224-013-LN2254"}}, {"geometry": {"type": "Point", "coordinates": [88.8, 25.9]}, "type": "Feature", "id": "5175", "properties": {"status": "Completion", "sectors": ["Agriculture, natural resources and rural development"], "title": "SECOND RURAL INFRASTRUCTURE IMPROVEMENT PROJECT", "approvalYear": "2006", "locationName": "Naogaon", "id": "46004-36224-013-LN2254"}}, {"geometry": {"type": "Point", "coordinates": [89.70802, 24.45771]}, "type": "Feature", "id": "5176", "properties": {"status": "Implementation", "sectors": ["Water supply and other urban infrastructure and services"], "title": "SECONDARY TOWNS WATER SUPPLY AND SANITATION PROJECT", "approvalYear": "2006", "locationName": "Sirajganj", "id": "46004-36297-013-LN2265"}}, {"geometry": {"type": "Point", "coordinates": [89.97521, 22.57965]}, "type": "Feature", "id": "5177", "properties": {"status": "Implementation", "sectors": ["Water supply and other urban infrastructure and services"], "title": "SECONDARY TOWNS WATER SUPPLY AND SANITATION PROJECT", "approvalYear": "2006", "locationName": "Pirojpur", "id": "46004-36297-013-LN2265"}}, {"geometry": {"type": "Point", "coordinates": [90.75, 24.11667]}, "type": "Feature", "id": "5178", "properties": {"status": "Implementation", "sectors": ["Water supply and other urban infrastructure and services"], "title": "SECONDARY TOWNS WATER SUPPLY AND SANITATION PROJECT", "approvalYear": "2006", "locationName": "Brahmanhata", "id": "46004-36297-013-LN2265"}}, {"geometry": {"type": "Point", "coordinates": [89.21371, 23.16971]}, "type": "Feature", "id": "5179", "properties": {"status": "Implementation", "sectors": ["Water supply and other urban infrastructure and services"], "title": "SECONDARY TOWNS WATER SUPPLY AND SANITATION PROJECT", "approvalYear": "2006", "locationName": "Jessore", "id": "46004-36297-013-LN2265"}}, {"geometry": {"type": "Point", "coordinates": [90.0, 24.0]}, "type": "Feature", "id": "5180", "properties": {"status": "Implementation", "sectors": ["Education"], "title": "SECONDARY EDUCATION SECTOR DEVELOPMENT PROJECT", "approvalYear": "2006", "locationName": "Bangladesh", "id": "46004-37307-013-LN2266"}}, {"geometry": {"type": "Point", "coordinates": [90.0, 24.0]}, "type": "Feature", "id": "5181", "properties": {"status": "Completion", "sectors": ["Education"], "title": "SECONDARY EDUCATION SECTOR DEVELOPMENT PROGRAM", "approvalYear": "2006", "locationName": "Bangladesh", "id": "46004-37307-013-LN2267"}}, {"geometry": {"type": "Point", "coordinates": [89.70802, 24.45771]}, "type": "Feature", "id": "5182", "properties": {"status": "Implementation", "sectors": ["Transport", "Information and communication technology"], "title": "MFF-BAN RAILWAY SECTOR INVESTMENT PROGRAM", "approvalYear": "2007", "locationName": "Sirajganj", "id": "46004-32234-023-LN2316"}}, {"geometry": {"type": "Point", "coordinates": [90.71768, 23.92298]}, "type": "Feature", "id": "5183", "properties": {"status": "Implementation", "sectors": ["Transport", "Information and communication technology"], "title": "MFF-BAN RAILWAY SECTOR INVESTMENT PROGRAM", "approvalYear": "2007", "locationName": "Narsingdi", "id": "46004-32234-023-LN2316"}}, {"geometry": {"type": "Point", "coordinates": [88.93093, 25.66369]}, "type": "Feature", "id": "5184", "properties": {"status": "Implementation", "sectors": ["Transport", "Information and communication technology"], "title": "MFF-BAN RAILWAY SECTOR INVESTMENT PROGRAM", "approvalYear": "2007", "locationName": "Parbatipur", "id": "46004-32234-023-LN2316"}}, {"geometry": {"type": "Point", "coordinates": [91.12143, 23.24018]}, "type": "Feature", "id": "5185", "properties": {"status": "Implementation", "sectors": ["Transport", "Information and communication technology"], "title": "MFF-BAN RAILWAY SECTOR INVESTMENT PROGRAM", "approvalYear": "2007", "locationName": "Laksham", "id": "46004-32234-023-LN2316"}}, {"geometry": {"type": "Point", "coordinates": [89.06573, 24.12858]}, "type": "Feature", "id": "5186", "properties": {"status": "Implementation", "sectors": ["Transport", "Information and communication technology"], "title": "MFF-BAN RAILWAY SECTOR INVESTMENT PROGRAM", "approvalYear": "2007", "locationName": "Ishurdi", "id": "46004-32234-023-LN2316"}}, {"geometry": {"type": "Point", "coordinates": [90.40744, 23.7104]}, "type": "Feature", "id": "5187", "properties": {"status": "Implementation", "sectors": ["Transport", "Information and communication technology"], "title": "MFF-BAN RAILWAY SECTOR INVESTMENT PROGRAM", "approvalYear": "2007", "locationName": "Dhaka", "id": "46004-32234-023-LN2316"}}, {"geometry": {"type": "Point", "coordinates": [90.9764, 24.0524]}, "type": "Feature", "id": "5188", "properties": {"status": "Implementation", "sectors": ["Transport", "Information and communication technology"], "title": "MFF-BAN RAILWAY SECTOR INVESTMENT PROGRAM", "approvalYear": "2007", "locationName": "Bhairab Bazar", "id": "46004-32234-023-LN2316"}}, {"geometry": {"type": "Point", "coordinates": [90.4, 23.9]}, "type": "Feature", "id": "5189", "properties": {"status": "Implementation", "sectors": ["Transport", "Information and communication technology"], "title": "MFF-BAN RAILWAY SECTOR INVESTMENT PROGRAM", "approvalYear": "2007", "locationName": "Tongi", "id": "46004-32234-023-LN2316"}}, {"geometry": {"type": "Point", "coordinates": [90.53345, 23.56973]}, "type": "Feature", "id": "5190", "properties": {"status": "Implementation", "sectors": ["Transport", "Information and communication technology"], "title": "MFF-BAN RAILWAY SECTOR INVESTMENT PROGRAM", "approvalYear": "2007", "locationName": "Sitalakhya River", "id": "46004-32234-023-LN2316"}}, {"geometry": {"type": "Point", "coordinates": [90.46118, 24.00346]}, "type": "Feature", "id": "5191", "properties": {"status": "Implementation", "sectors": ["Transport", "Information and communication technology"], "title": "MFF-BAN RAILWAY SECTOR INVESTMENT PROGRAM", "approvalYear": "2007", "locationName": "Jamuna", "id": "46004-32234-023-LN2316"}}, {"geometry": {"type": "Point", "coordinates": [89.64997, 24.35899]}, "type": "Feature", "id": "5192", "properties": {"status": "Implementation", "sectors": ["Transport", "Information and communication technology"], "title": "MFF-BAN RAILWAY SECTOR INVESTMENT PROGRAM", "approvalYear": "2007", "locationName": "Jamtail", "id": "46004-32234-023-LN2316"}}, {"geometry": {"type": "Point", "coordinates": [90.82296, 23.96543]}, "type": "Feature", "id": "5193", "properties": {"status": "Implementation", "sectors": ["Transport", "Information and communication technology"], "title": "MFF-BAN RAILWAY SECTOR INVESTMENT PROGRAM", "approvalYear": "2007", "locationName": "Hantubhanga", "id": "46004-32234-023-LN2316"}}, {"geometry": {"type": "Point", "coordinates": [90.63035, 23.94129]}, "type": "Feature", "id": "5194", "properties": {"status": "Implementation", "sectors": ["Transport", "Information and communication technology"], "title": "MFF-BAN RAILWAY SECTOR INVESTMENT PROGRAM", "approvalYear": "2007", "locationName": "Ghorasal", "id": "46004-32234-023-LN2316"}}, {"geometry": {"type": "Point", "coordinates": [88.84827, 23.53578]}, "type": "Feature", "id": "5195", "properties": {"status": "Implementation", "sectors": ["Transport", "Information and communication technology"], "title": "MFF-BAN RAILWAY SECTOR INVESTMENT PROGRAM", "approvalYear": "2007", "locationName": "Darsana", "id": "46004-32234-023-LN2316"}}, {"geometry": {"type": "Point", "coordinates": [90.98333, 24.03333]}, "type": "Feature", "id": "5196", "properties": {"status": "Implementation", "sectors": ["Transport", "Information and communication technology"], "title": "MFF-BAN RAILWAY SECTOR INVESTMENT PROGRAM", "approvalYear": "2007", "locationName": "Brahmaputra River", "id": "46004-32234-023-LN2316"}}, {"geometry": {"type": "Point", "coordinates": [90.49942, 23.72264]}, "type": "Feature", "id": "5197", "properties": {"status": "Implementation", "sectors": ["Transport", "Information and communication technology"], "title": "MFF-BAN RAILWAY SECTOR INVESTMENT PROGRAM", "approvalYear": "2007", "locationName": "Balu River", "id": "46004-32234-023-LN2316"}}, {"geometry": {"type": "Point", "coordinates": [90.54927, 23.92894]}, "type": "Feature", "id": "5198", "properties": {"status": "Implementation", "sectors": ["Transport", "Information and communication technology"], "title": "MFF-BAN RAILWAY SECTOR INVESTMENT PROGRAM", "approvalYear": "2007", "locationName": "Arikhola", "id": "46004-32234-023-LN2316"}}, {"geometry": {"type": "Point", "coordinates": [90.74279, 23.91642]}, "type": "Feature", "id": "5199", "properties": {"status": "Implementation", "sectors": ["Transport", "Information and communication technology"], "title": "MFF-BAN RAILWAY SECTOR INVESTMENT PROGRAM", "approvalYear": "2007", "locationName": "Arial Khan River", "id": "46004-32234-023-LN2316"}}, {"geometry": {"type": "Point", "coordinates": [89.56439, 22.80978]}, "type": "Feature", "id": "5200", "properties": {"status": "Implementation", "sectors": ["Transport", "Information and communication technology"], "title": "MFF-BAN RAILWAY SECTOR INVESTMENT PROGRAM", "approvalYear": "2007", "locationName": "Khulna", "id": "46004-32234-023-LN2316"}}, {"geometry": {"type": "Point", "coordinates": [89.5, 25.25]}, "type": "Feature", "id": "5201", "properties": {"status": "Implementation", "sectors": ["Transport", "Information and communication technology"], "title": "MFF-BAN RAILWAY SECTOR INVESTMENT PROGRAM", "approvalYear": "2007", "locationName": "Gazipur District", "id": "46004-32234-023-LN2316"}}, {"geometry": {"type": "Point", "coordinates": [90.95, 24.41667]}, "type": "Feature", "id": "5202", "properties": {"status": "Implementation", "sectors": ["Transport", "Information and communication technology"], "title": "MFF-BAN RAILWAY SECTOR INVESTMENT PROGRAM", "approvalYear": "2007", "locationName": "Kishorganj District", "id": "46004-32234-023-LN2316"}}, {"geometry": {"type": "Point", "coordinates": [89.37108, 24.85098]}, "type": "Feature", "id": "5203", "properties": {"status": "Implementation", "sectors": ["Transport", "Information and communication technology"], "title": "MFF-BAN RAILWAY SECTOR INVESTMENT PROGRAM", "approvalYear": "2007", "locationName": "Bogra", "id": "46004-32234-023-LN2316"}}, {"geometry": {"type": "Point", "coordinates": [90.4, 24.02]}, "type": "Feature", "id": "5204", "properties": {"status": "Implementation", "sectors": ["Transport", "Information and communication technology"], "title": "MFF-BAN RAILWAY SECTOR INVESTMENT PROGRAM", "approvalYear": "2007", "locationName": "Gazipur S.", "id": "46004-32234-023-LN2316"}}, {"geometry": {"type": "Point", "coordinates": [90.76889, 23.93417]}, "type": "Feature", "id": "5205", "properties": {"status": "Implementation", "sectors": ["Transport", "Information and communication technology"], "title": "MFF-BAN RAILWAY SECTOR INVESTMENT PROGRAM", "approvalYear": "2007", "locationName": "Amirganj Railway station", "id": "46004-32234-023-LN2316"}}, {"geometry": {"type": "Point", "coordinates": [89.70802, 24.45771]}, "type": "Feature", "id": "5206", "properties": {"status": "Implementation", "sectors": ["Transport"], "title": "MFF-BAN:RAILWAY SECTOR INVESTMENT PROGRAM REFORM", "approvalYear": "2007", "locationName": "Sirajganj", "id": "46004-32234-023-LN2317"}}, {"geometry": {"type": "Point", "coordinates": [90.71768, 23.92298]}, "type": "Feature", "id": "5207", "properties": {"status": "Implementation", "sectors": ["Transport"], "title": "MFF-BAN:RAILWAY SECTOR INVESTMENT PROGRAM REFORM", "approvalYear": "2007", "locationName": "Narsingdi", "id": "46004-32234-023-LN2317"}}, {"geometry": {"type": "Point", "coordinates": [88.93093, 25.66369]}, "type": "Feature", "id": "5208", "properties": {"status": "Implementation", "sectors": ["Transport"], "title": "MFF-BAN:RAILWAY SECTOR INVESTMENT PROGRAM REFORM", "approvalYear": "2007", "locationName": "Parbatipur", "id": "46004-32234-023-LN2317"}}, {"geometry": {"type": "Point", "coordinates": [91.12143, 23.24018]}, "type": "Feature", "id": "5209", "properties": {"status": "Implementation", "sectors": ["Transport"], "title": "MFF-BAN:RAILWAY SECTOR INVESTMENT PROGRAM REFORM", "approvalYear": "2007", "locationName": "Laksham", "id": "46004-32234-023-LN2317"}}, {"geometry": {"type": "Point", "coordinates": [89.06573, 24.12858]}, "type": "Feature", "id": "5210", "properties": {"status": "Implementation", "sectors": ["Transport"], "title": "MFF-BAN:RAILWAY SECTOR INVESTMENT PROGRAM REFORM", "approvalYear": "2007", "locationName": "Ishurdi", "id": "46004-32234-023-LN2317"}}, {"geometry": {"type": "Point", "coordinates": [90.40744, 23.7104]}, "type": "Feature", "id": "5211", "properties": {"status": "Implementation", "sectors": ["Transport"], "title": "MFF-BAN:RAILWAY SECTOR INVESTMENT PROGRAM REFORM", "approvalYear": "2007", "locationName": "Dhaka", "id": "46004-32234-023-LN2317"}}, {"geometry": {"type": "Point", "coordinates": [90.9764, 24.0524]}, "type": "Feature", "id": "5212", "properties": {"status": "Implementation", "sectors": ["Transport"], "title": "MFF-BAN:RAILWAY SECTOR INVESTMENT PROGRAM REFORM", "approvalYear": "2007", "locationName": "Bhairab Bazar", "id": "46004-32234-023-LN2317"}}, {"geometry": {"type": "Point", "coordinates": [90.4, 23.9]}, "type": "Feature", "id": "5213", "properties": {"status": "Implementation", "sectors": ["Transport"], "title": "MFF-BAN:RAILWAY SECTOR INVESTMENT PROGRAM REFORM", "approvalYear": "2007", "locationName": "Tongi", "id": "46004-32234-023-LN2317"}}, {"geometry": {"type": "Point", "coordinates": [90.53345, 23.56973]}, "type": "Feature", "id": "5214", "properties": {"status": "Implementation", "sectors": ["Transport"], "title": "MFF-BAN:RAILWAY SECTOR INVESTMENT PROGRAM REFORM", "approvalYear": "2007", "locationName": "Sitalakhya River", "id": "46004-32234-023-LN2317"}}, {"geometry": {"type": "Point", "coordinates": [90.46118, 24.00346]}, "type": "Feature", "id": "5215", "properties": {"status": "Implementation", "sectors": ["Transport"], "title": "MFF-BAN:RAILWAY SECTOR INVESTMENT PROGRAM REFORM", "approvalYear": "2007", "locationName": "Jamuna", "id": "46004-32234-023-LN2317"}}, {"geometry": {"type": "Point", "coordinates": [89.64997, 24.35899]}, "type": "Feature", "id": "5216", "properties": {"status": "Implementation", "sectors": ["Transport"], "title": "MFF-BAN:RAILWAY SECTOR INVESTMENT PROGRAM REFORM", "approvalYear": "2007", "locationName": "Jamtail", "id": "46004-32234-023-LN2317"}}, {"geometry": {"type": "Point", "coordinates": [90.82296, 23.96543]}, "type": "Feature", "id": "5217", "properties": {"status": "Implementation", "sectors": ["Transport"], "title": "MFF-BAN:RAILWAY SECTOR INVESTMENT PROGRAM REFORM", "approvalYear": "2007", "locationName": "Hantubhanga", "id": "46004-32234-023-LN2317"}}, {"geometry": {"type": "Point", "coordinates": [90.63035, 23.94129]}, "type": "Feature", "id": "5218", "properties": {"status": "Implementation", "sectors": ["Transport"], "title": "MFF-BAN:RAILWAY SECTOR INVESTMENT PROGRAM REFORM", "approvalYear": "2007", "locationName": "Ghorasal", "id": "46004-32234-023-LN2317"}}, {"geometry": {"type": "Point", "coordinates": [88.84827, 23.53578]}, "type": "Feature", "id": "5219", "properties": {"status": "Implementation", "sectors": ["Transport"], "title": "MFF-BAN:RAILWAY SECTOR INVESTMENT PROGRAM REFORM", "approvalYear": "2007", "locationName": "Darsana", "id": "46004-32234-023-LN2317"}}, {"geometry": {"type": "Point", "coordinates": [90.98333, 24.03333]}, "type": "Feature", "id": "5220", "properties": {"status": "Implementation", "sectors": ["Transport"], "title": "MFF-BAN:RAILWAY SECTOR INVESTMENT PROGRAM REFORM", "approvalYear": "2007", "locationName": "Brahmaputra River", "id": "46004-32234-023-LN2317"}}, {"geometry": {"type": "Point", "coordinates": [90.49942, 23.72264]}, "type": "Feature", "id": "5221", "properties": {"status": "Implementation", "sectors": ["Transport"], "title": "MFF-BAN:RAILWAY SECTOR INVESTMENT PROGRAM REFORM", "approvalYear": "2007", "locationName": "Balu River", "id": "46004-32234-023-LN2317"}}, {"geometry": {"type": "Point", "coordinates": [90.54927, 23.92894]}, "type": "Feature", "id": "5222", "properties": {"status": "Implementation", "sectors": ["Transport"], "title": "MFF-BAN:RAILWAY SECTOR INVESTMENT PROGRAM REFORM", "approvalYear": "2007", "locationName": "Arikhola", "id": "46004-32234-023-LN2317"}}, {"geometry": {"type": "Point", "coordinates": [90.74279, 23.91642]}, "type": "Feature", "id": "5223", "properties": {"status": "Implementation", "sectors": ["Transport"], "title": "MFF-BAN:RAILWAY SECTOR INVESTMENT PROGRAM REFORM", "approvalYear": "2007", "locationName": "Arial Khan River", "id": "46004-32234-023-LN2317"}}, {"geometry": {"type": "Point", "coordinates": [89.56439, 22.80978]}, "type": "Feature", "id": "5224", "properties": {"status": "Implementation", "sectors": ["Transport"], "title": "MFF-BAN:RAILWAY SECTOR INVESTMENT PROGRAM REFORM", "approvalYear": "2007", "locationName": "Khulna", "id": "46004-32234-023-LN2317"}}, {"geometry": {"type": "Point", "coordinates": [89.5, 25.25]}, "type": "Feature", "id": "5225", "properties": {"status": "Implementation", "sectors": ["Transport"], "title": "MFF-BAN:RAILWAY SECTOR INVESTMENT PROGRAM REFORM", "approvalYear": "2007", "locationName": "Gazipur District", "id": "46004-32234-023-LN2317"}}, {"geometry": {"type": "Point", "coordinates": [90.95, 24.41667]}, "type": "Feature", "id": "5226", "properties": {"status": "Implementation", "sectors": ["Transport"], "title": "MFF-BAN:RAILWAY SECTOR INVESTMENT PROGRAM REFORM", "approvalYear": "2007", "locationName": "Kishorganj District", "id": "46004-32234-023-LN2317"}}, {"geometry": {"type": "Point", "coordinates": [89.37108, 24.85098]}, "type": "Feature", "id": "5227", "properties": {"status": "Implementation", "sectors": ["Transport"], "title": "MFF-BAN:RAILWAY SECTOR INVESTMENT PROGRAM REFORM", "approvalYear": "2007", "locationName": "Bogra", "id": "46004-32234-023-LN2317"}}, {"geometry": {"type": "Point", "coordinates": [90.4, 24.02]}, "type": "Feature", "id": "5228", "properties": {"status": "Implementation", "sectors": ["Transport"], "title": "MFF-BAN:RAILWAY SECTOR INVESTMENT PROGRAM REFORM", "approvalYear": "2007", "locationName": "Gazipur S.", "id": "46004-32234-023-LN2317"}}, {"geometry": {"type": "Point", "coordinates": [90.76889, 23.93417]}, "type": "Feature", "id": "5229", "properties": {"status": "Implementation", "sectors": ["Transport"], "title": "MFF-BAN:RAILWAY SECTOR INVESTMENT PROGRAM REFORM", "approvalYear": "2007", "locationName": "Amirganj Railway station", "id": "46004-32234-023-LN2317"}}, {"geometry": {"type": "Point", "coordinates": [90.3925, 23.73155]}, "type": "Feature", "id": "5230", "properties": {"status": "Implementation", "sectors": ["Energy"], "title": "SUSTAINABLE POWER SECTOR DEVELOPMENT PROJECT", "approvalYear": "2007", "locationName": "University of Dhaka", "id": "46004-36107-013-LN2332"}}, {"geometry": {"type": "Point", "coordinates": [90.40556, 23.82444]}, "type": "Feature", "id": "5231", "properties": {"status": "Implementation", "sectors": ["Energy"], "title": "SUSTAINABLE POWER SECTOR DEVELOPMENT PROJECT", "approvalYear": "2007", "locationName": "Dhaka Cantonment", "id": "46004-36107-013-LN2332"}}, {"geometry": {"type": "Point", "coordinates": [90.40232, 23.89154]}, "type": "Feature", "id": "5232", "properties": {"status": "Implementation", "sectors": ["Energy"], "title": "SUSTAINABLE POWER SECTOR DEVELOPMENT PROJECT", "approvalYear": "2007", "locationName": "Tongi", "id": "46004-36107-013-LN2332"}}, {"geometry": {"type": "Point", "coordinates": [89.70802, 24.45771]}, "type": "Feature", "id": "5233", "properties": {"status": "Implementation", "sectors": ["Energy"], "title": "SUSTAINABLE POWER SECTOR DEVELOPMENT PROJECT", "approvalYear": "2007", "locationName": "Sirajganj", "id": "46004-36107-013-LN2332"}}, {"geometry": {"type": "Point", "coordinates": [90.40744, 23.7104]}, "type": "Feature", "id": "5234", "properties": {"status": "Implementation", "sectors": ["Energy"], "title": "SUSTAINABLE POWER SECTOR DEVELOPMENT PROJECT", "approvalYear": "2007", "locationName": "Dhaka", "id": "46004-36107-013-LN2332"}}, {"geometry": {"type": "Point", "coordinates": [89.56439, 22.80978]}, "type": "Feature", "id": "5235", "properties": {"status": "Implementation", "sectors": ["Energy"], "title": "SUSTAINABLE POWER SECTOR DEVELOPMENT PROJECT", "approvalYear": "2007", "locationName": "Khulna", "id": "46004-36107-013-LN2332"}}, {"geometry": {"type": "Point", "coordinates": [90.36542, 23.81093]}, "type": "Feature", "id": "5236", "properties": {"status": "Implementation", "sectors": ["Energy"], "title": "SUSTAINABLE POWER SECTOR DEVELOPMENT PROJECT", "approvalYear": "2007", "locationName": "Dhaka District", "id": "46004-36107-013-LN2332"}}, {"geometry": {"type": "Point", "coordinates": [90.58333, 23.75]}, "type": "Feature", "id": "5237", "properties": {"status": "Implementation", "sectors": ["Energy"], "title": "SUSTAINABLE POWER SECTOR DEVELOPMENT PROJECT", "approvalYear": "2007", "locationName": "Narayanganj District", "id": "46004-36107-013-LN2332"}}, {"geometry": {"type": "Point", "coordinates": [90.366, 23.805]}, "type": "Feature", "id": "5238", "properties": {"status": "Implementation", "sectors": ["Energy"], "title": "SUSTAINABLE POWER SECTOR DEVELOPMENT PROJECT", "approvalYear": "2007", "locationName": "Mirpur", "id": "46004-36107-013-LN2332"}}, {"geometry": {"type": "Point", "coordinates": [90.4167, 23.7917]}, "type": "Feature", "id": "5239", "properties": {"status": "Implementation", "sectors": ["Energy"], "title": "SUSTAINABLE POWER SECTOR DEVELOPMENT PROJECT", "approvalYear": "2007", "locationName": "Gulshan", "id": "46004-36107-013-LN2332"}}, {"geometry": {"type": "Point", "coordinates": [90.60139, 23.60972]}, "type": "Feature", "id": "5240", "properties": {"status": "Implementation", "sectors": ["Energy"], "title": "SUSTAINABLE POWER SECTOR DEVELOPMENT PROJECT", "approvalYear": "2007", "locationName": "Meghnaghat", "id": "46004-36107-013-LN2332"}}, {"geometry": {"type": "Point", "coordinates": [90.33013, 23.78457]}, "type": "Feature", "id": "5241", "properties": {"status": "Implementation", "sectors": ["Energy"], "title": "SUSTAINABLE POWER SECTOR DEVELOPMENT PROJECT", "approvalYear": "2007", "locationName": "Aminbazar", "id": "46004-36107-013-LN2332"}}, {"geometry": {"type": "Point", "coordinates": [90.3925, 23.73155]}, "type": "Feature", "id": "5242", "properties": {"status": "Completion", "sectors": ["Energy"], "title": "SUSTAINABLE POWER SECTOR DEVELOPMENT PROJECT", "approvalYear": "2007", "locationName": "University of Dhaka", "id": "46004-36107-013-LN2333"}}, {"geometry": {"type": "Point", "coordinates": [90.40556, 23.82444]}, "type": "Feature", "id": "5243", "properties": {"status": "Completion", "sectors": ["Energy"], "title": "SUSTAINABLE POWER SECTOR DEVELOPMENT PROJECT", "approvalYear": "2007", "locationName": "Dhaka Cantonment", "id": "46004-36107-013-LN2333"}}, {"geometry": {"type": "Point", "coordinates": [90.40232, 23.89154]}, "type": "Feature", "id": "5244", "properties": {"status": "Completion", "sectors": ["Energy"], "title": "SUSTAINABLE POWER SECTOR DEVELOPMENT PROJECT", "approvalYear": "2007", "locationName": "Tongi", "id": "46004-36107-013-LN2333"}}, {"geometry": {"type": "Point", "coordinates": [89.70802, 24.45771]}, "type": "Feature", "id": "5245", "properties": {"status": "Completion", "sectors": ["Energy"], "title": "SUSTAINABLE POWER SECTOR DEVELOPMENT PROJECT", "approvalYear": "2007", "locationName": "Sirajganj", "id": "46004-36107-013-LN2333"}}, {"geometry": {"type": "Point", "coordinates": [90.40744, 23.7104]}, "type": "Feature", "id": "5246", "properties": {"status": "Completion", "sectors": ["Energy"], "title": "SUSTAINABLE POWER SECTOR DEVELOPMENT PROJECT", "approvalYear": "2007", "locationName": "Dhaka", "id": "46004-36107-013-LN2333"}}, {"geometry": {"type": "Point", "coordinates": [89.56439, 22.80978]}, "type": "Feature", "id": "5247", "properties": {"status": "Completion", "sectors": ["Energy"], "title": "SUSTAINABLE POWER SECTOR DEVELOPMENT PROJECT", "approvalYear": "2007", "locationName": "Khulna", "id": "46004-36107-013-LN2333"}}, {"geometry": {"type": "Point", "coordinates": [90.36542, 23.81093]}, "type": "Feature", "id": "5248", "properties": {"status": "Completion", "sectors": ["Energy"], "title": "SUSTAINABLE POWER SECTOR DEVELOPMENT PROJECT", "approvalYear": "2007", "locationName": "Dhaka District", "id": "46004-36107-013-LN2333"}}, {"geometry": {"type": "Point", "coordinates": [90.58333, 23.75]}, "type": "Feature", "id": "5249", "properties": {"status": "Completion", "sectors": ["Energy"], "title": "SUSTAINABLE POWER SECTOR DEVELOPMENT PROJECT", "approvalYear": "2007", "locationName": "Narayanganj District", "id": "46004-36107-013-LN2333"}}, {"geometry": {"type": "Point", "coordinates": [90.366, 23.805]}, "type": "Feature", "id": "5250", "properties": {"status": "Completion", "sectors": ["Energy"], "title": "SUSTAINABLE POWER SECTOR DEVELOPMENT PROJECT", "approvalYear": "2007", "locationName": "Mirpur", "id": "46004-36107-013-LN2333"}}, {"geometry": {"type": "Point", "coordinates": [90.4167, 23.7917]}, "type": "Feature", "id": "5251", "properties": {"status": "Completion", "sectors": ["Energy"], "title": "SUSTAINABLE POWER SECTOR DEVELOPMENT PROJECT", "approvalYear": "2007", "locationName": "Gulshan", "id": "46004-36107-013-LN2333"}}, {"geometry": {"type": "Point", "coordinates": [90.60139, 23.60972]}, "type": "Feature", "id": "5252", "properties": {"status": "Completion", "sectors": ["Energy"], "title": "SUSTAINABLE POWER SECTOR DEVELOPMENT PROJECT", "approvalYear": "2007", "locationName": "Meghnaghat", "id": "46004-36107-013-LN2333"}}, {"geometry": {"type": "Point", "coordinates": [90.33013, 23.78457]}, "type": "Feature", "id": "5253", "properties": {"status": "Completion", "sectors": ["Energy"], "title": "SUSTAINABLE POWER SECTOR DEVELOPMENT PROJECT", "approvalYear": "2007", "locationName": "Aminbazar", "id": "46004-36107-013-LN2333"}}, {"geometry": {"type": "Point", "coordinates": [90.0, 24.0]}, "type": "Feature", "id": "5254", "properties": {"status": "Implementation", "sectors": ["Public sector management"], "title": "GOOD GOVERNANCE PROGRAM", "approvalYear": "2007", "locationName": "Bangladesh", "id": "46004-37017-013-LN2362"}}, {"geometry": {"type": "Point", "coordinates": [90.40744, 23.7104]}, "type": "Feature", "id": "5255", "properties": {"status": "Implementation", "sectors": ["Water supply and other urban infrastructure and services"], "title": "DHAKA WATER SUPPLY SECTOR DEVELOPMENT PROGRAM (PROJECT LOAN)", "approvalYear": "2007", "locationName": "Dhaka", "id": "46004-39405-013-LN2382"}}, {"geometry": {"type": "Point", "coordinates": [90.40744, 23.7104]}, "type": "Feature", "id": "5256", "properties": {"status": "Completion", "sectors": ["Water supply and other urban infrastructure and services"], "title": "DHAKA WATER SUPPLY SECTOR DEVELOPMENT PROGRAM", "approvalYear": "2007", "locationName": "Dhaka", "id": "46004-39405-013-LN2383"}}, {"geometry": {"type": "Point", "coordinates": [89.58333, 27.6]}, "type": "Feature", "id": "5257", "properties": {"status": "Implementation", "sectors": ["Information and communication technology"], "title": "SASEC INFORMATION HIGHWAY PROJECT (BAN,BHU,IND,NEP)", "approvalYear": "2009", "locationName": "Thimphu Dzongkhag", "id": "46004-40054-013-LN2397"}}, {"geometry": {"type": "Point", "coordinates": [89.42317, 26.91389]}, "type": "Feature", "id": "5258", "properties": {"status": "Implementation", "sectors": ["Information and communication technology"], "title": "SASEC INFORMATION HIGHWAY PROJECT (BAN,BHU,IND,NEP)", "approvalYear": "2009", "locationName": "Phuentsholing", "id": "46004-40054-013-LN2397"}}, {"geometry": {"type": "Point", "coordinates": [89.39048, 26.85892]}, "type": "Feature", "id": "5259", "properties": {"status": "Implementation", "sectors": ["Information and communication technology"], "title": "SASEC INFORMATION HIGHWAY PROJECT (BAN,BHU,IND,NEP)", "approvalYear": "2009", "locationName": "Phuentsholing", "id": "46004-40054-013-LN2397"}}, {"geometry": {"type": "Point", "coordinates": [89.64191, 27.46609]}, "type": "Feature", "id": "5260", "properties": {"status": "Implementation", "sectors": ["Information and communication technology"], "title": "SASEC INFORMATION HIGHWAY PROJECT (BAN,BHU,IND,NEP)", "approvalYear": "2009", "locationName": "Thimphu", "id": "46004-40054-013-LN2397"}}, {"geometry": {"type": "Point", "coordinates": [90.0, 24.0]}, "type": "Feature", "id": "5261", "properties": {"status": "Implementation", "sectors": ["Education"], "title": "SKILLS DEVELOPMENT PROJECT", "approvalYear": "2008", "locationName": "Bangladesh", "id": "46004-39408-013-LN2425"}}, {"geometry": {"type": "Point", "coordinates": [90.0, 24.0]}, "type": "Feature", "id": "5262", "properties": {"status": "Completion", "sectors": ["Finance"], "title": "PUBLIC-PRIVATE INFRASTRUCTURE DEVELOPMENT FACILITY", "approvalYear": "2008", "locationName": "Bangladesh", "id": "46004-40517-013-LN2453"}}, {"geometry": {"type": "Point", "coordinates": [90.0, 24.0]}, "type": "Feature", "id": "5263", "properties": {"status": "Implementation", "sectors": ["Multisector"], "title": "PUBLIC-PRIVATE INFRASTRUCTURE DEVELOPMENT FACILITY", "approvalYear": "2008", "locationName": "Bangladesh", "id": "46004-40517-013-LN2454"}}, {"geometry": {"type": "Point", "coordinates": [88.46989, 26.03097]}, "type": "Feature", "id": "5264", "properties": {"status": "Implementation", "sectors": ["Transport"], "title": "SECOND URBAN GOVERNANCE & INFRASTRUCTURE IMPROVEMENT(SECTOR)PROJ", "approvalYear": "2008", "locationName": "Thakurgaon", "id": "46004-40559-013-LN2462"}}, {"geometry": {"type": "Point", "coordinates": [91.40243, 25.06889]}, "type": "Feature", "id": "5265", "properties": {"status": "Implementation", "sectors": ["Transport"], "title": "SECOND URBAN GOVERNANCE & INFRASTRUCTURE IMPROVEMENT(SECTOR)PROJ", "approvalYear": "2008", "locationName": "Sunamganj", "id": "46004-40559-013-LN2462"}}, {"geometry": {"type": "Point", "coordinates": [89.94812, 24.91965]}, "type": "Feature", "id": "5266", "properties": {"status": "Implementation", "sectors": ["Transport"], "title": "SECOND URBAN GOVERNANCE & INFRASTRUCTURE IMPROVEMENT(SECTOR)PROJ", "approvalYear": "2008", "locationName": "Jamalpur", "id": "46004-40559-013-LN2462"}}, {"geometry": {"type": "Point", "coordinates": [89.07185, 22.70817]}, "type": "Feature", "id": "5267", "properties": {"status": "Implementation", "sectors": ["Transport"], "title": "SECOND URBAN GOVERNANCE & INFRASTRUCTURE IMPROVEMENT(SECTOR)PROJ", "approvalYear": "2008", "locationName": "Satkhira", "id": "46004-40559-013-LN2462"}}, {"geometry": {"type": "Point", "coordinates": [91.11228, 23.97464]}, "type": "Feature", "id": "5268", "properties": {"status": "Implementation", "sectors": ["Transport"], "title": "SECOND URBAN GOVERNANCE & INFRASTRUCTURE IMPROVEMENT(SECTOR)PROJ", "approvalYear": "2008", "locationName": "Brahmanbaria", "id": "46004-40559-013-LN2462"}}, {"geometry": {"type": "Point", "coordinates": [88.39, 24.73]}, "type": "Feature", "id": "5269", "properties": {"status": "Implementation", "sectors": ["Transport"], "title": "SECOND URBAN GOVERNANCE & INFRASTRUCTURE IMPROVEMENT(SECTOR)PROJ", "approvalYear": "2008", "locationName": "Nachole", "id": "46004-40559-013-LN2462"}}, {"geometry": {"type": "Point", "coordinates": [91.68, 24.3]}, "type": "Feature", "id": "5270", "properties": {"status": "Implementation", "sectors": ["Transport"], "title": "SECOND URBAN GOVERNANCE & INFRASTRUCTURE IMPROVEMENT(SECTOR)PROJ", "approvalYear": "2008", "locationName": "Sreemangal", "id": "46004-40559-013-LN2462"}}, {"geometry": {"type": "Point", "coordinates": [88.98, 24.45]}, "type": "Feature", "id": "5271", "properties": {"status": "Implementation", "sectors": ["Transport"], "title": "SECOND URBAN GOVERNANCE & INFRASTRUCTURE IMPROVEMENT(SECTOR)PROJ", "approvalYear": "2008", "locationName": "Natore S.", "id": "46004-40559-013-LN2462"}}, {"geometry": {"type": "Point", "coordinates": [89.64284, 25.81158]}, "type": "Feature", "id": "5272", "properties": {"status": "Implementation", "sectors": ["Transport"], "title": "SECOND URBAN GOVERNANCE & INFRASTRUCTURE IMPROVEMENT(SECTOR)PROJ", "approvalYear": "2008", "locationName": "Kurigram", "id": "46004-40559-013-LN2462"}}, {"geometry": {"type": "Point", "coordinates": [91.43, 23.21]}, "type": "Feature", "id": "5273", "properties": {"status": "Implementation", "sectors": ["Transport"], "title": "SECOND URBAN GOVERNANCE & INFRASTRUCTURE IMPROVEMENT(SECTOR)PROJ", "approvalYear": "2008", "locationName": "Parshuram", "id": "46004-40559-013-LN2462"}}, {"geometry": {"type": "Point", "coordinates": [90.45, 24.24]}, "type": "Feature", "id": "5274", "properties": {"status": "Implementation", "sectors": ["Transport"], "title": "SECOND URBAN GOVERNANCE & INFRASTRUCTURE IMPROVEMENT(SECTOR)PROJ", "approvalYear": "2008", "locationName": "Sreepur", "id": "46004-40559-013-LN2462"}}, {"geometry": {"type": "Point", "coordinates": [89.183, 23.542]}, "type": "Feature", "id": "5275", "properties": {"status": "Implementation", "sectors": ["Transport"], "title": "SECOND URBAN GOVERNANCE & INFRASTRUCTURE IMPROVEMENT(SECTOR)PROJ", "approvalYear": "2008", "locationName": "Jhenaidah Sardar UZ", "id": "46004-40559-013-LN2462"}}, {"geometry": {"type": "Point", "coordinates": [89.5438, 25.3293]}, "type": "Feature", "id": "5276", "properties": {"status": "Implementation", "sectors": ["Transport"], "title": "SECOND URBAN GOVERNANCE & INFRASTRUCTURE IMPROVEMENT(SECTOR)PROJ", "approvalYear": "2008", "locationName": "Gaibandha", "id": "46004-40559-013-LN2462"}}, {"geometry": {"type": "Point", "coordinates": [90.11758, 22.15672]}, "type": "Feature", "id": "5277", "properties": {"status": "Implementation", "sectors": ["Transport"], "title": "SECOND URBAN GOVERNANCE & INFRASTRUCTURE IMPROVEMENT(SECTOR)PROJ", "approvalYear": "2008", "locationName": "Barguna", "id": "46004-40559-013-LN2462"}}, {"geometry": {"type": "Point", "coordinates": [90.20109, 22.64265]}, "type": "Feature", "id": "5278", "properties": {"status": "Implementation", "sectors": ["Transport"], "title": "SECOND URBAN GOVERNANCE & INFRASTRUCTURE IMPROVEMENT(SECTOR)PROJ", "approvalYear": "2008", "locationName": "Jhalakati", "id": "46004-40559-013-LN2462"}}, {"geometry": {"type": "Point", "coordinates": [89.98389, 23.39194]}, "type": "Feature", "id": "5279", "properties": {"status": "Implementation", "sectors": ["Transport"], "title": "SECOND URBAN GOVERNANCE & INFRASTRUCTURE IMPROVEMENT(SECTOR)PROJ", "approvalYear": "2008", "locationName": "Bhanga", "id": "46004-40559-013-LN2462"}}, {"geometry": {"type": "Point", "coordinates": [92.01388, 24.85722]}, "type": "Feature", "id": "5280", "properties": {"status": "Implementation", "sectors": ["Transport"], "title": "SECOND URBAN GOVERNANCE & INFRASTRUCTURE IMPROVEMENT(SECTOR)PROJ", "approvalYear": "2008", "locationName": "Golapganj", "id": "46004-40559-013-LN2462"}}, {"geometry": {"type": "Point", "coordinates": [89.70802, 24.45771]}, "type": "Feature", "id": "5281", "properties": {"status": "Implementation", "sectors": ["Transport"], "title": "SECOND URBAN GOVERNANCE & INFRASTRUCTURE IMPROVEMENT(SECTOR)PROJ", "approvalYear": "2008", "locationName": "Sirajganj", "id": "46004-40559-013-LN2462"}}, {"geometry": {"type": "Point", "coordinates": [90.40646, 24.75636]}, "type": "Feature", "id": "5282", "properties": {"status": "Implementation", "sectors": ["Transport"], "title": "SECOND URBAN GOVERNANCE & INFRASTRUCTURE IMPROVEMENT(SECTOR)PROJ", "approvalYear": "2008", "locationName": "Mymensingh", "id": "46004-40559-013-LN2462"}}, {"geometry": {"type": "Point", "coordinates": [90.09841, 24.10287]}, "type": "Feature", "id": "5283", "properties": {"status": "Implementation", "sectors": ["Transport"], "title": "SECOND URBAN GOVERNANCE & INFRASTRUCTURE IMPROVEMENT(SECTOR)PROJ", "approvalYear": "2008", "locationName": "Mirzapur", "id": "46004-40559-013-LN2462"}}, {"geometry": {"type": "Point", "coordinates": [91.18504, 23.46186]}, "type": "Feature", "id": "5284", "properties": {"status": "Implementation", "sectors": ["Transport"], "title": "SECOND URBAN GOVERNANCE & INFRASTRUCTURE IMPROVEMENT(SECTOR)PROJ", "approvalYear": "2008", "locationName": "Comilla", "id": "46004-40559-013-LN2462"}}, {"geometry": {"type": "Point", "coordinates": [89.25166, 25.74664]}, "type": "Feature", "id": "5285", "properties": {"status": "Implementation", "sectors": ["Transport"], "title": "SECOND URBAN GOVERNANCE & INFRASTRUCTURE IMPROVEMENT(SECTOR)PROJ", "approvalYear": "2008", "locationName": "Rangpur", "id": "46004-40559-013-LN2462"}}, {"geometry": {"type": "Point", "coordinates": [89.79123, 22.65657]}, "type": "Feature", "id": "5286", "properties": {"status": "Implementation", "sectors": ["Transport"], "title": "SECOND URBAN GOVERNANCE & INFRASTRUCTURE IMPROVEMENT(SECTOR)PROJ", "approvalYear": "2008", "locationName": "Bagherhat", "id": "46004-40559-013-LN2462"}}, {"geometry": {"type": "Point", "coordinates": [89.49515, 23.15509]}, "type": "Feature", "id": "5287", "properties": {"status": "Implementation", "sectors": ["Transport"], "title": "SECOND URBAN GOVERNANCE & INFRASTRUCTURE IMPROVEMENT(SECTOR)PROJ", "approvalYear": "2008", "locationName": "Narail", "id": "46004-40559-013-LN2462"}}, {"geometry": {"type": "Point", "coordinates": [90.66667, 22.83333]}, "type": "Feature", "id": "5288", "properties": {"status": "Implementation", "sectors": ["Transport"], "title": "SECOND URBAN GOVERNANCE & INFRASTRUCTURE IMPROVEMENT(SECTOR)PROJ", "approvalYear": "2008", "locationName": "Noakhali", "id": "46004-40559-013-LN2462"}}, {"geometry": {"type": "Point", "coordinates": [90.25708, 23.49879]}, "type": "Feature", "id": "5289", "properties": {"status": "Implementation", "sectors": ["Transport"], "title": "SECOND URBAN GOVERNANCE & INFRASTRUCTURE IMPROVEMENT(SECTOR)PROJ", "approvalYear": "2008", "locationName": "Kolapara", "id": "46004-40559-013-LN2462"}}, {"geometry": {"type": "Point", "coordinates": [90.63035, 23.94129]}, "type": "Feature", "id": "5290", "properties": {"status": "Implementation", "sectors": ["Transport"], "title": "SECOND URBAN GOVERNANCE & INFRASTRUCTURE IMPROVEMENT(SECTOR)PROJ", "approvalYear": "2008", "locationName": "Ghorasal", "id": "46004-40559-013-LN2462"}}, {"geometry": {"type": "Point", "coordinates": [89.84064, 23.60612]}, "type": "Feature", "id": "5291", "properties": {"status": "Implementation", "sectors": ["Transport"], "title": "SECOND URBAN GOVERNANCE & INFRASTRUCTURE IMPROVEMENT(SECTOR)PROJ", "approvalYear": "2008", "locationName": "Faridpur", "id": "46004-40559-013-LN2462"}}, {"geometry": {"type": "Point", "coordinates": [88.63779, 25.62745]}, "type": "Feature", "id": "5292", "properties": {"status": "Implementation", "sectors": ["Transport"], "title": "SECOND URBAN GOVERNANCE & INFRASTRUCTURE IMPROVEMENT(SECTOR)PROJ", "approvalYear": "2008", "locationName": "Dinajpur", "id": "46004-40559-013-LN2462"}}, {"geometry": {"type": "Point", "coordinates": [91.11667, 22.93333]}, "type": "Feature", "id": "5293", "properties": {"status": "Implementation", "sectors": ["Transport"], "title": "SECOND URBAN GOVERNANCE & INFRASTRUCTURE IMPROVEMENT(SECTOR)PROJ", "approvalYear": "2008", "locationName": "Chaumuhani", "id": "46004-40559-013-LN2462"}}, {"geometry": {"type": "Point", "coordinates": [90.94317, 23.19905]}, "type": "Feature", "id": "5294", "properties": {"status": "Implementation", "sectors": ["Transport"], "title": "SECOND URBAN GOVERNANCE & INFRASTRUCTURE IMPROVEMENT(SECTOR)PROJ", "approvalYear": "2008", "locationName": "Chandpur", "id": "46004-40559-013-LN2462"}}, {"geometry": {"type": "Point", "coordinates": [88.9059, 23.04697]}, "type": "Feature", "id": "5295", "properties": {"status": "Implementation", "sectors": ["Transport"], "title": "SECOND URBAN GOVERNANCE & INFRASTRUCTURE IMPROVEMENT(SECTOR)PROJ", "approvalYear": "2008", "locationName": "Benapol", "id": "46004-40559-013-LN2462"}}, {"geometry": {"type": "Point", "coordinates": [91.96765, 21.45388]}, "type": "Feature", "id": "5296", "properties": {"status": "Implementation", "sectors": ["Transport"], "title": "SECOND URBAN GOVERNANCE & INFRASTRUCTURE IMPROVEMENT(SECTOR)PROJ", "approvalYear": "2008", "locationName": "Cox's Bazar", "id": "46004-40559-013-LN2462"}}, {"geometry": {"type": "Point", "coordinates": [90.64403, 22.68759]}, "type": "Feature", "id": "5297", "properties": {"status": "Implementation", "sectors": ["Transport"], "title": "SECOND URBAN GOVERNANCE & INFRASTRUCTURE IMPROVEMENT(SECTOR)PROJ", "approvalYear": "2008", "locationName": "Bhola", "id": "46004-40559-013-LN2462"}}, {"geometry": {"type": "Point", "coordinates": [90.53459, 23.5517]}, "type": "Feature", "id": "5298", "properties": {"status": "Implementation", "sectors": ["Transport"], "title": "SECOND URBAN GOVERNANCE & INFRASTRUCTURE IMPROVEMENT(SECTOR)PROJ", "approvalYear": "2008", "locationName": "Munshiganj", "id": "46004-40559-013-LN2462"}}, {"geometry": {"type": "Point", "coordinates": [90.51236, 22.46074]}, "type": "Feature", "id": "5299", "properties": {"status": "Implementation", "sectors": ["Agriculture, natural resources and rural development"], "title": "PARTICIPATORY SMALL SCALE WATER RESOURCES SECTOR PROJECT", "approvalYear": "2009", "locationName": "Kanakdia", "id": "46004-39432-013-LN2542"}}, {"geometry": {"type": "Point", "coordinates": [90.53826, 24.18058]}, "type": "Feature", "id": "5300", "properties": {"status": "Implementation", "sectors": ["Agriculture, natural resources and rural development"], "title": "PARTICIPATORY SMALL SCALE WATER RESOURCES SECTOR PROJECT", "approvalYear": "2009", "locationName": "Gosinga", "id": "46004-39432-013-LN2542"}}, {"geometry": {"type": "Point", "coordinates": [91.96765, 21.45388]}, "type": "Feature", "id": "5301", "properties": {"status": "Implementation", "sectors": ["Agriculture, natural resources and rural development"], "title": "PARTICIPATORY SMALL SCALE WATER RESOURCES SECTOR PROJECT", "approvalYear": "2009", "locationName": "Cox's Bazar", "id": "46004-39432-013-LN2542"}}, {"geometry": {"type": "Point", "coordinates": [90.53, 22.45]}, "type": "Feature", "id": "5302", "properties": {"status": "Implementation", "sectors": ["Agriculture, natural resources and rural development"], "title": "PARTICIPATORY SMALL SCALE WATER RESOURCES SECTOR PROJECT", "approvalYear": "2009", "locationName": "Bauphal", "id": "46004-39432-013-LN2542"}}, {"geometry": {"type": "Point", "coordinates": [89.1998, 25.05872]}, "type": "Feature", "id": "5303", "properties": {"status": "Implementation", "sectors": ["Agriculture, natural resources and rural development"], "title": "PARTICIPATORY SMALL SCALE WATER RESOURCES SECTOR PROJECT", "approvalYear": "2009", "locationName": "Purba Sarail", "id": "46004-39432-013-LN2542"}}, {"geometry": {"type": "Point", "coordinates": [90.0, 24.0]}, "type": "Feature", "id": "5304", "properties": {"status": "Completion", "sectors": ["Finance"], "title": "SMALL & MEDIUM SIZED ENTERPRISE DEVELOPMENT PROJECT", "approvalYear": "2009", "locationName": "Bangladesh", "id": "46004-36200-013-LN2549"}}, {"geometry": {"type": "Point", "coordinates": [91.87198, 24.89904]}, "type": "Feature", "id": "5305", "properties": {"status": "Completion", "sectors": ["Water supply and other urban infrastructure and services"], "title": "URBAN PUBLIC & ENVIRONMENTAL HEALTH SECTOR DEVT PROGRAM", "approvalYear": "2009", "locationName": "Sylhet", "id": "46004-39305-013-LN2554"}}, {"geometry": {"type": "Point", "coordinates": [88.60114, 24.374]}, "type": "Feature", "id": "5306", "properties": {"status": "Completion", "sectors": ["Water supply and other urban infrastructure and services"], "title": "URBAN PUBLIC & ENVIRONMENTAL HEALTH SECTOR DEVT PROGRAM", "approvalYear": "2009", "locationName": "Rajshahi", "id": "46004-39305-013-LN2554"}}, {"geometry": {"type": "Point", "coordinates": [90.40744, 23.7104]}, "type": "Feature", "id": "5307", "properties": {"status": "Completion", "sectors": ["Water supply and other urban infrastructure and services"], "title": "URBAN PUBLIC & ENVIRONMENTAL HEALTH SECTOR DEVT PROGRAM", "approvalYear": "2009", "locationName": "Dhaka", "id": "46004-39305-013-LN2554"}}, {"geometry": {"type": "Point", "coordinates": [91.83168, 22.3384]}, "type": "Feature", "id": "5308", "properties": {"status": "Completion", "sectors": ["Water supply and other urban infrastructure and services"], "title": "URBAN PUBLIC & ENVIRONMENTAL HEALTH SECTOR DEVT PROGRAM", "approvalYear": "2009", "locationName": "Chittagong", "id": "46004-39305-013-LN2554"}}, {"geometry": {"type": "Point", "coordinates": [89.56439, 22.80978]}, "type": "Feature", "id": "5309", "properties": {"status": "Completion", "sectors": ["Water supply and other urban infrastructure and services"], "title": "URBAN PUBLIC & ENVIRONMENTAL HEALTH SECTOR DEVT PROGRAM", "approvalYear": "2009", "locationName": "Khulna", "id": "46004-39305-013-LN2554"}}, {"geometry": {"type": "Point", "coordinates": [90.37013, 22.70497]}, "type": "Feature", "id": "5310", "properties": {"status": "Completion", "sectors": ["Water supply and other urban infrastructure and services"], "title": "URBAN PUBLIC & ENVIRONMENTAL HEALTH SECTOR DEVT PROGRAM", "approvalYear": "2009", "locationName": "Barisal", "id": "46004-39305-013-LN2554"}}, {"geometry": {"type": "Point", "coordinates": [90.33013, 23.78457]}, "type": "Feature", "id": "5311", "properties": {"status": "Completion", "sectors": ["Water supply and other urban infrastructure and services"], "title": "URBAN PUBLIC & ENVIRONMENTAL HEALTH SECTOR DEVT PROGRAM", "approvalYear": "2009", "locationName": "Aminbazar", "id": "46004-39305-013-LN2554"}}, {"geometry": {"type": "Point", "coordinates": [91.87198, 24.89904]}, "type": "Feature", "id": "5312", "properties": {"status": "Implementation", "sectors": ["Water supply and other urban infrastructure and services"], "title": "URBAN PUBLIC & ENVMTL HEALTH SECTOR DEVT PROGRAM-PROJECT LOAN", "approvalYear": "2009", "locationName": "Sylhet", "id": "46004-39305-013-LN2555"}}, {"geometry": {"type": "Point", "coordinates": [88.60114, 24.374]}, "type": "Feature", "id": "5313", "properties": {"status": "Implementation", "sectors": ["Water supply and other urban infrastructure and services"], "title": "URBAN PUBLIC & ENVMTL HEALTH SECTOR DEVT PROGRAM-PROJECT LOAN", "approvalYear": "2009", "locationName": "Rajshahi", "id": "46004-39305-013-LN2555"}}, {"geometry": {"type": "Point", "coordinates": [90.40744, 23.7104]}, "type": "Feature", "id": "5314", "properties": {"status": "Implementation", "sectors": ["Water supply and other urban infrastructure and services"], "title": "URBAN PUBLIC & ENVMTL HEALTH SECTOR DEVT PROGRAM-PROJECT LOAN", "approvalYear": "2009", "locationName": "Dhaka", "id": "46004-39305-013-LN2555"}}, {"geometry": {"type": "Point", "coordinates": [91.83168, 22.3384]}, "type": "Feature", "id": "5315", "properties": {"status": "Implementation", "sectors": ["Water supply and other urban infrastructure and services"], "title": "URBAN PUBLIC & ENVMTL HEALTH SECTOR DEVT PROGRAM-PROJECT LOAN", "approvalYear": "2009", "locationName": "Chittagong", "id": "46004-39305-013-LN2555"}}, {"geometry": {"type": "Point", "coordinates": [89.56439, 22.80978]}, "type": "Feature", "id": "5316", "properties": {"status": "Implementation", "sectors": ["Water supply and other urban infrastructure and services"], "title": "URBAN PUBLIC & ENVMTL HEALTH SECTOR DEVT PROGRAM-PROJECT LOAN", "approvalYear": "2009", "locationName": "Khulna", "id": "46004-39305-013-LN2555"}}, {"geometry": {"type": "Point", "coordinates": [90.37013, 22.70497]}, "type": "Feature", "id": "5317", "properties": {"status": "Implementation", "sectors": ["Water supply and other urban infrastructure and services"], "title": "URBAN PUBLIC & ENVMTL HEALTH SECTOR DEVT PROGRAM-PROJECT LOAN", "approvalYear": "2009", "locationName": "Barisal", "id": "46004-39305-013-LN2555"}}, {"geometry": {"type": "Point", "coordinates": [90.33013, 23.78457]}, "type": "Feature", "id": "5318", "properties": {"status": "Implementation", "sectors": ["Water supply and other urban infrastructure and services"], "title": "URBAN PUBLIC & ENVMTL HEALTH SECTOR DEVT PROGRAM-PROJECT LOAN", "approvalYear": "2009", "locationName": "Aminbazar", "id": "46004-39305-013-LN2555"}}, {"geometry": {"type": "Point", "coordinates": [83.27714, 27.48619]}, "type": "Feature", "id": "5319", "properties": {"status": "Implementation", "sectors": ["Transport"], "title": "SOUTH ASIA TOURISM INFRASTRUCTURE DEVT PROJ(BAN/NEP/IND)-BAN", "approvalYear": "2009", "locationName": "Lumbini", "id": "46004-39399-013-LN2580"}}, {"geometry": {"type": "Point", "coordinates": [83.41625, 27.5057]}, "type": "Feature", "id": "5320", "properties": {"status": "Implementation", "sectors": ["Transport"], "title": "SOUTH ASIA TOURISM INFRASTRUCTURE DEVT PROJ(BAN/NEP/IND)-BAN", "approvalYear": "2009", "locationName": "Bhairahawa", "id": "46004-39399-013-LN2580"}}, {"geometry": {"type": "Point", "coordinates": [90.3233, 23.84886]}, "type": "Feature", "id": "5321", "properties": {"status": "Implementation", "sectors": ["Energy"], "title": "NATURAL GAS ACCESS IMPROVEMENT PROJECT", "approvalYear": "2010", "locationName": "Dewanbari", "id": "46004-38164-013-LN2622"}}, {"geometry": {"type": "Point", "coordinates": [90.88068, 23.70538]}, "type": "Feature", "id": "5322", "properties": {"status": "Implementation", "sectors": ["Energy"], "title": "NATURAL GAS ACCESS IMPROVEMENT PROJECT", "approvalYear": "2010", "locationName": "Bakhrabad", "id": "46004-38164-013-LN2622"}}, {"geometry": {"type": "Point", "coordinates": [91.0117, 24.04016]}, "type": "Feature", "id": "5323", "properties": {"status": "Implementation", "sectors": ["Energy"], "title": "NATURAL GAS ACCESS IMPROVEMENT PROJECT", "approvalYear": "2010", "locationName": "Ashuganj", "id": "46004-38164-013-LN2622"}}, {"geometry": {"type": "Point", "coordinates": [91.11228, 23.97464]}, "type": "Feature", "id": "5324", "properties": {"status": "Implementation", "sectors": ["Energy"], "title": "NATURAL GAS ACCESS IMPROVEMENT PROJECT", "approvalYear": "2010", "locationName": "Brahmanbaria", "id": "46004-38164-013-LN2622"}}, {"geometry": {"type": "Point", "coordinates": [91.16667, 23.98333]}, "type": "Feature", "id": "5325", "properties": {"status": "Implementation", "sectors": ["Energy"], "title": "NATURAL GAS ACCESS IMPROVEMENT PROJECT", "approvalYear": "2010", "locationName": "Brahmanbaria District", "id": "46004-38164-013-LN2622"}}, {"geometry": {"type": "Point", "coordinates": [91.00987, 23.4417]}, "type": "Feature", "id": "5326", "properties": {"status": "Implementation", "sectors": ["Energy"], "title": "NATURAL GAS ACCESS IMPROVEMENT PROJECT", "approvalYear": "2010", "locationName": "Comilla District", "id": "46004-38164-013-LN2622"}}, {"geometry": {"type": "Point", "coordinates": [89.16667, 23.5]}, "type": "Feature", "id": "5327", "properties": {"status": "Implementation", "sectors": ["Energy"], "title": "NATURAL GAS ACCESS IMPROVEMENT PROJECT", "approvalYear": "2010", "locationName": "Jhenaidah District", "id": "46004-38164-013-LN2622"}}, {"geometry": {"type": "Point", "coordinates": [89.16667, 23.08333]}, "type": "Feature", "id": "5328", "properties": {"status": "Implementation", "sectors": ["Energy"], "title": "NATURAL GAS ACCESS IMPROVEMENT PROJECT", "approvalYear": "2010", "locationName": "Jessore District", "id": "46004-38164-013-LN2622"}}, {"geometry": {"type": "Point", "coordinates": [89.75, 22.4]}, "type": "Feature", "id": "5329", "properties": {"status": "Implementation", "sectors": ["Energy"], "title": "NATURAL GAS ACCESS IMPROVEMENT PROJECT", "approvalYear": "2010", "locationName": "Bagerhat District", "id": "46004-38164-013-LN2622"}}, {"geometry": {"type": "Point", "coordinates": [89.33333, 22.5]}, "type": "Feature", "id": "5330", "properties": {"status": "Implementation", "sectors": ["Energy"], "title": "NATURAL GAS ACCESS IMPROVEMENT PROJECT", "approvalYear": "2010", "locationName": "Khulna District", "id": "46004-38164-013-LN2622"}}, {"geometry": {"type": "Point", "coordinates": [91.65944, 22.60333]}, "type": "Feature", "id": "5331", "properties": {"status": "Implementation", "sectors": ["Energy"], "title": "NATURAL GAS ACCESS IMPROVEMENT PROJECT", "approvalYear": "2010", "locationName": "Barabkunda", "id": "46004-38164-013-LN2622"}}, {"geometry": {"type": "Point", "coordinates": [90.72715, 24.11546]}, "type": "Feature", "id": "5332", "properties": {"status": "Implementation", "sectors": ["Energy"], "title": "NATURAL GAS ACCESS IMPROVEMENT PROJECT", "approvalYear": "2010", "locationName": "Monohordi", "id": "46004-38164-013-LN2622"}}, {"geometry": {"type": "Point", "coordinates": [88.91667, 23.83333]}, "type": "Feature", "id": "5333", "properties": {"status": "Implementation", "sectors": ["Energy"], "title": "NATURAL GAS ACCESS IMPROVEMENT PROJECT", "approvalYear": "2010", "locationName": "Kushtia District", "id": "46004-38164-013-LN2622"}}, {"geometry": {"type": "Point", "coordinates": [91.4013, 23.01134]}, "type": "Feature", "id": "5334", "properties": {"status": "Implementation", "sectors": ["Energy"], "title": "NATURAL GAS ACCESS IMPROVEMENT PROJECT", "approvalYear": "2010", "locationName": "Feni", "id": "46004-38164-013-LN2622"}}, {"geometry": {"type": "Point", "coordinates": [89.59197, 22.49015]}, "type": "Feature", "id": "5335", "properties": {"status": "Implementation", "sectors": ["Energy"], "title": "NATURAL GAS ACCESS IMPROVEMENT PROJECT", "approvalYear": "2010", "locationName": "Mongla", "id": "46004-38164-013-LN2622"}}, {"geometry": {"type": "Point", "coordinates": [89.59197, 22.49015]}, "type": "Feature", "id": "5336", "properties": {"status": "Implementation", "sectors": ["Energy"], "title": "NATURAL GAS ACCESS IMPROVEMENT PROJECT", "approvalYear": "2010", "locationName": "Mongla", "id": "46004-38164-013-LN2622"}}, {"geometry": {"type": "Point", "coordinates": [89.59197, 22.49015]}, "type": "Feature", "id": "5337", "properties": {"status": "Implementation", "sectors": ["Energy"], "title": "NATURAL GAS ACCESS IMPROVEMENT PROJECT", "approvalYear": "2010", "locationName": "Mongla", "id": "46004-38164-013-LN2622"}}, {"geometry": {"type": "Point", "coordinates": [90.90532, 23.50092]}, "type": "Feature", "id": "5338", "properties": {"status": "Implementation", "sectors": ["Energy"], "title": "NATURAL GAS ACCESS IMPROVEMENT PROJECT", "approvalYear": "2010", "locationName": "Kutumbapur", "id": "46004-38164-013-LN2622"}}, {"geometry": {"type": "Point", "coordinates": [89.91274, 24.33682]}, "type": "Feature", "id": "5339", "properties": {"status": "Implementation", "sectors": ["Energy"], "title": "NATURAL GAS ACCESS IMPROVEMENT PROJECT", "approvalYear": "2010", "locationName": "Elenga", "id": "46004-38164-013-LN2622"}}, {"geometry": {"type": "Point", "coordinates": [90.3233, 23.84886]}, "type": "Feature", "id": "5340", "properties": {"status": "Implementation", "sectors": ["Energy"], "title": "NATURAL GAS ACCESS IMPROVEMENT PROJECT (SF)", "approvalYear": "2010", "locationName": "Dewanbari", "id": "46004-38164-013-LN2623"}}, {"geometry": {"type": "Point", "coordinates": [90.88068, 23.70538]}, "type": "Feature", "id": "5341", "properties": {"status": "Implementation", "sectors": ["Energy"], "title": "NATURAL GAS ACCESS IMPROVEMENT PROJECT (SF)", "approvalYear": "2010", "locationName": "Bakhrabad", "id": "46004-38164-013-LN2623"}}, {"geometry": {"type": "Point", "coordinates": [91.0117, 24.04016]}, "type": "Feature", "id": "5342", "properties": {"status": "Implementation", "sectors": ["Energy"], "title": "NATURAL GAS ACCESS IMPROVEMENT PROJECT (SF)", "approvalYear": "2010", "locationName": "Ashuganj", "id": "46004-38164-013-LN2623"}}, {"geometry": {"type": "Point", "coordinates": [91.11228, 23.97464]}, "type": "Feature", "id": "5343", "properties": {"status": "Implementation", "sectors": ["Energy"], "title": "NATURAL GAS ACCESS IMPROVEMENT PROJECT (SF)", "approvalYear": "2010", "locationName": "Brahmanbaria", "id": "46004-38164-013-LN2623"}}, {"geometry": {"type": "Point", "coordinates": [91.16667, 23.98333]}, "type": "Feature", "id": "5344", "properties": {"status": "Implementation", "sectors": ["Energy"], "title": "NATURAL GAS ACCESS IMPROVEMENT PROJECT (SF)", "approvalYear": "2010", "locationName": "Brahmanbaria District", "id": "46004-38164-013-LN2623"}}, {"geometry": {"type": "Point", "coordinates": [91.00987, 23.4417]}, "type": "Feature", "id": "5345", "properties": {"status": "Implementation", "sectors": ["Energy"], "title": "NATURAL GAS ACCESS IMPROVEMENT PROJECT (SF)", "approvalYear": "2010", "locationName": "Comilla District", "id": "46004-38164-013-LN2623"}}, {"geometry": {"type": "Point", "coordinates": [89.16667, 23.5]}, "type": "Feature", "id": "5346", "properties": {"status": "Implementation", "sectors": ["Energy"], "title": "NATURAL GAS ACCESS IMPROVEMENT PROJECT (SF)", "approvalYear": "2010", "locationName": "Jhenaidah District", "id": "46004-38164-013-LN2623"}}, {"geometry": {"type": "Point", "coordinates": [89.16667, 23.08333]}, "type": "Feature", "id": "5347", "properties": {"status": "Implementation", "sectors": ["Energy"], "title": "NATURAL GAS ACCESS IMPROVEMENT PROJECT (SF)", "approvalYear": "2010", "locationName": "Jessore District", "id": "46004-38164-013-LN2623"}}, {"geometry": {"type": "Point", "coordinates": [89.75, 22.4]}, "type": "Feature", "id": "5348", "properties": {"status": "Implementation", "sectors": ["Energy"], "title": "NATURAL GAS ACCESS IMPROVEMENT PROJECT (SF)", "approvalYear": "2010", "locationName": "Bagerhat District", "id": "46004-38164-013-LN2623"}}, {"geometry": {"type": "Point", "coordinates": [89.33333, 22.5]}, "type": "Feature", "id": "5349", "properties": {"status": "Implementation", "sectors": ["Energy"], "title": "NATURAL GAS ACCESS IMPROVEMENT PROJECT (SF)", "approvalYear": "2010", "locationName": "Khulna District", "id": "46004-38164-013-LN2623"}}, {"geometry": {"type": "Point", "coordinates": [91.65944, 22.60333]}, "type": "Feature", "id": "5350", "properties": {"status": "Implementation", "sectors": ["Energy"], "title": "NATURAL GAS ACCESS IMPROVEMENT PROJECT (SF)", "approvalYear": "2010", "locationName": "Barabkunda", "id": "46004-38164-013-LN2623"}}, {"geometry": {"type": "Point", "coordinates": [90.72715, 24.11546]}, "type": "Feature", "id": "5351", "properties": {"status": "Implementation", "sectors": ["Energy"], "title": "NATURAL GAS ACCESS IMPROVEMENT PROJECT (SF)", "approvalYear": "2010", "locationName": "Monohordi", "id": "46004-38164-013-LN2623"}}, {"geometry": {"type": "Point", "coordinates": [88.91667, 23.83333]}, "type": "Feature", "id": "5352", "properties": {"status": "Implementation", "sectors": ["Energy"], "title": "NATURAL GAS ACCESS IMPROVEMENT PROJECT (SF)", "approvalYear": "2010", "locationName": "Kushtia District", "id": "46004-38164-013-LN2623"}}, {"geometry": {"type": "Point", "coordinates": [91.4013, 23.01134]}, "type": "Feature", "id": "5353", "properties": {"status": "Implementation", "sectors": ["Energy"], "title": "NATURAL GAS ACCESS IMPROVEMENT PROJECT (SF)", "approvalYear": "2010", "locationName": "Feni", "id": "46004-38164-013-LN2623"}}, {"geometry": {"type": "Point", "coordinates": [89.59197, 22.49015]}, "type": "Feature", "id": "5354", "properties": {"status": "Implementation", "sectors": ["Energy"], "title": "NATURAL GAS ACCESS IMPROVEMENT PROJECT (SF)", "approvalYear": "2010", "locationName": "Mongla", "id": "46004-38164-013-LN2623"}}, {"geometry": {"type": "Point", "coordinates": [89.59197, 22.49015]}, "type": "Feature", "id": "5355", "properties": {"status": "Implementation", "sectors": ["Energy"], "title": "NATURAL GAS ACCESS IMPROVEMENT PROJECT (SF)", "approvalYear": "2010", "locationName": "Mongla", "id": "46004-38164-013-LN2623"}}, {"geometry": {"type": "Point", "coordinates": [89.59197, 22.49015]}, "type": "Feature", "id": "5356", "properties": {"status": "Implementation", "sectors": ["Energy"], "title": "NATURAL GAS ACCESS IMPROVEMENT PROJECT (SF)", "approvalYear": "2010", "locationName": "Mongla", "id": "46004-38164-013-LN2623"}}, {"geometry": {"type": "Point", "coordinates": [90.90532, 23.50092]}, "type": "Feature", "id": "5357", "properties": {"status": "Implementation", "sectors": ["Energy"], "title": "NATURAL GAS ACCESS IMPROVEMENT PROJECT (SF)", "approvalYear": "2010", "locationName": "Kutumbapur", "id": "46004-38164-013-LN2623"}}, {"geometry": {"type": "Point", "coordinates": [89.91274, 24.33682]}, "type": "Feature", "id": "5358", "properties": {"status": "Implementation", "sectors": ["Energy"], "title": "NATURAL GAS ACCESS IMPROVEMENT PROJECT (SF)", "approvalYear": "2010", "locationName": "Elenga", "id": "46004-38164-013-LN2623"}}, {"geometry": {"type": "Point", "coordinates": [89.75, 22.4]}, "type": "Feature", "id": "5359", "properties": {"status": "Implementation", "sectors": ["Finance"], "title": "SECOND CROP DIVERSIFICATION PROJECT", "approvalYear": "2010", "locationName": "Bagerhat", "id": "46004-40534-013-LN2649"}}, {"geometry": {"type": "Point", "coordinates": [88.85, 23.63333]}, "type": "Feature", "id": "5360", "properties": {"status": "Implementation", "sectors": ["Finance"], "title": "SECOND CROP DIVERSIFICATION PROJECT", "approvalYear": "2010", "locationName": "Chuadanga", "id": "46004-40534-013-LN2649"}}, {"geometry": {"type": "Point", "coordinates": [88.95255, 23.05724]}, "type": "Feature", "id": "5361", "properties": {"status": "Implementation", "sectors": ["Finance"], "title": "SECOND CROP DIVERSIFICATION PROJECT", "approvalYear": "2010", "locationName": "Jessore", "id": "46004-40534-013-LN2649"}}, {"geometry": {"type": "Point", "coordinates": [89.16667, 23.5]}, "type": "Feature", "id": "5362", "properties": {"status": "Implementation", "sectors": ["Finance"], "title": "SECOND CROP DIVERSIFICATION PROJECT", "approvalYear": "2010", "locationName": "Jhenaidah", "id": "46004-40534-013-LN2649"}}, {"geometry": {"type": "Point", "coordinates": [89.41983, 22.79495]}, "type": "Feature", "id": "5363", "properties": {"status": "Implementation", "sectors": ["Finance"], "title": "SECOND CROP DIVERSIFICATION PROJECT", "approvalYear": "2010", "locationName": "Khulna", "id": "46004-40534-013-LN2649"}}, {"geometry": {"type": "Point", "coordinates": [88.99, 23.89]}, "type": "Feature", "id": "5364", "properties": {"status": "Implementation", "sectors": ["Finance"], "title": "SECOND CROP DIVERSIFICATION PROJECT", "approvalYear": "2010", "locationName": "Kushtia", "id": "46004-40534-013-LN2649"}}, {"geometry": {"type": "Point", "coordinates": [89.43333, 23.43333]}, "type": "Feature", "id": "5365", "properties": {"status": "Implementation", "sectors": ["Finance"], "title": "SECOND CROP DIVERSIFICATION PROJECT", "approvalYear": "2010", "locationName": "Magura", "id": "46004-40534-013-LN2649"}}, {"geometry": {"type": "Point", "coordinates": [88.7, 23.75]}, "type": "Feature", "id": "5366", "properties": {"status": "Implementation", "sectors": ["Finance"], "title": "SECOND CROP DIVERSIFICATION PROJECT", "approvalYear": "2010", "locationName": "Meherpur", "id": "46004-40534-013-LN2649"}}, {"geometry": {"type": "Point", "coordinates": [89.6, 23.13333]}, "type": "Feature", "id": "5367", "properties": {"status": "Implementation", "sectors": ["Finance"], "title": "SECOND CROP DIVERSIFICATION PROJECT", "approvalYear": "2010", "locationName": "Narail", "id": "46004-40534-013-LN2649"}}, {"geometry": {"type": "Point", "coordinates": [89.15, 22.35]}, "type": "Feature", "id": "5368", "properties": {"status": "Implementation", "sectors": ["Finance"], "title": "SECOND CROP DIVERSIFICATION PROJECT", "approvalYear": "2010", "locationName": "Satkhira", "id": "46004-40534-013-LN2649"}}, {"geometry": {"type": "Point", "coordinates": [89.35, 24.78333]}, "type": "Feature", "id": "5369", "properties": {"status": "Implementation", "sectors": ["Finance"], "title": "SECOND CROP DIVERSIFICATION PROJECT", "approvalYear": "2010", "locationName": "Bogra", "id": "46004-40534-013-LN2649"}}, {"geometry": {"type": "Point", "coordinates": [88.75, 25.61667]}, "type": "Feature", "id": "5370", "properties": {"status": "Implementation", "sectors": ["Finance"], "title": "SECOND CROP DIVERSIFICATION PROJECT", "approvalYear": "2010", "locationName": "Dinajpur", "id": "46004-40534-013-LN2649"}}, {"geometry": {"type": "Point", "coordinates": [89.5, 25.25]}, "type": "Feature", "id": "5371", "properties": {"status": "Implementation", "sectors": ["Finance"], "title": "SECOND CROP DIVERSIFICATION PROJECT", "approvalYear": "2010", "locationName": "Gaibandha", "id": "46004-40534-013-LN2649"}}, {"geometry": {"type": "Point", "coordinates": [89.69153, 25.96817]}, "type": "Feature", "id": "5372", "properties": {"status": "Implementation", "sectors": ["Finance"], "title": "SECOND CROP DIVERSIFICATION PROJECT", "approvalYear": "2010", "locationName": "Kurigram", "id": "46004-40534-013-LN2649"}}, {"geometry": {"type": "Point", "coordinates": [89.25, 26.0]}, "type": "Feature", "id": "5373", "properties": {"status": "Implementation", "sectors": ["Finance"], "title": "SECOND CROP DIVERSIFICATION PROJECT", "approvalYear": "2010", "locationName": "Lalmonirhat", "id": "46004-40534-013-LN2649"}}, {"geometry": {"type": "Point", "coordinates": [89.08333, 24.35]}, "type": "Feature", "id": "5374", "properties": {"status": "Implementation", "sectors": ["Finance"], "title": "SECOND CROP DIVERSIFICATION PROJECT", "approvalYear": "2010", "locationName": "Natore", "id": "46004-40534-013-LN2649"}}, {"geometry": {"type": "Point", "coordinates": [89.33533, 24.00633]}, "type": "Feature", "id": "5375", "properties": {"status": "Implementation", "sectors": ["Finance"], "title": "SECOND CROP DIVERSIFICATION PROJECT", "approvalYear": "2010", "locationName": "Pabna", "id": "46004-40534-013-LN2649"}}, {"geometry": {"type": "Point", "coordinates": [88.43, 24.5]}, "type": "Feature", "id": "5376", "properties": {"status": "Implementation", "sectors": ["Finance"], "title": "SECOND CROP DIVERSIFICATION PROJECT", "approvalYear": "2010", "locationName": "Rajshahi", "id": "46004-40534-013-LN2649"}}, {"geometry": {"type": "Point", "coordinates": [90.22376, 22.97372]}, "type": "Feature", "id": "5377", "properties": {"status": "Implementation", "sectors": ["Finance"], "title": "SECOND CROP DIVERSIFICATION PROJECT", "approvalYear": "2010", "locationName": "Barisal", "id": "46004-40534-013-LN2649"}}, {"geometry": {"type": "Point", "coordinates": [90.10142, 22.74535]}, "type": "Feature", "id": "5378", "properties": {"status": "Implementation", "sectors": ["Finance"], "title": "SECOND CROP DIVERSIFICATION PROJECT", "approvalYear": "2010", "locationName": "Pirojpur", "id": "46004-40534-013-LN2649"}}, {"geometry": {"type": "Point", "coordinates": [89.85, 23.42]}, "type": "Feature", "id": "5379", "properties": {"status": "Implementation", "sectors": ["Finance"], "title": "SECOND CROP DIVERSIFICATION PROJECT", "approvalYear": "2010", "locationName": "Faridpur", "id": "46004-40534-013-LN2649"}}, {"geometry": {"type": "Point", "coordinates": [89.83812, 23.3034]}, "type": "Feature", "id": "5380", "properties": {"status": "Implementation", "sectors": ["Finance"], "title": "SECOND CROP DIVERSIFICATION PROJECT", "approvalYear": "2010", "locationName": "Gopalganj", "id": "46004-40534-013-LN2649"}}, {"geometry": {"type": "Point", "coordinates": [90.27, 23.08]}, "type": "Feature", "id": "5381", "properties": {"status": "Implementation", "sectors": ["Finance"], "title": "SECOND CROP DIVERSIFICATION PROJECT", "approvalYear": "2010", "locationName": "Madaripur", "id": "46004-40534-013-LN2649"}}, {"geometry": {"type": "Point", "coordinates": [89.55, 23.66667]}, "type": "Feature", "id": "5382", "properties": {"status": "Implementation", "sectors": ["Finance"], "title": "SECOND CROP DIVERSIFICATION PROJECT", "approvalYear": "2010", "locationName": "Rajbari", "id": "46004-40534-013-LN2649"}}, {"geometry": {"type": "Point", "coordinates": [90.55, 23.23]}, "type": "Feature", "id": "5383", "properties": {"status": "Implementation", "sectors": ["Finance"], "title": "SECOND CROP DIVERSIFICATION PROJECT", "approvalYear": "2010", "locationName": "Shariatpur", "id": "46004-40534-013-LN2649"}}, {"geometry": {"type": "Point", "coordinates": [90.0, 24.0]}, "type": "Feature", "id": "5384", "properties": {"status": "Implementation", "sectors": ["Public sector management"], "title": "STRENGTHENING GOVERNANCE MANAGEMENT PROJECT", "approvalYear": "2011", "locationName": "Bangladesh", "id": "46004-39452-013-LN2666"}}, {"geometry": {"type": "Point", "coordinates": [90.0, 24.0]}, "type": "Feature", "id": "5385", "properties": {"status": "Implementation", "sectors": ["Transport"], "title": "SUBREGIONAL TRANSPORT PROJECT PREPARATORY FACILITY", "approvalYear": "2011", "locationName": "Bangladesh", "id": "46004-44142-013-LN2688"}}, {"geometry": {"type": "Point", "coordinates": [90.40744, 23.7104]}, "type": "Feature", "id": "5386", "properties": {"status": "Implementation", "sectors": ["Water supply and other urban infrastructure and services"], "title": "CITY REGION DEVELOPMENT PROJECT", "approvalYear": "2011", "locationName": "Dhaka", "id": "46004-39298-013-LN2695"}}, {"geometry": {"type": "Point", "coordinates": [90.64354, 23.79762]}, "type": "Feature", "id": "5387", "properties": {"status": "Implementation", "sectors": ["Water supply and other urban infrastructure and services"], "title": "CITY REGION DEVELOPMENT PROJECT", "approvalYear": "2011", "locationName": "Ghazipur", "id": "46004-39298-013-LN2695"}}, {"geometry": {"type": "Point", "coordinates": [90.40491, 23.79142]}, "type": "Feature", "id": "5388", "properties": {"status": "Implementation", "sectors": ["Water supply and other urban infrastructure and services"], "title": "CITY REGION DEVELOPMENT PROJECT", "approvalYear": "2011", "locationName": "Banani Model Town", "id": "46004-39298-013-LN2695"}}, {"geometry": {"type": "Point", "coordinates": [89.56439, 22.80978]},