{"features": [{"geometry": {"type": "Point", "coordinates": [107.83333, 16.16667]}, "type": "Feature", "id": "8621", "properties": {"status": "Implementation", "sectors": ["Industry and trade"], "title": "GMS SUSTAINABLE TOURISM DEVELOPMENT PROJECT", "approvalYear": "2008", "locationName": "Vietnam", "id": "46004-38015-013-GRNT0117"}}, {"geometry": {"type": "Point", "coordinates": [107.58333, 16.33333]}, "type": "Feature", "id": "8622", "properties": {"status": "Implementation", "sectors": ["Industry and trade"], "title": "GMS SUSTAINABLE TOURISM DEVELOPMENT PROJECT", "approvalYear": "2008", "locationName": "T\u1ec9nh Th\u1eeba Thi\u00ean-Hu\u1ebf", "id": "46004-38015-013-GRNT0117"}}, {"geometry": {"type": "Point", "coordinates": [107.0, 16.75]}, "type": "Feature", "id": "8623", "properties": {"status": "Implementation", "sectors": ["Industry and trade"], "title": "GMS SUSTAINABLE TOURISM DEVELOPMENT PROJECT", "approvalYear": "2008", "locationName": "T\u1ec9nh Qu\u1ea3ng Tr\u1ecb", "id": "46004-38015-013-GRNT0117"}}, {"geometry": {"type": "Point", "coordinates": [106.33333, 17.5]}, "type": "Feature", "id": "8624", "properties": {"status": "Implementation", "sectors": ["Industry and trade"], "title": "GMS SUSTAINABLE TOURISM DEVELOPMENT PROJECT", "approvalYear": "2008", "locationName": "T\u1ec9nh Qu\u1ea3ng B\u00ecnh", "id": "46004-38015-013-GRNT0117"}}, {"geometry": {"type": "Point", "coordinates": [106.08333, 22.75]}, "type": "Feature", "id": "8625", "properties": {"status": "Implementation", "sectors": ["Industry and trade"], "title": "GMS SUSTAINABLE TOURISM DEVELOPMENT PROJECT", "approvalYear": "2008", "locationName": "T\u1ec9nh Cao B\u1eb1ng", "id": "46004-38015-013-GRNT0117"}}, {"geometry": {"type": "Point", "coordinates": [105.6127, 22.41089]}, "type": "Feature", "id": "8626", "properties": {"status": "Implementation", "sectors": ["Industry and trade"], "title": "GMS SUSTAINABLE TOURISM DEVELOPMENT PROJECT", "approvalYear": "2008", "locationName": "H\u1ed3 Ba B\u1ec3", "id": "46004-38015-013-GRNT0117"}}, {"geometry": {"type": "Point", "coordinates": [101.5, 18.5]}, "type": "Feature", "id": "8627", "properties": {"status": "Implementation", "sectors": ["Industry and trade"], "title": "GMS SUSTAINABLE TOURISM DEVELOPMENT PROJECT", "approvalYear": "2008", "locationName": "Xaignabouli", "id": "46004-38015-013-GRNT0117"}}, {"geometry": {"type": "Point", "coordinates": [102.41667, 18.75]}, "type": "Feature", "id": "8628", "properties": {"status": "Implementation", "sectors": ["Industry and trade"], "title": "GMS SUSTAINABLE TOURISM DEVELOPMENT PROJECT", "approvalYear": "2008", "locationName": "Vientiane Province", "id": "46004-38015-013-GRNT0117"}}, {"geometry": {"type": "Point", "coordinates": [105.75, 16.5]}, "type": "Feature", "id": "8629", "properties": {"status": "Implementation", "sectors": ["Industry and trade"], "title": "GMS SUSTAINABLE TOURISM DEVELOPMENT PROJECT", "approvalYear": "2008", "locationName": "Khoueng Savannakhet", "id": "46004-38015-013-GRNT0117"}}, {"geometry": {"type": "Point", "coordinates": [106.25, 15.75]}, "type": "Feature", "id": "8630", "properties": {"status": "Implementation", "sectors": ["Industry and trade"], "title": "GMS SUSTAINABLE TOURISM DEVELOPMENT PROJECT", "approvalYear": "2008", "locationName": "Salavan", "id": "46004-38015-013-GRNT0117"}}, {"geometry": {"type": "Point", "coordinates": [101.5, 20.16667]}, "type": "Feature", "id": "8631", "properties": {"status": "Implementation", "sectors": ["Industry and trade"], "title": "GMS SUSTAINABLE TOURISM DEVELOPMENT PROJECT", "approvalYear": "2008", "locationName": "Khoueng Oudomxai", "id": "46004-38015-013-GRNT0117"}}, {"geometry": {"type": "Point", "coordinates": [102.44784, 18.9235]}, "type": "Feature", "id": "8632", "properties": {"status": "Implementation", "sectors": ["Industry and trade"], "title": "GMS SUSTAINABLE TOURISM DEVELOPMENT PROJECT", "approvalYear": "2008", "locationName": "Vangviang", "id": "46004-38015-013-GRNT0117"}}, {"geometry": {"type": "Point", "coordinates": [101.33333, 20.91667]}, "type": "Feature", "id": "8633", "properties": {"status": "Implementation", "sectors": ["Industry and trade"], "title": "GMS SUSTAINABLE TOURISM DEVELOPMENT PROJECT", "approvalYear": "2008", "locationName": "Louangnamtha", "id": "46004-38015-013-GRNT0117"}}, {"geometry": {"type": "Point", "coordinates": [105.0, 18.0]}, "type": "Feature", "id": "8634", "properties": {"status": "Implementation", "sectors": ["Industry and trade"], "title": "GMS SUSTAINABLE TOURISM DEVELOPMENT PROJECT", "approvalYear": "2008", "locationName": "Lao People's Democratic Republic", "id": "46004-38015-013-GRNT0117"}}, {"geometry": {"type": "Point", "coordinates": [104.0, 20.5]}, "type": "Feature", "id": "8635", "properties": {"status": "Implementation", "sectors": ["Industry and trade"], "title": "GMS SUSTAINABLE TOURISM DEVELOPMENT PROJECT", "approvalYear": "2008", "locationName": "Houaphan", "id": "46004-38015-013-GRNT0117"}}, {"geometry": {"type": "Point", "coordinates": [106.0, 14.75]}, "type": "Feature", "id": "8636", "properties": {"status": "Implementation", "sectors": ["Industry and trade"], "title": "GMS SUSTAINABLE TOURISM DEVELOPMENT PROJECT", "approvalYear": "2008", "locationName": "Champasak", "id": "46004-38015-013-GRNT0117"}}, {"geometry": {"type": "Point", "coordinates": [100.5, 20.5]}, "type": "Feature", "id": "8637", "properties": {"status": "Implementation", "sectors": ["Industry and trade"], "title": "GMS SUSTAINABLE TOURISM DEVELOPMENT PROJECT", "approvalYear": "2008", "locationName": "Khoueng Bokeo", "id": "46004-38015-013-GRNT0117"}}, {"geometry": {"type": "Point", "coordinates": [105.83333, 22.25]}, "type": "Feature", "id": "8638", "properties": {"status": "Implementation", "sectors": ["Industry and trade"], "title": "GMS SUSTAINABLE TOURISM DEVELOPMENT PROJECT", "approvalYear": "2008", "locationName": "T\u1ec9nh B\u1eafc K\u1ea1n", "id": "46004-38015-013-GRNT0117"}}, {"geometry": {"type": "Point", "coordinates": [100.57672, 20.38182]}, "type": "Feature", "id": "8639", "properties": {"status": "Implementation", "sectors": ["Industry and trade"], "title": "GMS SUSTAINABLE TOURISM DEVELOPMENT PROJECT", "approvalYear": "2008", "locationName": "Ban Phimonsin", "id": "46004-38015-013-GRNT0117"}}, {"geometry": {"type": "Point", "coordinates": [106.15, 17.53333]}, "type": "Feature", "id": "8640", "properties": {"status": "Implementation", "sectors": ["Industry and trade"], "title": "GMS SUSTAINABLE TOURISM DEVELOPMENT PROJECT", "approvalYear": "2008", "locationName": "Phong Nha-Ke Bang National Park", "id": "46004-38015-013-GRNT0117"}}, {"geometry": {"type": "Point", "coordinates": [105.92254, 14.00378]}, "type": "Feature", "id": "8641", "properties": {"status": "Implementation", "sectors": ["Industry and trade"], "title": "GMS SUSTAINABLE TOURISM DEVELOPMENT PROJECT", "approvalYear": "2008", "locationName": "Ban Nakasang", "id": "46004-38015-013-GRNT0117"}}, {"geometry": {"type": "Point", "coordinates": [105.92601, 13.95518]}, "type": "Feature", "id": "8642", "properties": {"status": "Implementation", "sectors": ["Industry and trade"], "title": "GMS SUSTAINABLE TOURISM DEVELOPMENT PROJECT", "approvalYear": "2008", "locationName": "Don Khon", "id": "46004-38015-013-GRNT0117"}}, {"geometry": {"type": "Point", "coordinates": [101.06667, 20.68333]}, "type": "Feature", "id": "8643", "properties": {"status": "Implementation", "sectors": ["Water supply and other urban infrastructure and services"], "title": "SMALL TOWNS WATER SUPPLY AND SANITATION SECTOR PRO", "approvalYear": "2009", "locationName": "Viangphoukha", "id": "46004-36339-022-GRNT0143"}}, {"geometry": {"type": "Point", "coordinates": [103.11993, 19.44748]}, "type": "Feature", "id": "8644", "properties": {"status": "Implementation", "sectors": ["Water supply and other urban infrastructure and services"], "title": "SMALL TOWNS WATER SUPPLY AND SANITATION SECTOR PRO", "approvalYear": "2009", "locationName": "Nam Thuang", "id": "46004-36339-022-GRNT0143"}}, {"geometry": {"type": "Point", "coordinates": [105.30729, 16.17116]}, "type": "Feature", "id": "8645", "properties": {"status": "Implementation", "sectors": ["Water supply and other urban infrastructure and services"], "title": "SMALL TOWNS WATER SUPPLY AND SANITATION SECTOR PRO", "approvalYear": "2009", "locationName": "Muang Songkhon", "id": "46004-36339-022-GRNT0143"}}, {"geometry": {"type": "Point", "coordinates": [106.42172, 15.71677]}, "type": "Feature", "id": "8646", "properties": {"status": "Implementation", "sectors": ["Water supply and other urban infrastructure and services"], "title": "SMALL TOWNS WATER SUPPLY AND SANITATION SECTOR PRO", "approvalYear": "2009", "locationName": "Salavan", "id": "46004-36339-022-GRNT0143"}}, {"geometry": {"type": "Point", "coordinates": [106.43398, 15.0981]}, "type": "Feature", "id": "8647", "properties": {"status": "Implementation", "sectors": ["Water supply and other urban infrastructure and services"], "title": "SMALL TOWNS WATER SUPPLY AND SANITATION SECTOR PRO", "approvalYear": "2009", "locationName": "Muang Pakxong", "id": "46004-36339-022-GRNT0143"}}, {"geometry": {"type": "Point", "coordinates": [103.98596, 19.49606]}, "type": "Feature", "id": "8648", "properties": {"status": "Implementation", "sectors": ["Water supply and other urban infrastructure and services"], "title": "SMALL TOWNS WATER SUPPLY AND SANITATION SECTOR PRO", "approvalYear": "2009", "locationName": "Ban Nonghet", "id": "46004-36339-022-GRNT0143"}}, {"geometry": {"type": "Point", "coordinates": [104.00364, 20.81749]}, "type": "Feature", "id": "8649", "properties": {"status": "Implementation", "sectors": ["Water supply and other urban infrastructure and services"], "title": "SMALL TOWNS WATER SUPPLY AND SANITATION SECTOR PRO", "approvalYear": "2009", "locationName": "Ban Muang-Et", "id": "46004-36339-022-GRNT0143"}}, {"geometry": {"type": "Point", "coordinates": [104.14731, 20.81409]}, "type": "Feature", "id": "8650", "properties": {"status": "Implementation", "sectors": ["Water supply and other urban infrastructure and services"], "title": "SMALL TOWNS WATER SUPPLY AND SANITATION SECTOR PRO", "approvalYear": "2009", "locationName": "Ban Xiangkho", "id": "46004-36339-022-GRNT0143"}}, {"geometry": {"type": "Point", "coordinates": [106.2393, 16.68202]}, "type": "Feature", "id": "8651", "properties": {"status": "Implementation", "sectors": ["Water supply and other urban infrastructure and services"], "title": "SMALL TOWNS WATER SUPPLY AND SANITATION SECTOR PRO", "approvalYear": "2009", "locationName": "Muang Xepon", "id": "46004-36339-022-GRNT0143"}}, {"geometry": {"type": "Point", "coordinates": [102.44784, 18.9235]}, "type": "Feature", "id": "8652", "properties": {"status": "Implementation", "sectors": ["Water supply and other urban infrastructure and services"], "title": "SMALL TOWNS WATER SUPPLY AND SANITATION SECTOR PRO", "approvalYear": "2009", "locationName": "Vangviang", "id": "46004-36339-022-GRNT0143"}}, {"geometry": {"type": "Point", "coordinates": [106.38346, 15.43499]}, "type": "Feature", "id": "8653", "properties": {"status": "Implementation", "sectors": ["Water supply and other urban infrastructure and services"], "title": "SMALL TOWNS WATER SUPPLY AND SANITATION SECTOR PRO", "approvalYear": "2009", "locationName": "Thateng", "id": "46004-36339-022-GRNT0143"}}, {"geometry": {"type": "Point", "coordinates": [101.13647, 19.8929]}, "type": "Feature", "id": "8654", "properties": {"status": "Implementation", "sectors": ["Water supply and other urban infrastructure and services"], "title": "SMALL TOWNS WATER SUPPLY AND SANITATION SECTOR PRO", "approvalYear": "2009", "locationName": "Muang Pakbeng", "id": "46004-36339-022-GRNT0143"}}, {"geometry": {"type": "Point", "coordinates": [102.25319, 19.22926]}, "type": "Feature", "id": "8655", "properties": {"status": "Implementation", "sectors": ["Water supply and other urban infrastructure and services"], "title": "SMALL TOWNS WATER SUPPLY AND SANITATION SECTOR PRO", "approvalYear": "2009", "locationName": "Muang Kasi", "id": "46004-36339-022-GRNT0143"}}, {"geometry": {"type": "Point", "coordinates": [101.18492, 17.59564]}, "type": "Feature", "id": "8656", "properties": {"status": "Implementation", "sectors": ["Water supply and other urban infrastructure and services"], "title": "SMALL TOWNS WATER SUPPLY AND SANITATION SECTOR PRO", "approvalYear": "2009", "locationName": "Ban Boten", "id": "46004-36339-022-GRNT0143"}}, {"geometry": {"type": "Point", "coordinates": [105.59745, 15.83308]}, "type": "Feature", "id": "8657", "properties": {"status": "Implementation", "sectors": ["Water supply and other urban infrastructure and services"], "title": "SMALL TOWNS WATER SUPPLY AND SANITATION SECTOR PRO", "approvalYear": "2009", "locationName": "Muang Lakhonpheng", "id": "46004-36339-022-GRNT0143"}}, {"geometry": {"type": "Point", "coordinates": [106.0, 14.75]}, "type": "Feature", "id": "8658", "properties": {"status": "Implementation", "sectors": ["Water supply and other urban infrastructure and services"], "title": "SMALL TOWNS WATER SUPPLY AND SANITATION SECTOR PRO", "approvalYear": "2009", "locationName": "Champasak", "id": "46004-36339-022-GRNT0143"}}, {"geometry": {"type": "Point", "coordinates": [104.23638, 18.62618]}, "type": "Feature", "id": "8659", "properties": {"status": "Implementation", "sectors": ["Water supply and other urban infrastructure and services"], "title": "SMALL TOWNS WATER SUPPLY AND SANITATION SECTOR PRO", "approvalYear": "2009", "locationName": "Ban Songkhon", "id": "46004-36339-022-GRNT0143"}}, {"geometry": {"type": "Point", "coordinates": [100.43366, 20.26332]}, "type": "Feature", "id": "8660", "properties": {"status": "Implementation", "sectors": ["Water supply and other urban infrastructure and services"], "title": "SMALL TOWNS WATER SUPPLY AND SANITATION SECTOR PRO", "approvalYear": "2009", "locationName": "Ban Houayxay", "id": "46004-36339-022-GRNT0143"}}, {"geometry": {"type": "Point", "coordinates": [100.56103, 19.66457]}, "type": "Feature", "id": "8661", "properties": {"status": "Implementation", "sectors": ["Water supply and other urban infrastructure and services"], "title": "SMALL TOWNS WATER SUPPLY AND SANITATION SECTOR PRO", "approvalYear": "2009", "locationName": "Muang Khop", "id": "46004-36339-022-GRNT0143"}}, {"geometry": {"type": "Point", "coordinates": [100.926, 20.18744]}, "type": "Feature", "id": "8662", "properties": {"status": "Implementation", "sectors": ["Water supply and other urban infrastructure and services"], "title": "SMALL TOWNS WATER SUPPLY AND SANITATION SECTOR PRO", "approvalYear": "2009", "locationName": "Muang Pha Oudom", "id": "46004-36339-022-GRNT0143"}}, {"geometry": {"type": "Point", "coordinates": [100.83104, 20.98503]}, "type": "Feature", "id": "8663", "properties": {"status": "Implementation", "sectors": ["Water supply and other urban infrastructure and services"], "title": "SMALL TOWNS WATER SUPPLY AND SANITATION SECTOR PRO", "approvalYear": "2009", "locationName": "Muang Long", "id": "46004-36339-022-GRNT0143"}}, {"geometry": {"type": "Point", "coordinates": [106.93444, 14.81444]}, "type": "Feature", "id": "8664", "properties": {"status": "Implementation", "sectors": ["Water supply and other urban infrastructure and services"], "title": "SMALL TOWNS WATER SUPPLY AND SANITATION SECTOR PRO", "approvalYear": "2009", "locationName": "Xaysetha", "id": "46004-36339-022-GRNT0143"}}, {"geometry": {"type": "Point", "coordinates": [105.75, 16.5]}, "type": "Feature", "id": "8665", "properties": {"status": "Implementation", "sectors": ["Agriculture, natural resources and rural development"], "title": "SUSTAINABLE NATURAL RESOURCE MGMNT & PRODUCTIVITY", "approvalYear": "2009", "locationName": "Khoueng Savannakhet", "id": "46004-37579-032-GRNT0144"}}, {"geometry": {"type": "Point", "coordinates": [106.25, 15.75]}, "type": "Feature", "id": "8666", "properties": {"status": "Implementation", "sectors": ["Agriculture, natural resources and rural development"], "title": "SUSTAINABLE NATURAL RESOURCE MGMNT & PRODUCTIVITY", "approvalYear": "2009", "locationName": "Salavan", "id": "46004-37579-032-GRNT0144"}}, {"geometry": {"type": "Point", "coordinates": [105.0, 18.0]}, "type": "Feature", "id": "8667", "properties": {"status": "Implementation", "sectors": ["Agriculture, natural resources and rural development"], "title": "SUSTAINABLE NATURAL RESOURCE MGMNT & PRODUCTIVITY", "approvalYear": "2009", "locationName": "Lao People's Democratic Republic", "id": "46004-37579-032-GRNT0144"}}, {"geometry": {"type": "Point", "coordinates": [106.0, 14.75]}, "type": "Feature", "id": "8668", "properties": {"status": "Implementation", "sectors": ["Agriculture, natural resources and rural development"], "title": "SUSTAINABLE NATURAL RESOURCE MGMNT & PRODUCTIVITY", "approvalYear": "2009", "locationName": "Champasak", "id": "46004-37579-032-GRNT0144"}}, {"geometry": {"type": "Point", "coordinates": [107.0, 14.66667]}, "type": "Feature", "id": "8669", "properties": {"status": "Implementation", "sectors": ["Agriculture, natural resources and rural development"], "title": "SUSTAINABLE NATURAL RESOURCE MGMNT & PRODUCTIVITY", "approvalYear": "2009", "locationName": "Attapu", "id": "46004-37579-032-GRNT0144"}}, {"geometry": {"type": "Point", "coordinates": [107.0, 15.5]}, "type": "Feature", "id": "8670", "properties": {"status": "Implementation", "sectors": ["Agriculture, natural resources and rural development"], "title": "SUSTAINABLE NATURAL RESOURCE MGMNT & PRODUCTIVITY", "approvalYear": "2009", "locationName": "Khoueng Xekong", "id": "46004-37579-032-GRNT0144"}}, {"geometry": {"type": "Point", "coordinates": [102.6, 17.96667]}, "type": "Feature", "id": "8671", "properties": {"status": "Implementation", "sectors": ["Education"], "title": "STRENGTHENING HIGHER EDUCATION PROJECT", "approvalYear": "2009", "locationName": "Vientiane", "id": "46004-42134-022-GRNT0166"}}, {"geometry": {"type": "Point", "coordinates": [105.79898, 15.12022]}, "type": "Feature", "id": "8672", "properties": {"status": "Implementation", "sectors": ["Education"], "title": "STRENGTHENING HIGHER EDUCATION PROJECT", "approvalYear": "2009", "locationName": "Pakxe", "id": "46004-42134-022-GRNT0166"}}, {"geometry": {"type": "Point", "coordinates": [102.13503, 19.88601]}, "type": "Feature", "id": "8673", "properties": {"status": "Implementation", "sectors": ["Education"], "title": "STRENGTHENING HIGHER EDUCATION PROJECT", "approvalYear": "2009", "locationName": "Louangphabang", "id": "46004-42134-022-GRNT0166"}}, {"geometry": {"type": "Point", "coordinates": [105.0, 18.0]}, "type": "Feature", "id": "8674", "properties": {"status": "Implementation", "sectors": ["Education"], "title": "STRENGTHENING HIGHER EDUCATION PROJECT", "approvalYear": "2009", "locationName": "Lao People's Democratic Republic", "id": "46004-42134-022-GRNT0166"}}, {"geometry": {"type": "Point", "coordinates": [102.6, 17.96667]}, "type": "Feature", "id": "8675", "properties": {"status": "Completion", "sectors": ["Health"], "title": "HEALTH SECTOR DEVELOPMENT PROGRAM", "approvalYear": "2009", "locationName": "Vientiane", "id": "46004-41376-022-GRNT0172"}}, {"geometry": {"type": "Point", "coordinates": [103.5, 19.41667]}, "type": "Feature", "id": "8676", "properties": {"status": "Completion", "sectors": ["Health"], "title": "HEALTH SECTOR DEVELOPMENT PROGRAM", "approvalYear": "2009", "locationName": "Xiangkhouang", "id": "46004-41376-022-GRNT0172"}}, {"geometry": {"type": "Point", "coordinates": [101.5, 18.5]}, "type": "Feature", "id": "8677", "properties": {"status": "Completion", "sectors": ["Health"], "title": "HEALTH SECTOR DEVELOPMENT PROGRAM", "approvalYear": "2009", "locationName": "Xaignabouli", "id": "46004-41376-022-GRNT0172"}}, {"geometry": {"type": "Point", "coordinates": [102.41667, 18.75]}, "type": "Feature", "id": "8678", "properties": {"status": "Completion", "sectors": ["Health"], "title": "HEALTH SECTOR DEVELOPMENT PROGRAM", "approvalYear": "2009", "locationName": "Vientiane Province", "id": "46004-41376-022-GRNT0172"}}, {"geometry": {"type": "Point", "coordinates": [105.75, 16.5]}, "type": "Feature", "id": "8679", "properties": {"status": "Completion", "sectors": ["Health"], "title": "HEALTH SECTOR DEVELOPMENT PROGRAM", "approvalYear": "2009", "locationName": "Khoueng Savannakhet", "id": "46004-41376-022-GRNT0172"}}, {"geometry": {"type": "Point", "coordinates": [106.25, 15.75]}, "type": "Feature", "id": "8680", "properties": {"status": "Completion", "sectors": ["Health"], "title": "HEALTH SECTOR DEVELOPMENT PROGRAM", "approvalYear": "2009", "locationName": "Salavan", "id": "46004-41376-022-GRNT0172"}}, {"geometry": {"type": "Point", "coordinates": [102.33333, 21.75]}, "type": "Feature", "id": "8681", "properties": {"status": "Completion", "sectors": ["Health"], "title": "HEALTH SECTOR DEVELOPMENT PROGRAM", "approvalYear": "2009", "locationName": "Khoueng Phongsali", "id": "46004-41376-022-GRNT0172"}}, {"geometry": {"type": "Point", "coordinates": [101.5, 20.16667]}, "type": "Feature", "id": "8682", "properties": {"status": "Completion", "sectors": ["Health"], "title": "HEALTH SECTOR DEVELOPMENT PROGRAM", "approvalYear": "2009", "locationName": "Khoueng Oudomxai", "id": "46004-41376-022-GRNT0172"}}, {"geometry": {"type": "Point", "coordinates": [102.66667, 20.25]}, "type": "Feature", "id": "8683", "properties": {"status": "Completion", "sectors": ["Health"], "title": "HEALTH SECTOR DEVELOPMENT PROGRAM", "approvalYear": "2009", "locationName": "Luang Prabang Province", "id": "46004-41376-022-GRNT0172"}}, {"geometry": {"type": "Point", "coordinates": [101.33333, 20.91667]}, "type": "Feature", "id": "8684", "properties": {"status": "Completion", "sectors": ["Health"], "title": "HEALTH SECTOR DEVELOPMENT PROGRAM", "approvalYear": "2009", "locationName": "Louangnamtha", "id": "46004-41376-022-GRNT0172"}}, {"geometry": {"type": "Point", "coordinates": [105.33333, 17.5]}, "type": "Feature", "id": "8685", "properties": {"status": "Completion", "sectors": ["Health"], "title": "HEALTH SECTOR DEVELOPMENT PROGRAM", "approvalYear": "2009", "locationName": "Khammouan", "id": "46004-41376-022-GRNT0172"}}, {"geometry": {"type": "Point", "coordinates": [104.0, 20.5]}, "type": "Feature", "id": "8686", "properties": {"status": "Completion", "sectors": ["Health"], "title": "HEALTH SECTOR DEVELOPMENT PROGRAM", "approvalYear": "2009", "locationName": "Houaphan", "id": "46004-41376-022-GRNT0172"}}, {"geometry": {"type": "Point", "coordinates": [106.0, 14.75]}, "type": "Feature", "id": "8687", "properties": {"status": "Completion", "sectors": ["Health"], "title": "HEALTH SECTOR DEVELOPMENT PROGRAM", "approvalYear": "2009", "locationName": "Champasak", "id": "46004-41376-022-GRNT0172"}}, {"geometry": {"type": "Point", "coordinates": [107.0, 14.66667]}, "type": "Feature", "id": "8688", "properties": {"status": "Completion", "sectors": ["Health"], "title": "HEALTH SECTOR DEVELOPMENT PROGRAM", "approvalYear": "2009", "locationName": "Attapu", "id": "46004-41376-022-GRNT0172"}}, {"geometry": {"type": "Point", "coordinates": [107.0, 15.5]}, "type": "Feature", "id": "8689", "properties": {"status": "Completion", "sectors": ["Health"], "title": "HEALTH SECTOR DEVELOPMENT PROGRAM", "approvalYear": "2009", "locationName": "Khoueng Xekong", "id": "46004-41376-022-GRNT0172"}}, {"geometry": {"type": "Point", "coordinates": [100.5, 20.5]}, "type": "Feature", "id": "8690", "properties": {"status": "Completion", "sectors": ["Health"], "title": "HEALTH SECTOR DEVELOPMENT PROGRAM", "approvalYear": "2009", "locationName": "Khoueng Bokeo", "id": "46004-41376-022-GRNT0172"}}, {"geometry": {"type": "Point", "coordinates": [104.33333, 18.5]}, "type": "Feature", "id": "8691", "properties": {"status": "Completion", "sectors": ["Health"], "title": "HEALTH SECTOR DEVELOPMENT PROGRAM", "approvalYear": "2009", "locationName": "Bolikhamxai", "id": "46004-41376-022-GRNT0172"}}, {"geometry": {"type": "Point", "coordinates": [102.66667, 18.08333]}, "type": "Feature", "id": "8692", "properties": {"status": "Completion", "sectors": ["Health"], "title": "HEALTH SECTOR DEVELOPMENT PROGRAM", "approvalYear": "2009", "locationName": "Vientiane Prefecture", "id": "46004-41376-022-GRNT0172"}}, {"geometry": {"type": "Point", "coordinates": [102.6, 17.96667]}, "type": "Feature", "id": "8693", "properties": {"status": "Implementation", "sectors": ["Health"], "title": "HEALTH SECTOR DEVELOPMENT PROGRAM - PROJECT GRANT", "approvalYear": "2009", "locationName": "Vientiane", "id": "46004-41376-022-GRNT0173"}}, {"geometry": {"type": "Point", "coordinates": [103.5, 19.41667]}, "type": "Feature", "id": "8694", "properties": {"status": "Implementation", "sectors": ["Health"], "title": "HEALTH SECTOR DEVELOPMENT PROGRAM - PROJECT GRANT", "approvalYear": "2009", "locationName": "Xiangkhouang", "id": "46004-41376-022-GRNT0173"}}, {"geometry": {"type": "Point", "coordinates": [101.5, 18.5]}, "type": "Feature", "id": "8695", "properties": {"status": "Implementation", "sectors": ["Health"], "title": "HEALTH SECTOR DEVELOPMENT PROGRAM - PROJECT GRANT", "approvalYear": "2009", "locationName": "Xaignabouli", "id": "46004-41376-022-GRNT0173"}}, {"geometry": {"type": "Point", "coordinates": [102.41667, 18.75]}, "type": "Feature", "id": "8696", "properties": {"status": "Implementation", "sectors": ["Health"], "title": "HEALTH SECTOR DEVELOPMENT PROGRAM - PROJECT GRANT", "approvalYear": "2009", "locationName": "Vientiane Province", "id": "46004-41376-022-GRNT0173"}}, {"geometry": {"type": "Point", "coordinates": [105.75, 16.5]}, "type": "Feature", "id": "8697", "properties": {"status": "Implementation", "sectors": ["Health"], "title": "HEALTH SECTOR DEVELOPMENT PROGRAM - PROJECT GRANT", "approvalYear": "2009", "locationName": "Khoueng Savannakhet", "id": "46004-41376-022-GRNT0173"}}, {"geometry": {"type": "Point", "coordinates": [106.25, 15.75]}, "type": "Feature", "id": "8698", "properties": {"status": "Implementation", "sectors": ["Health"], "title": "HEALTH SECTOR DEVELOPMENT PROGRAM - PROJECT GRANT", "approvalYear": "2009", "locationName": "Salavan", "id": "46004-41376-022-GRNT0173"}}, {"geometry": {"type": "Point", "coordinates": [102.33333, 21.75]}, "type": "Feature", "id": "8699", "properties": {"status": "Implementation", "sectors": ["Health"], "title": "HEALTH SECTOR DEVELOPMENT PROGRAM - PROJECT GRANT", "approvalYear": "2009", "locationName": "Khoueng Phongsali", "id": "46004-41376-022-GRNT0173"}}, {"geometry": {"type": "Point", "coordinates": [101.5, 20.16667]}, "type": "Feature", "id": "8700", "properties": {"status": "Implementation", "sectors": ["Health"], "title": "HEALTH SECTOR DEVELOPMENT PROGRAM - PROJECT GRANT", "approvalYear": "2009", "locationName": "Khoueng Oudomxai", "id": "46004-41376-022-GRNT0173"}}, {"geometry": {"type": "Point", "coordinates": [102.66667, 20.25]}, "type": "Feature", "id": "8701", "properties": {"status": "Implementation", "sectors": ["Health"], "title": "HEALTH SECTOR DEVELOPMENT PROGRAM - PROJECT GRANT", "approvalYear": "2009", "locationName": "Luang Prabang Province", "id": "46004-41376-022-GRNT0173"}}, {"geometry": {"type": "Point", "coordinates": [101.33333, 20.91667]}, "type": "Feature", "id": "8702", "properties": {"status": "Implementation", "sectors": ["Health"], "title": "HEALTH SECTOR DEVELOPMENT PROGRAM - PROJECT GRANT", "approvalYear": "2009", "locationName": "Louangnamtha", "id": "46004-41376-022-GRNT0173"}}, {"geometry": {"type": "Point", "coordinates": [105.33333, 17.5]}, "type": "Feature", "id": "8703", "properties": {"status": "Implementation", "sectors": ["Health"], "title": "HEALTH SECTOR DEVELOPMENT PROGRAM - PROJECT GRANT", "approvalYear": "2009", "locationName": "Khammouan", "id": "46004-41376-022-GRNT0173"}}, {"geometry": {"type": "Point", "coordinates": [104.0, 20.5]}, "type": "Feature", "id": "8704", "properties": {"status": "Implementation", "sectors": ["Health"], "title": "HEALTH SECTOR DEVELOPMENT PROGRAM - PROJECT GRANT", "approvalYear": "2009", "locationName": "Houaphan", "id": "46004-41376-022-GRNT0173"}}, {"geometry": {"type": "Point", "coordinates": [106.0, 14.75]}, "type": "Feature", "id": "8705", "properties": {"status": "Implementation", "sectors": ["Health"], "title": "HEALTH SECTOR DEVELOPMENT PROGRAM - PROJECT GRANT", "approvalYear": "2009", "locationName": "Champasak", "id": "46004-41376-022-GRNT0173"}}, {"geometry": {"type": "Point", "coordinates": [107.0, 14.66667]}, "type": "Feature", "id": "8706", "properties": {"status": "Implementation", "sectors": ["Health"], "title": "HEALTH SECTOR DEVELOPMENT PROGRAM - PROJECT GRANT", "approvalYear": "2009", "locationName": "Attapu", "id": "46004-41376-022-GRNT0173"}}, {"geometry": {"type": "Point", "coordinates": [107.0, 15.5]}, "type": "Feature", "id": "8707", "properties": {"status": "Implementation", "sectors": ["Health"], "title": "HEALTH SECTOR DEVELOPMENT PROGRAM - PROJECT GRANT", "approvalYear": "2009", "locationName": "Khoueng Xekong", "id": "46004-41376-022-GRNT0173"}}, {"geometry": {"type": "Point", "coordinates": [100.5, 20.5]}, "type": "Feature", "id": "8708", "properties": {"status": "Implementation", "sectors": ["Health"], "title": "HEALTH SECTOR DEVELOPMENT PROGRAM - PROJECT GRANT", "approvalYear": "2009", "locationName": "Khoueng Bokeo", "id": "46004-41376-022-GRNT0173"}}, {"geometry": {"type": "Point", "coordinates": [104.33333, 18.5]}, "type": "Feature", "id": "8709", "properties": {"status": "Implementation", "sectors": ["Health"], "title": "HEALTH SECTOR DEVELOPMENT PROGRAM - PROJECT GRANT", "approvalYear": "2009", "locationName": "Bolikhamxai", "id": "46004-41376-022-GRNT0173"}}, {"geometry": {"type": "Point", "coordinates": [102.66667, 18.08333]}, "type": "Feature", "id": "8710", "properties": {"status": "Implementation", "sectors": ["Health"], "title": "HEALTH SECTOR DEVELOPMENT PROGRAM - PROJECT GRANT", "approvalYear": "2009", "locationName": "Vientiane Prefecture", "id": "46004-41376-022-GRNT0173"}}, {"geometry": {"type": "Point", "coordinates": [101.59536, 19.3229]}, "type": "Feature", "id": "8711", "properties": {"status": "Implementation", "sectors": ["Energy"], "title": "GREATER MEKONG SUBREGION NORTHERN POWER TRANSMISSI", "approvalYear": "2010", "locationName": "Muang Xaignabouli", "id": "46004-38628-022-GRNT0195"}}, {"geometry": {"type": "Point", "coordinates": [101.5, 18.5]}, "type": "Feature", "id": "8712", "properties": {"status": "Implementation", "sectors": ["Energy"], "title": "GREATER MEKONG SUBREGION NORTHERN POWER TRANSMISSI", "approvalYear": "2010", "locationName": "Xaignabouli", "id": "46004-38628-022-GRNT0195"}}, {"geometry": {"type": "Point", "coordinates": [102.41667, 18.75]}, "type": "Feature", "id": "8713", "properties": {"status": "Implementation", "sectors": ["Energy"], "title": "GREATER MEKONG SUBREGION NORTHERN POWER TRANSMISSI", "approvalYear": "2010", "locationName": "Vientiane Province", "id": "46004-38628-022-GRNT0195"}}, {"geometry": {"type": "Point", "coordinates": [102.33333, 21.75]}, "type": "Feature", "id": "8714", "properties": {"status": "Implementation", "sectors": ["Energy"], "title": "GREATER MEKONG SUBREGION NORTHERN POWER TRANSMISSI", "approvalYear": "2010", "locationName": "Khoueng Phongsali", "id": "46004-38628-022-GRNT0195"}}, {"geometry": {"type": "Point", "coordinates": [103.27385, 19.51372]}, "type": "Feature", "id": "8715", "properties": {"status": "Implementation", "sectors": ["Energy"], "title": "GREATER MEKONG SUBREGION NORTHERN POWER TRANSMISSI", "approvalYear": "2010", "locationName": "Muang Pek", "id": "46004-38628-022-GRNT0195"}}, {"geometry": {"type": "Point", "coordinates": [103.48333, 19.53333]}, "type": "Feature", "id": "8716", "properties": {"status": "Implementation", "sectors": ["Energy"], "title": "GREATER MEKONG SUBREGION NORTHERN POWER TRANSMISSI", "approvalYear": "2010", "locationName": "Nam O", "id": "46004-38628-022-GRNT0195"}}, {"geometry": {"type": "Point", "coordinates": [101.71032, 19.25756]}, "type": "Feature", "id": "8717", "properties": {"status": "Implementation", "sectors": ["Energy"], "title": "GREATER MEKONG SUBREGION NORTHERN POWER TRANSMISSI", "approvalYear": "2010", "locationName": "Sainyabuli", "id": "46004-38628-022-GRNT0195"}}, {"geometry": {"type": "Point", "coordinates": [101.40888, 18.21609]}, "type": "Feature", "id": "8718", "properties": {"status": "Implementation", "sectors": ["Energy"], "title": "GREATER MEKONG SUBREGION NORTHERN POWER TRANSMISSI", "approvalYear": "2010", "locationName": "Muang Paklay", "id": "46004-38628-022-GRNT0195"}}, {"geometry": {"type": "Point", "coordinates": [101.39925, 17.73449]}, "type": "Feature", "id": "8719", "properties": {"status": "Implementation", "sectors": ["Energy"], "title": "GREATER MEKONG SUBREGION NORTHERN POWER TRANSMISSI", "approvalYear": "2010", "locationName": "Muang Kenthao", "id": "46004-38628-022-GRNT0195"}}, {"geometry": {"type": "Point", "coordinates": [105.0, 18.0]}, "type": "Feature", "id": "8720", "properties": {"status": "Implementation", "sectors": ["Energy"], "title": "GREATER MEKONG SUBREGION NORTHERN POWER TRANSMISSI", "approvalYear": "2010", "locationName": "Lao People's Democratic Republic", "id": "46004-38628-022-GRNT0195"}}, {"geometry": {"type": "Point", "coordinates": [104.92141, 18.35234]}, "type": "Feature", "id": "8721", "properties": {"status": "Implementation", "sectors": ["Energy"], "title": "GREATER MEKONG SUBREGION NORTHERN POWER TRANSMISSI", "approvalYear": "2010", "locationName": "Muang Khamkeut", "id": "46004-38628-022-GRNT0195"}}, {"geometry": {"type": "Point", "coordinates": [101.90325, 21.63556]}, "type": "Feature", "id": "8722", "properties": {"status": "Implementation", "sectors": ["Energy"], "title": "GREATER MEKONG SUBREGION NORTHERN POWER TRANSMISSI", "approvalYear": "2010", "locationName": "Ban Boun-Nua", "id": "46004-38628-022-GRNT0195"}}, {"geometry": {"type": "Point", "coordinates": [101.31866, 18.03359]}, "type": "Feature", "id": "8723", "properties": {"status": "Implementation", "sectors": ["Energy"], "title": "GREATER MEKONG SUBREGION NORTHERN POWER TRANSMISSI", "approvalYear": "2010", "locationName": "Muang Kenthao", "id": "46004-38628-022-GRNT0195"}}, {"geometry": {"type": "Point", "coordinates": [101.89396, 21.66787]}, "type": "Feature", "id": "8724", "properties": {"status": "Implementation", "sectors": ["Energy"], "title": "GREATER MEKONG SUBREGION NORTHERN POWER TRANSMISSI", "approvalYear": "2010", "locationName": "Muang Boun-Nua", "id": "46004-38628-022-GRNT0195"}}, {"geometry": {"type": "Point", "coordinates": [103.48333, 19.53333]}, "type": "Feature", "id": "8725", "properties": {"status": "Completion", "sectors": ["Water supply and other urban infrastructure and services"], "title": "NORTHERN&CENTRAL REGIONS WATER SUPPLY & SANITATION", "approvalYear": "2010", "locationName": "Nam O", "id": "46004-34197-042-GRNT0205"}}, {"geometry": {"type": "Point", "coordinates": [101.14823, 21.19242]}, "type": "Feature", "id": "8726", "properties": {"status": "Completion", "sectors": ["Water supply and other urban infrastructure and services"], "title": "NORTHERN&CENTRAL REGIONS WATER SUPPLY & SANITATION", "approvalYear": "2010", "locationName": "Muang Sing", "id": "46004-34197-042-GRNT0205"}}, {"geometry": {"type": "Point", "coordinates": [102.68333, 20.71667]}, "type": "Feature", "id": "8727", "properties": {"status": "Completion", "sectors": ["Water supply and other urban infrastructure and services"], "title": "NORTHERN&CENTRAL REGIONS WATER SUPPLY & SANITATION", "approvalYear": "2010", "locationName": "Muang Ngoy", "id": "46004-34197-042-GRNT0205"}}, {"geometry": {"type": "Point", "coordinates": [101.87979, 19.49767]}, "type": "Feature", "id": "8728", "properties": {"status": "Completion", "sectors": ["Water supply and other urban infrastructure and services"], "title": "NORTHERN&CENTRAL REGIONS WATER SUPPLY & SANITATION", "approvalYear": "2010", "locationName": "Ban Muang-Nan", "id": "46004-34197-042-GRNT0205"}}, {"geometry": {"type": "Point", "coordinates": [101.39925, 17.73449]}, "type": "Feature", "id": "8729", "properties": {"status": "Completion", "sectors": ["Water supply and other urban infrastructure and services"], "title": "NORTHERN&CENTRAL REGIONS WATER SUPPLY & SANITATION", "approvalYear": "2010", "locationName": "Muang K\u00e8nthao", "id": "46004-34197-042-GRNT0205"}}, {"geometry": {"type": "Point", "coordinates": [101.45944, 20.14712]}, "type": "Feature", "id": "8730", "properties": {"status": "Completion", "sectors": ["Water supply and other urban infrastructure and services"], "title": "NORTHERN&CENTRAL REGIONS WATER SUPPLY & SANITATION", "approvalYear": "2010", "locationName": "Muang Houn", "id": "46004-34197-042-GRNT0205"}}, {"geometry": {"type": "Point", "coordinates": [101.40188, 20.9486]}, "type": "Feature", "id": "8731", "properties": {"status": "Completion", "sectors": ["Water supply and other urban infrastructure and services"], "title": "NORTHERN&CENTRAL REGIONS WATER SUPPLY & SANITATION", "approvalYear": "2010", "locationName": "Louang Namtha", "id": "46004-34197-042-GRNT0205"}}, {"geometry": {"type": "Point", "coordinates": [100.25871, 20.40296]}, "type": "Feature", "id": "8732", "properties": {"status": "Completion", "sectors": ["Water supply and other urban infrastructure and services"], "title": "NORTHERN&CENTRAL REGIONS WATER SUPPLY & SANITATION", "approvalYear": "2010", "locationName": "Ban Namkeung-Kao", "id": "46004-34197-042-GRNT0205"}}, {"geometry": {"type": "Point", "coordinates": [102.56856, 18.56926]}, "type": "Feature", "id": "8733", "properties": {"status": "Completion", "sectors": ["Water supply and other urban infrastructure and services"], "title": "NORTHERN&CENTRAL REGIONS WATER SUPPLY & SANITATION", "approvalYear": "2010", "locationName": "Muang K\u00e8o-Oud\u00f4m", "id": "46004-34197-042-GRNT0205"}}, {"geometry": {"type": "Point", "coordinates": [103.50898, 19.27979]}, "type": "Feature", "id": "8734", "properties": {"status": "Completion", "sectors": ["Water supply and other urban infrastructure and services"], "title": "NORTHERN&CENTRAL REGIONS WATER SUPPLY & SANITATION", "approvalYear": "2010", "locationName": "Muang Khoun", "id": "46004-34197-042-GRNT0205"}}, {"geometry": {"type": "Point", "coordinates": [104.51722, 19.94515]}, "type": "Feature", "id": "8735", "properties": {"status": "Completion", "sectors": ["Water supply and other urban infrastructure and services"], "title": "NORTHERN&CENTRAL REGIONS WATER SUPPLY & SANITATION", "approvalYear": "2010", "locationName": "Xamtay", "id": "46004-34197-042-GRNT0205"}}, {"geometry": {"type": "Point", "coordinates": [101.6795, 17.91308]}, "type": "Feature", "id": "8736", "properties": {"status": "Completion", "sectors": ["Water supply and other urban infrastructure and services"], "title": "NORTHERN&CENTRAL REGIONS WATER SUPPLY & SANITATION", "approvalYear": "2010", "locationName": "Xanakham", "id": "46004-34197-042-GRNT0205"}}, {"geometry": {"type": "Point", "coordinates": [102.6, 17.96667]}, "type": "Feature", "id": "8737", "properties": {"status": "Implementation", "sectors": ["Education"], "title": "STRENGHTENING TECHNICAL AND VOCATIONAL EDUCATION A", "approvalYear": "2010", "locationName": "Vientiane", "id": "46004-42278-022-GRNT0211"}}, {"geometry": {"type": "Point", "coordinates": [102.41667, 18.75]}, "type": "Feature", "id": "8738", "properties": {"status": "Implementation", "sectors": ["Education"], "title": "STRENGHTENING TECHNICAL AND VOCATIONAL EDUCATION A", "approvalYear": "2010", "locationName": "Vientiane Province", "id": "46004-42278-022-GRNT0211"}}, {"geometry": {"type": "Point", "coordinates": [105.75, 16.5]}, "type": "Feature", "id": "8739", "properties": {"status": "Implementation", "sectors": ["Education"], "title": "STRENGHTENING TECHNICAL AND VOCATIONAL EDUCATION A", "approvalYear": "2010", "locationName": "Khoueng Savannakhet", "id": "46004-42278-022-GRNT0211"}}, {"geometry": {"type": "Point", "coordinates": [102.66667, 20.25]}, "type": "Feature", "id": "8740", "properties": {"status": "Implementation", "sectors": ["Education"], "title": "STRENGHTENING TECHNICAL AND VOCATIONAL EDUCATION A", "approvalYear": "2010", "locationName": "Luang Prabang Province", "id": "46004-42278-022-GRNT0211"}}, {"geometry": {"type": "Point", "coordinates": [106.0, 14.75]}, "type": "Feature", "id": "8741", "properties": {"status": "Implementation", "sectors": ["Education"], "title": "STRENGHTENING TECHNICAL AND VOCATIONAL EDUCATION A", "approvalYear": "2010", "locationName": "Champasak", "id": "46004-42278-022-GRNT0211"}}, {"geometry": {"type": "Point", "coordinates": [103.5, 19.41667]}, "type": "Feature", "id": "8742", "properties": {"status": "Completion", "sectors": ["Agriculture, natural resources and rural development"], "title": "NORTHERN REGION SUSTAINABLE LIVELIHOODS THRU LIVESTOCK DEVT PROJ", "approvalYear": "2007", "locationName": "Xiangkhouang", "id": "46004-35297-013-LN2259"}}, {"geometry": {"type": "Point", "coordinates": [102.66667, 20.25]}, "type": "Feature", "id": "8743", "properties": {"status": "Completion", "sectors": ["Agriculture, natural resources and rural development"], "title": "NORTHERN REGION SUSTAINABLE LIVELIHOODS THRU LIVESTOCK DEVT PROJ", "approvalYear": "2007", "locationName": "Luang Prabang Province", "id": "46004-35297-013-LN2259"}}, {"geometry": {"type": "Point", "coordinates": [101.33333, 20.91667]}, "type": "Feature", "id": "8744", "properties": {"status": "Completion", "sectors": ["Agriculture, natural resources and rural development"], "title": "NORTHERN REGION SUSTAINABLE LIVELIHOODS THRU LIVESTOCK DEVT PROJ", "approvalYear": "2007", "locationName": "Louangnamtha", "id": "46004-35297-013-LN2259"}}, {"geometry": {"type": "Point", "coordinates": [104.0, 20.5]}, "type": "Feature", "id": "8745", "properties": {"status": "Completion", "sectors": ["Agriculture, natural resources and rural development"], "title": "NORTHERN REGION SUSTAINABLE LIVELIHOODS THRU LIVESTOCK DEVT PROJ", "approvalYear": "2007", "locationName": "Houaphan", "id": "46004-35297-013-LN2259"}}, {"geometry": {"type": "Point", "coordinates": [100.5, 20.5]}, "type": "Feature", "id": "8746", "properties": {"status": "Completion", "sectors": ["Agriculture, natural resources and rural development"], "title": "NORTHERN REGION SUSTAINABLE LIVELIHOODS THRU LIVESTOCK DEVT PROJ", "approvalYear": "2007", "locationName": "Khoueng Bokeo", "id": "46004-35297-013-LN2259"}}, {"geometry": {"type": "Point", "coordinates": [105.75, 16.5]}, "type": "Feature", "id": "8747", "properties": {"status": "Completion", "sectors": ["Education"], "title": "BASIC EDUCATION SECTOR DEVELOPMENT PROJECT", "approvalYear": "2007", "locationName": "Khou\u00e8ng Savannakh\u00e9t", "id": "46004-32312-013-LN2306"}}, {"geometry": {"type": "Point", "coordinates": [101.33333, 20.91667]}, "type": "Feature", "id": "8748", "properties": {"status": "Completion", "sectors": ["Education"], "title": "BASIC EDUCATION SECTOR DEVELOPMENT PROJECT", "approvalYear": "2007", "locationName": "Louangnamtha", "id": "46004-32312-013-LN2306"}}, {"geometry": {"type": "Point", "coordinates": [105.33333, 17.5]}, "type": "Feature", "id": "8749", "properties": {"status": "Completion", "sectors": ["Education"], "title": "BASIC EDUCATION SECTOR DEVELOPMENT PROJECT", "approvalYear": "2007", "locationName": "Khammouan", "id": "46004-32312-013-LN2306"}}, {"geometry": {"type": "Point", "coordinates": [106.0, 14.75]}, "type": "Feature", "id": "8750", "properties": {"status": "Completion", "sectors": ["Education"], "title": "BASIC EDUCATION SECTOR DEVELOPMENT PROJECT", "approvalYear": "2007", "locationName": "Champasak", "id": "46004-32312-013-LN2306"}}, {"geometry": {"type": "Point", "coordinates": [107.0, 14.66667]}, "type": "Feature", "id": "8751", "properties": {"status": "Completion", "sectors": ["Education"], "title": "BASIC EDUCATION SECTOR DEVELOPMENT PROJECT", "approvalYear": "2007", "locationName": "Attapu", "id": "46004-32312-013-LN2306"}}, {"geometry": {"type": "Point", "coordinates": [100.5, 20.5]}, "type": "Feature", "id": "8752", "properties": {"status": "Completion", "sectors": ["Education"], "title": "BASIC EDUCATION SECTOR DEVELOPMENT PROJECT", "approvalYear": "2007", "locationName": "Khou\u00e8ng Bok\u00e8o", "id": "46004-32312-013-LN2306"}}, {"geometry": {"type": "Point", "coordinates": [104.91667, 19.25]}, "type": "Feature", "id": "8753", "properties": {"status": "Implementation", "sectors": ["Health"], "title": "SECOND GMS REGIONAL COMMUNICABLE DISEASES CONTROL", "approvalYear": "2010", "locationName": "T\u1ec9nh Ngh\u1ec7 An", "id": "46004-41507-012-GRNT0232"}}, {"geometry": {"type": "Point", "coordinates": [106.3, 9.8]}, "type": "Feature", "id": "8754", "properties": {"status": "Implementation", "sectors": ["Health"], "title": "SECOND GMS REGIONAL COMMUNICABLE DISEASES CONTROL", "approvalYear": "2010", "locationName": "T\u1ec9nh Tr\u00e0 Vinh", "id": "46004-41507-012-GRNT0232"}}, {"geometry": {"type": "Point", "coordinates": [104.16667, 22.3]}, "type": "Feature", "id": "8755", "properties": {"status": "Implementation", "sectors": ["Health"], "title": "SECOND GMS REGIONAL COMMUNICABLE DISEASES CONTROL", "approvalYear": "2010", "locationName": "T\u1ec9nh L\u00e0o Cai", "id": "46004-41507-012-GRNT0232"}}, {"geometry": {"type": "Point", "coordinates": [107.83333, 16.16667]}, "type": "Feature", "id": "8756", "properties": {"status": "Implementation", "sectors": ["Health"], "title": "SECOND GMS REGIONAL COMMUNICABLE DISEASES CONTROL", "approvalYear": "2010", "locationName": "Vietnam", "id": "46004-41507-012-GRNT0232"}}, {"geometry": {"type": "Point", "coordinates": [105.33333, 20.06667]}, "type": "Feature", "id": "8757", "properties": {"status": "Implementation", "sectors": ["Health"], "title": "SECOND GMS REGIONAL COMMUNICABLE DISEASES CONTROL", "approvalYear": "2010", "locationName": "T\u1ec9nh Thanh H\u00f3a", "id": "46004-41507-012-GRNT0232"}}, {"geometry": {"type": "Point", "coordinates": [106.16667, 11.33333]}, "type": "Feature", "id": "8758", "properties": {"status": "Implementation", "sectors": ["Health"], "title": "SECOND GMS REGIONAL COMMUNICABLE DISEASES CONTROL", "approvalYear": "2010", "locationName": "T\u1ec9nh T\u00e2y Ninh", "id": "46004-41507-012-GRNT0232"}}, {"geometry": {"type": "Point", "coordinates": [104.0, 21.16667]}, "type": "Feature", "id": "8759", "properties": {"status": "Implementation", "sectors": ["Health"], "title": "SECOND GMS REGIONAL COMMUNICABLE DISEASES CONTROL", "approvalYear": "2010", "locationName": "T\u1ec9nh S\u01a1n La", "id": "46004-41507-012-GRNT0232"}}, {"geometry": {"type": "Point", "coordinates": [107.0, 16.75]}, "type": "Feature", "id": "8760", "properties": {"status": "Implementation", "sectors": ["Health"], "title": "SECOND GMS REGIONAL COMMUNICABLE DISEASES CONTROL", "approvalYear": "2010", "locationName": "T\u1ec9nh Qu\u1ea3ng Tr\u1ecb", "id": "46004-41507-012-GRNT0232"}}, {"geometry": {"type": "Point", "coordinates": [106.33333, 17.5]}, "type": "Feature", "id": "8761", "properties": {"status": "Implementation", "sectors": ["Health"], "title": "SECOND GMS REGIONAL COMMUNICABLE DISEASES CONTROL", "approvalYear": "2010", "locationName": "T\u1ec9nh Qu\u1ea3ng B\u00ecnh", "id": "46004-41507-012-GRNT0232"}}, {"geometry": {"type": "Point", "coordinates": [106.16667, 10.7]}, "type": "Feature", "id": "8762", "properties": {"status": "Implementation", "sectors": ["Health"], "title": "SECOND GMS REGIONAL COMMUNICABLE DISEASES CONTROL", "approvalYear": "2010", "locationName": "Long An", "id": "46004-41507-012-GRNT0232"}}, {"geometry": {"type": "Point", "coordinates": [105.16667, 10.0]}, "type": "Feature", "id": "8763", "properties": {"status": "Implementation", "sectors": ["Health"], "title": "SECOND GMS REGIONAL COMMUNICABLE DISEASES CONTROL", "approvalYear": "2010", "locationName": "T\u1ec9nh Ki\u1ebfn Giang", "id": "46004-41507-012-GRNT0232"}}, {"geometry": {"type": "Point", "coordinates": [105.75, 18.33333]}, "type": "Feature", "id": "8764", "properties": {"status": "Implementation", "sectors": ["Health"], "title": "SECOND GMS REGIONAL COMMUNICABLE DISEASES CONTROL", "approvalYear": "2010", "locationName": "T\u1ec9nh H\u00e0 T\u0129nh", "id": "46004-41507-012-GRNT0232"}}, {"geometry": {"type": "Point", "coordinates": [105.75, 21.0]}, "type": "Feature", "id": "8765", "properties": {"status": "Implementation", "sectors": ["Health"], "title": "SECOND GMS REGIONAL COMMUNICABLE DISEASES CONTROL", "approvalYear": "2010", "locationName": "Th\u00e0nh Ph\u1ed1 H\u00e0 N\u1ed9i", "id": "46004-41507-012-GRNT0232"}}, {"geometry": {"type": "Point", "coordinates": [105.5, 10.11667]}, "type": "Feature", "id": "8766", "properties": {"status": "Implementation", "sectors": ["Health"], "title": "SECOND GMS REGIONAL COMMUNICABLE DISEASES CONTROL", "approvalYear": "2010", "locationName": "Th\u00e0nh Ph\u1ed1 C\u1ea7n Th\u01a1", "id": "46004-41507-012-GRNT0232"}}, {"geometry": {"type": "Point", "coordinates": [105.63333, 10.58333]}, "type": "Feature", "id": "8767", "properties": {"status": "Implementation", "sectors": ["Health"], "title": "SECOND GMS REGIONAL COMMUNICABLE DISEASES CONTROL", "approvalYear": "2010", "locationName": "T\u1ec9nh \u0110\u1ed3ng Th\u00e1p", "id": "46004-41507-012-GRNT0232"}}, {"geometry": {"type": "Point", "coordinates": [108.25, 12.75]}, "type": "Feature", "id": "8768", "properties": {"status": "Implementation", "sectors": ["Health"], "title": "SECOND GMS REGIONAL COMMUNICABLE DISEASES CONTROL", "approvalYear": "2010", "locationName": "T\u1ec9nh \u0110\u1eafk L\u1eafk", "id": "46004-41507-012-GRNT0232"}}, {"geometry": {"type": "Point", "coordinates": [106.5, 10.16667]}, "type": "Feature", "id": "8769", "properties": {"status": "Implementation", "sectors": ["Health"], "title": "SECOND GMS REGIONAL COMMUNICABLE DISEASES CONTROL", "approvalYear": "2010", "locationName": "T\u1ec9nh B\u1ebfn Tre", "id": "46004-41507-012-GRNT0232"}}, {"geometry": {"type": "Point", "coordinates": [105.16667, 10.5]}, "type": "Feature", "id": "8770", "properties": {"status": "Implementation", "sectors": ["Health"], "title": "SECOND GMS REGIONAL COMMUNICABLE DISEASES CONTROL", "approvalYear": "2010", "locationName": "An Giang", "id": "46004-41507-012-GRNT0232"}}, {"geometry": {"type": "Point", "coordinates": [103.5, 19.41667]}, "type": "Feature", "id": "8771", "properties": {"status": "Implementation", "sectors": ["Health"], "title": "SECOND GMS REGIONAL COMMUNICABLE DISEASES CONTROL", "approvalYear": "2010", "locationName": "Xiangkhouang", "id": "46004-41507-012-GRNT0232"}}, {"geometry": {"type": "Point", "coordinates": [106.25, 15.75]}, "type": "Feature", "id": "8772", "properties": {"status": "Implementation", "sectors": ["Health"], "title": "SECOND GMS REGIONAL COMMUNICABLE DISEASES CONTROL", "approvalYear": "2010", "locationName": "Salavan", "id": "46004-41507-012-GRNT0232"}}, {"geometry": {"type": "Point", "coordinates": [102.33333, 21.75]}, "type": "Feature", "id": "8773", "properties": {"status": "Implementation", "sectors": ["Health"], "title": "SECOND GMS REGIONAL COMMUNICABLE DISEASES CONTROL", "approvalYear": "2010", "locationName": "Khoueng Phongsali", "id": "46004-41507-012-GRNT0232"}}, {"geometry": {"type": "Point", "coordinates": [101.5, 20.16667]}, "type": "Feature", "id": "8774", "properties": {"status": "Implementation", "sectors": ["Health"], "title": "SECOND GMS REGIONAL COMMUNICABLE DISEASES CONTROL", "approvalYear": "2010", "locationName": "Khoueng Oudomxai", "id": "46004-41507-012-GRNT0232"}}, {"geometry": {"type": "Point", "coordinates": [101.33333, 20.91667]}, "type": "Feature", "id": "8775", "properties": {"status": "Implementation", "sectors": ["Health"], "title": "SECOND GMS REGIONAL COMMUNICABLE DISEASES CONTROL", "approvalYear": "2010", "locationName": "Louangnamtha", "id": "46004-41507-012-GRNT0232"}}, {"geometry": {"type": "Point", "coordinates": [105.0, 18.0]}, "type": "Feature", "id": "8776", "properties": {"status": "Implementation", "sectors": ["Health"], "title": "SECOND GMS REGIONAL COMMUNICABLE DISEASES CONTROL", "approvalYear": "2010", "locationName": "Lao People's Democratic Republic", "id": "46004-41507-012-GRNT0232"}}, {"geometry": {"type": "Point", "coordinates": [105.33333, 17.5]}, "type": "Feature", "id": "8777", "properties": {"status": "Implementation", "sectors": ["Health"], "title": "SECOND GMS REGIONAL COMMUNICABLE DISEASES CONTROL", "approvalYear": "2010", "locationName": "Khammouan", "id": "46004-41507-012-GRNT0232"}}, {"geometry": {"type": "Point", "coordinates": [104.0, 20.5]}, "type": "Feature", "id": "8778", "properties": {"status": "Implementation", "sectors": ["Health"], "title": "SECOND GMS REGIONAL COMMUNICABLE DISEASES CONTROL", "approvalYear": "2010", "locationName": "Houaphan", "id": "46004-41507-012-GRNT0232"}}, {"geometry": {"type": "Point", "coordinates": [106.0, 14.75]}, "type": "Feature", "id": "8779", "properties": {"status": "Implementation", "sectors": ["Health"], "title": "SECOND GMS REGIONAL COMMUNICABLE DISEASES CONTROL", "approvalYear": "2010", "locationName": "Champasak", "id": "46004-41507-012-GRNT0232"}}, {"geometry": {"type": "Point", "coordinates": [107.0, 14.66667]}, "type": "Feature", "id": "8780", "properties": {"status": "Implementation", "sectors": ["Health"], "title": "SECOND GMS REGIONAL COMMUNICABLE DISEASES CONTROL", "approvalYear": "2010", "locationName": "Attapu", "id": "46004-41507-012-GRNT0232"}}, {"geometry": {"type": "Point", "coordinates": [104.83333, 10.91667]}, "type": "Feature", "id": "8781", "properties": {"status": "Implementation", "sectors": ["Health"], "title": "SECOND GMS REGIONAL COMMUNICABLE DISEASES CONTROL", "approvalYear": "2010", "locationName": "Takeo", "id": "46004-41507-012-GRNT0232"}}, {"geometry": {"type": "Point", "coordinates": [105.83333, 11.16667]}, "type": "Feature", "id": "8782", "properties": {"status": "Implementation", "sectors": ["Health"], "title": "SECOND GMS REGIONAL COMMUNICABLE DISEASES CONTROL", "approvalYear": "2010", "locationName": "Svay Rieng", "id": "46004-41507-012-GRNT0232"}}, {"geometry": {"type": "Point", "coordinates": [106.25, 13.75]}, "type": "Feature", "id": "8783", "properties": {"status": "Implementation", "sectors": ["Health"], "title": "SECOND GMS REGIONAL COMMUNICABLE DISEASES CONTROL", "approvalYear": "2010", "locationName": "Stung Treng", "id": "46004-41507-012-GRNT0232"}}, {"geometry": {"type": "Point", "coordinates": [107.11667, 13.83333]}, "type": "Feature", "id": "8784", "properties": {"status": "Implementation", "sectors": ["Health"], "title": "SECOND GMS REGIONAL COMMUNICABLE DISEASES CONTROL", "approvalYear": "2010", "locationName": "Ratanakiri", "id": "46004-41507-012-GRNT0232"}}, {"geometry": {"type": "Point", "coordinates": [105.46667, 11.36667]}, "type": "Feature", "id": "8785", "properties": {"status": "Implementation", "sectors": ["Health"], "title": "SECOND GMS REGIONAL COMMUNICABLE DISEASES CONTROL", "approvalYear": "2010", "locationName": "Prey Veng", "id": "46004-41507-012-GRNT0232"}}, {"geometry": {"type": "Point", "coordinates": [107.0, 12.75]}, "type": "Feature", "id": "8786", "properties": {"status": "Implementation", "sectors": ["Health"], "title": "SECOND GMS REGIONAL COMMUNICABLE DISEASES CONTROL", "approvalYear": "2010", "locationName": "Mondolkiri", "id": "46004-41507-012-GRNT0232"}}, {"geometry": {"type": "Point", "coordinates": [106.08333, 12.66667]}, "type": "Feature", "id": "8787", "properties": {"status": "Implementation", "sectors": ["Health"], "title": "SECOND GMS REGIONAL COMMUNICABLE DISEASES CONTROL", "approvalYear": "2010", "locationName": "Kratie", "id": "46004-41507-012-GRNT0232"}}, {"geometry": {"type": "Point", "coordinates": [105.0, 11.41667]}, "type": "Feature", "id": "8788", "properties": {"status": "Implementation", "sectors": ["Health"], "title": "SECOND GMS REGIONAL COMMUNICABLE DISEASES CONTROL", "approvalYear": "2010", "locationName": "Kandal", "id": "46004-41507-012-GRNT0232"}}, {"geometry": {"type": "Point", "coordinates": [104.33333, 10.83333]}, "type": "Feature", "id": "8789", "properties": {"status": "Implementation", "sectors": ["Health"], "title": "SECOND GMS REGIONAL COMMUNICABLE DISEASES CONTROL", "approvalYear": "2010", "locationName": "Kampot", "id": "46004-41507-012-GRNT0232"}}, {"geometry": {"type": "Point", "coordinates": [105.58333, 12.08333]}, "type": "Feature", "id": "8790", "properties": {"status": "Implementation", "sectors": ["Health"], "title": "SECOND GMS REGIONAL COMMUNICABLE DISEASES CONTROL", "approvalYear": "2010", "locationName": "Kampong Cham", "id": "46004-41507-012-GRNT0232"}}, {"geometry": {"type": "Point", "coordinates": [105.0, 13.0]}, "type": "Feature", "id": "8791", "properties": {"status": "Implementation", "sectors": ["Health"], "title": "SECOND GMS REGIONAL COMMUNICABLE DISEASES CONTROL", "approvalYear": "2010", "locationName": "Cambodia", "id": "46004-41507-012-GRNT0232"}}, {"geometry": {"type": "Point", "coordinates": [107.0, 15.5]}, "type": "Feature", "id": "8792", "properties": {"status": "Implementation", "sectors": ["Health"], "title": "SECOND GMS REGIONAL COMMUNICABLE DISEASES CONTROL", "approvalYear": "2010", "locationName": "Khoueng Xekong", "id": "46004-41507-012-GRNT0232"}}, {"geometry": {"type": "Point", "coordinates": [100.5, 20.5]}, "type": "Feature", "id": "8793", "properties": {"status": "Implementation", "sectors": ["Health"], "title": "SECOND GMS REGIONAL COMMUNICABLE DISEASES CONTROL", "approvalYear": "2010", "locationName": "Khoueng Bokeo", "id": "46004-41507-012-GRNT0232"}}, {"geometry": {"type": "Point", "coordinates": [104.33333, 18.5]}, "type": "Feature", "id": "8794", "properties": {"status": "Implementation", "sectors": ["Health"], "title": "SECOND GMS REGIONAL COMMUNICABLE DISEASES CONTROL", "approvalYear": "2010", "locationName": "Bolikhamxai", "id": "46004-41507-012-GRNT0232"}}, {"geometry": {"type": "Point", "coordinates": [107.75, 12.16667]}, "type": "Feature", "id": "8795", "properties": {"status": "Implementation", "sectors": ["Health"], "title": "SECOND GMS REGIONAL COMMUNICABLE DISEASES CONTROL", "approvalYear": "2010", "locationName": "\u00d0\u1eafk N\u00f4ng", "id": "46004-41507-012-GRNT0232"}}, {"geometry": {"type": "Point", "coordinates": [102.93333, 21.33333]}, "type": "Feature", "id": "8796", "properties": {"status": "Implementation", "sectors": ["Health"], "title": "SECOND GMS REGIONAL COMMUNICABLE DISEASES CONTROL", "approvalYear": "2010", "locationName": "Huy\u1ec7n \u00d0i\u1ec7n Bi\u00ean", "id": "46004-41507-012-GRNT0232"}}, {"geometry": {"type": "Point", "coordinates": [106.91667, 11.75]}, "type": "Feature", "id": "8797", "properties": {"status": "Implementation", "sectors": ["Health"], "title": "SECOND GMS REGIONAL COMMUNICABLE DISEASES CONTROL", "approvalYear": "2010", "locationName": "T\u1ec9nh B\u00ecnh Ph\u01b0\u1edbc", "id": "46004-41507-012-GRNT0232"}}, {"geometry": {"type": "Point", "coordinates": [105.33333, 20.06667]}, "type": "Feature", "id": "8798", "properties": {"status": "Implementation", "sectors": ["Transport"], "title": "SECOND NORTHERN GMS SUBREGION TRANSPORT NETWORK IM", "approvalYear": "2010", "locationName": "T\u1ec9nh Thanh H\u00f3a", "id": "46004-41444-022-GRNT0234"}}, {"geometry": {"type": "Point", "coordinates": [105.76667, 19.8]}, "type": "Feature", "id": "8799", "properties": {"status": "Implementation", "sectors": ["Transport"], "title": "SECOND NORTHERN GMS SUBREGION TRANSPORT NETWORK IM", "approvalYear": "2010", "locationName": "Thanh H\u00f3a", "id": "46004-41444-022-GRNT0234"}}, {"geometry": {"type": "Point", "coordinates": [104.01667, 20.31667]}, "type": "Feature", "id": "8800", "properties": {"status": "Implementation", "sectors": ["Transport"], "title": "SECOND NORTHERN GMS SUBREGION TRANSPORT NETWORK IM", "approvalYear": "2010", "locationName": "Muang Ham", "id": "46004-41444-022-GRNT0234"}}, {"geometry": {"type": "Point", "coordinates": [104.0, 20.5]}, "type": "Feature", "id": "8801", "properties": {"status": "Implementation", "sectors": ["Transport"], "title": "SECOND NORTHERN GMS SUBREGION TRANSPORT NETWORK IM", "approvalYear": "2010", "locationName": "Houaphan", "id": "46004-41444-022-GRNT0234"}}, {"geometry": {"type": "Point", "coordinates": [104.38333, 20.71667]}, "type": "Feature", "id": "8802", "properties": {"status": "Implementation", "sectors": ["Transport"], "title": "SECOND NORTHERN GMS SUBREGION TRANSPORT NETWORK IM", "approvalYear": "2010", "locationName": "Ban Sop Bau", "id": "46004-41444-022-GRNT0234"}}, {"geometry": {"type": "Point", "coordinates": [104.48583, 20.72417]}, "type": "Feature", "id": "8803", "properties": {"status": "Implementation", "sectors": ["Transport"], "title": "SECOND NORTHERN GMS SUBREGION TRANSPORT NETWORK IM", "approvalYear": "2010", "locationName": "Ban Pahang", "id": "46004-41444-022-GRNT0234"}}, {"geometry": {"type": "Point", "coordinates": [105.03145, 20.66296]}, "type": "Feature", "id": "8804", "properties": {"status": "Implementation", "sectors": ["Transport"], "title": "SECOND NORTHERN GMS SUBREGION TRANSPORT NETWORK IM", "approvalYear": "2010", "locationName": "Huy\u1ec7n Mai Ch\u00e2u", "id": "46004-41444-022-GRNT0234"}}, {"geometry": {"type": "Point", "coordinates": [104.22402, 20.40706]}, "type": "Feature", "id": "8805", "properties": {"status": "Implementation", "sectors": ["Transport"], "title": "SECOND NORTHERN GMS SUBREGION TRANSPORT NETWORK IM", "approvalYear": "2010", "locationName": "Viangxai", "id": "46004-41444-022-GRNT0234"}}, {"geometry": {"type": "Point", "coordinates": [104.16361, 20.46583]}, "type": "Feature", "id": "8806", "properties": {"status": "Implementation", "sectors": ["Transport"], "title": "SECOND NORTHERN GMS SUBREGION TRANSPORT NETWORK IM", "approvalYear": "2010", "locationName": "Ban Hanglong", "id": "46004-41444-022-GRNT0234"}}, {"geometry": {"type": "Point", "coordinates": [104.38, 20.66]}, "type": "Feature", "id": "8807", "properties": {"status": "Implementation", "sectors": ["Transport"], "title": "SECOND NORTHERN GMS SUBREGION TRANSPORT NETWORK IM", "approvalYear": "2010", "locationName": "Sopbao", "id": "46004-41444-022-GRNT0234"}}, {"geometry": {"type": "Point", "coordinates": [104.23, 20.4]}, "type": "Feature", "id": "8808", "properties": {"status": "Implementation", "sectors": ["Transport"], "title": "SECOND NORTHERN GMS SUBREGION TRANSPORT NETWORK IM", "approvalYear": "2010", "locationName": "Viangxai District", "id": "46004-41444-022-GRNT0234"}}, {"geometry": {"type": "Point", "coordinates": [105.04303, 20.67129]}, "type": "Feature", "id": "8809", "properties": {"status": "Implementation", "sectors": ["Transport"], "title": "SECOND NORTHERN GMS SUBREGION TRANSPORT NETWORK IM", "approvalYear": "2010", "locationName": "N\u00e0 M\u00e8o", "id": "46004-41444-022-GRNT0234"}}, {"geometry": {"type": "Point", "coordinates": [104.60814, 20.29946]}, "type": "Feature", "id": "8810", "properties": {"status": "Implementation", "sectors": ["Transport"], "title": "SECOND NORTHERN GMS SUBREGION TRANSPORT NETWORK IM", "approvalYear": "2010", "locationName": "Nam Soi", "id": "46004-41444-022-GRNT0234"}}, {"geometry": {"type": "Point", "coordinates": [102.33333, 21.75]}, "type": "Feature", "id": "8811", "properties": {"status": "Implementation", "sectors": ["Agriculture, natural resources and rural development"], "title": "NORTHERN RURAL INFRASTRUCTURE DEVELOPMENT SECTOR P", "approvalYear": "2010", "locationName": "Khoueng Phongsali", "id": "46004-42203-022-GRNT0235"}}, {"geometry": {"type": "Point", "coordinates": [101.5, 20.16667]}, "type": "Feature", "id": "8812", "properties": {"status": "Implementation", "sectors": ["Agriculture, natural resources and rural development"], "title": "NORTHERN RURAL INFRASTRUCTURE DEVELOPMENT SECTOR P", "approvalYear": "2010", "locationName": "Khoueng Oudomxai", "id": "46004-42203-022-GRNT0235"}}, {"geometry": {"type": "Point", "coordinates": [101.33333, 20.91667]}, "type": "Feature", "id": "8813", "properties": {"status": "Implementation", "sectors": ["Agriculture, natural resources and rural development"], "title": "NORTHERN RURAL INFRASTRUCTURE DEVELOPMENT SECTOR P", "approvalYear": "2010", "locationName": "Louangnamtha", "id": "46004-42203-022-GRNT0235"}}, {"geometry": {"type": "Point", "coordinates": [100.5, 20.5]}, "type": "Feature", "id": "8814", "properties": {"status": "Implementation", "sectors": ["Agriculture, natural resources and rural development"], "title": "NORTHERN RURAL INFRASTRUCTURE DEVELOPMENT SECTOR P", "approvalYear": "2010", "locationName": "Khoueng Bokeo", "id": "46004-42203-022-GRNT0235"}}, {"geometry": {"type": "Point", "coordinates": [103.49417, 11.79246]}, "type": "Feature", "id": "8815", "properties": {"status": "Implementation", "sectors": ["Agriculture, natural resources and rural development"], "title": "GMS BIODIVERSITY CONSERVATION CORRIDORS PROJECT -L", "approvalYear": "2011", "locationName": "Tatai Leu", "id": "46004-40253-023-GRNT0242"}}, {"geometry": {"type": "Point", "coordinates": [103.7, 10.98333]}, "type": "Feature", "id": "8816", "properties": {"status": "Implementation", "sectors": ["Agriculture, natural resources and rural development"], "title": "GMS BIODIVERSITY CONSERVATION CORRIDORS PROJECT -L", "approvalYear": "2011", "locationName": "Sr\u014fk Sr\u00ea \u00c2mb\u0115l", "id": "46004-40253-023-GRNT0242"}}, {"geometry": {"type": "Point", "coordinates": [103.48333, 11.18333]}, "type": "Feature", "id": "8817", "properties": {"status": "Implementation", "sectors": ["Agriculture, natural resources and rural development"], "title": "GMS BIODIVERSITY CONSERVATION CORRIDORS PROJECT -L", "approvalYear": "2011", "locationName": "Sala \u00c2ndong Tuk", "id": "46004-40253-023-GRNT0242"}}, {"geometry": {"type": "Point", "coordinates": [106.88065, 12.18703]}, "type": "Feature", "id": "8818", "properties": {"status": "Implementation", "sectors": ["Agriculture, natural resources and rural development"], "title": "GMS BIODIVERSITY CONSERVATION CORRIDORS PROJECT -L", "approvalYear": "2011", "locationName": "Phum\u012d Sr\u00ea Pre\u0103h", "id": "46004-40253-023-GRNT0242"}}, {"geometry": {"type": "Point", "coordinates": [106.47036, 12.5945]}, "type": "Feature", "id": "8819", "properties": {"status": "Implementation", "sectors": ["Agriculture, natural resources and rural development"], "title": "GMS BIODIVERSITY CONSERVATION CORRIDORS PROJECT -L", "approvalYear": "2011", "locationName": "Phum\u012d Sr\u00ea Kht\u016dm", "id": "46004-40253-023-GRNT0242"}}, {"geometry": {"type": "Point", "coordinates": [107.22152, 12.68775]}, "type": "Feature", "id": "8820", "properties": {"status": "Implementation", "sectors": ["Agriculture, natural resources and rural development"], "title": "GMS BIODIVERSITY CONSERVATION CORRIDORS PROJECT -L", "approvalYear": "2011", "locationName": "Phum\u012d Pu Chri", "id": "46004-40253-023-GRNT0242"}}, {"geometry": {"type": "Point", "coordinates": [102.98619, 11.52707]}, "type": "Feature", "id": "8821", "properties": {"status": "Implementation", "sectors": ["Agriculture, natural resources and rural development"], "title": "GMS BIODIVERSITY CONSERVATION CORRIDORS PROJECT -L", "approvalYear": "2011", "locationName": "Phum\u012d P\u00e9am Kr\u00e2sa\u00f4b", "id": "46004-40253-023-GRNT0242"}}, {"geometry": {"type": "Point", "coordinates": [107.34631, 12.34362]}, "type": "Feature", "id": "8822", "properties": {"status": "Implementation", "sectors": ["Agriculture, natural resources and rural development"], "title": "GMS BIODIVERSITY CONSERVATION CORRIDORS PROJECT -L", "approvalYear": "2011", "locationName": "Phum\u012d D\u0103k D\u0103m", "id": "46004-40253-023-GRNT0242"}}, {"geometry": {"type": "Point", "coordinates": [107.33295, 12.64096]}, "type": "Feature", "id": "8823", "properties": {"status": "Implementation", "sectors": ["Agriculture, natural resources and rural development"], "title": "GMS BIODIVERSITY CONSERVATION CORRIDORS PROJECT -L", "approvalYear": "2011", "locationName": "Kr\u00e2ng T\u00e9h", "id": "46004-40253-023-GRNT0242"}}, {"geometry": {"type": "Point", "coordinates": [107.0, 13.0]}, "type": "Feature", "id": "8824", "properties": {"status": "Implementation", "sectors": ["Agriculture, natural resources and rural development"], "title": "GMS BIODIVERSITY CONSERVATION CORRIDORS PROJECT -L", "approvalYear": "2011", "locationName": "Sr\u014fk Ka\u00f4h Nh\u00eak", "id": "46004-40253-023-GRNT0242"}}, {"geometry": {"type": "Point", "coordinates": [103.16667, 11.5]}, "type": "Feature", "id": "8825", "properties": {"status": "Implementation", "sectors": ["Agriculture, natural resources and rural development"], "title": "GMS BIODIVERSITY CONSERVATION CORRIDORS PROJECT -L", "approvalYear": "2011", "locationName": "Sr\u014fk Ka\u00f4h K\u014fng", "id": "46004-40253-023-GRNT0242"}}, {"geometry": {"type": "Point", "coordinates": [106.77025, 12.41722]}, "type": "Feature", "id": "8826", "properties": {"status": "Implementation", "sectors": ["Agriculture, natural resources and rural development"], "title": "GMS BIODIVERSITY CONSERVATION CORRIDORS PROJECT -L", "approvalYear": "2011", "locationName": "Sr\u014fk Kaev Seima", "id": "46004-40253-023-GRNT0242"}}, {"geometry": {"type": "Point", "coordinates": [107.0948, 12.7278]}, "type": "Feature", "id": "8827", "properties": {"status": "Implementation", "sectors": ["Agriculture, natural resources and rural development"], "title": "GMS BIODIVERSITY CONSERVATION CORRIDORS PROJECT -L", "approvalYear": "2011", "locationName": "Sr\u014fk Pech Chreada", "id": "46004-40253-023-GRNT0242"}}, {"geometry": {"type": "Point", "coordinates": [107.15525, 12.5048]}, "type": "Feature", "id": "8828", "properties": {"status": "Implementation", "sectors": ["Agriculture, natural resources and rural development"], "title": "GMS BIODIVERSITY CONSERVATION CORRIDORS PROJECT -L", "approvalYear": "2011", "locationName": "Kr\u014fng S\u00eanm\u00f4no\u016dr\u00f4m", "id": "46004-40253-023-GRNT0242"}}, {"geometry": {"type": "Point", "coordinates": [103.01159, 11.81292]}, "type": "Feature", "id": "8829", "properties": {"status": "Implementation", "sectors": ["Agriculture, natural resources and rural development"], "title": "GMS BIODIVERSITY CONSERVATION CORRIDORS PROJECT -L", "approvalYear": "2011", "locationName": "Sr\u014fk M\u00f4nd\u00f4l Seima", "id": "46004-40253-023-GRNT0242"}}, {"geometry": {"type": "Point", "coordinates": [103.26019, 11.3761]}, "type": "Feature", "id": "8830", "properties": {"status": "Implementation", "sectors": ["Agriculture, natural resources and rural development"], "title": "GMS BIODIVERSITY CONSERVATION CORRIDORS PROJECT -L", "approvalYear": "2011", "locationName": "Tr\u00e2pe\u0103ng Rung", "id": "46004-40253-023-GRNT0242"}}, {"geometry": {"type": "Point", "coordinates": [103.41667, 11.81667]}, "type": "Feature", "id": "8831", "properties": {"status": "Implementation", "sectors": ["Agriculture, natural resources and rural development"], "title": "GMS BIODIVERSITY CONSERVATION CORRIDORS PROJECT -L", "approvalYear": "2011", "locationName": "Sr\u014fk Thm\u00e2 Bang", "id": "46004-40253-023-GRNT0242"}}, {"geometry": {"type": "Point", "coordinates": [106.33757, 16.76113]}, "type": "Feature", "id": "8832", "properties": {"status": "Implementation", "sectors": ["Education"], "title": "SECONDARY EDUCATION SECTOR DEVELOPMENT PROGRAM", "approvalYear": "2011", "locationName": "Muang Xepon", "id": "46004-40368-022-GRNT0257"}}, {"geometry": {"type": "Point", "coordinates": [101.59536, 19.3229]}, "type": "Feature", "id": "8833", "properties": {"status": "Implementation", "sectors": ["Education"], "title": "SECONDARY EDUCATION SECTOR DEVELOPMENT PROGRAM", "approvalYear": "2011", "locationName": "Muang Xaignabouli", "id": "46004-40368-022-GRNT0257"}}, {"geometry": {"type": "Point", "coordinates": [106.50419, 16.38458]}, "type": "Feature", "id": "8834", "properties": {"status": "Implementation", "sectors": ["Education"], "title": "SECONDARY EDUCATION SECTOR DEVELOPMENT PROGRAM", "approvalYear": "2011", "locationName": "Muang Nong", "id": "46004-40368-022-GRNT0257"}}, {"geometry": {"type": "Point", "coordinates": [102.7515, 20.73393]}, "type": "Feature", "id": "8835", "properties": {"status": "Implementation", "sectors": ["Education"], "title": "SECONDARY EDUCATION SECTOR DEVELOPMENT PROGRAM", "approvalYear": "2011", "locationName": "Muang Ngoy", "id": "46004-40368-022-GRNT0257"}}, {"geometry": {"type": "Point", "coordinates": [101.72765, 20.89077]}, "type": "Feature", "id": "8836", "properties": {"status": "Implementation", "sectors": ["Education"], "title": "SECONDARY EDUCATION SECTOR DEVELOPMENT PROGRAM", "approvalYear": "2011", "locationName": "Muang Namo", "id": "46004-40368-022-GRNT0257"}}, {"geometry": {"type": "Point", "coordinates": [106.02338, 16.53296]}, "type": "Feature", "id": "8837", "properties": {"status": "Implementation", "sectors": ["Education"], "title": "SECONDARY EDUCATION SECTOR DEVELOPMENT PROGRAM", "approvalYear": "2011", "locationName": "Muang Phin", "id": "46004-40368-022-GRNT0257"}}, {"geometry": {"type": "Point", "coordinates": [104.73074, 18.22568]}, "type": "Feature", "id": "8838", "properties": {"status": "Implementation", "sectors": ["Education"], "title": "SECONDARY EDUCATION SECTOR DEVELOPMENT PROGRAM", "approvalYear": "2011", "locationName": "Muang Khamkeut", "id": "46004-40368-022-GRNT0257"}}, {"geometry": {"type": "Point", "coordinates": [103.84032, 20.06257]}, "type": "Feature", "id": "8839", "properties": {"status": "Implementation", "sectors": ["Education"], "title": "SECONDARY EDUCATION SECTOR DEVELOPMENT PROGRAM", "approvalYear": "2011", "locationName": "Muang Houamuang", "id": "46004-40368-022-GRNT0257"}}, {"geometry": {"type": "Point", "coordinates": [101.73128, 20.35359]}, "type": "Feature", "id": "8840", "properties": {"status": "Implementation", "sectors": ["Education"], "title": "SECONDARY EDUCATION SECTOR DEVELOPMENT PROGRAM", "approvalYear": "2011", "locationName": "Muang Beng", "id": "46004-40368-022-GRNT0257"}}, {"geometry": {"type": "Point", "coordinates": [107.31847, 15.38199]}, "type": "Feature", "id": "8841", "properties": {"status": "Implementation", "sectors": ["Education"], "title": "SECONDARY EDUCATION SECTOR DEVELOPMENT PROGRAM", "approvalYear": "2011", "locationName": "Muang Dakchung", "id": "46004-40368-022-GRNT0257"}}, {"geometry": {"type": "Point", "coordinates": [107.01088, 14.56821]}, "type": "Feature", "id": "8842", "properties": {"status": "Implementation", "sectors": ["Education"], "title": "SECONDARY EDUCATION SECTOR DEVELOPMENT PROGRAM", "approvalYear": "2011", "locationName": "Muang Phouvong", "id": "46004-40368-022-GRNT0257"}}, {"geometry": {"type": "Point", "coordinates": [107.23158, 15.02944]}, "type": "Feature", "id": "8843", "properties": {"status": "Implementation", "sectors": ["Education"], "title": "SECONDARY EDUCATION SECTOR DEVELOPMENT PROGRAM", "approvalYear": "2011", "locationName": "Muang Sanxai", "id": "46004-40368-022-GRNT0257"}}, {"geometry": {"type": "Point", "coordinates": [107.04529, 15.79886]}, "type": "Feature", "id": "8844", "properties": {"status": "Implementation", "sectors": ["Education"], "title": "SECONDARY EDUCATION SECTOR DEVELOPMENT PROGRAM", "approvalYear": "2011", "locationName": "Muang Khaleum", "id": "46004-40368-022-GRNT0257"}}, {"geometry": {"type": "Point", "coordinates": [106.8748, 16.35868]}, "type": "Feature", "id": "8845", "properties": {"status": "Implementation", "sectors": ["Education"], "title": "SECONDARY EDUCATION SECTOR DEVELOPMENT PROGRAM", "approvalYear": "2011", "locationName": "Muang Samouay", "id": "46004-40368-022-GRNT0257"}}, {"geometry": {"type": "Point", "coordinates": [105.93677, 16.94067]}, "type": "Feature", "id": "8846", "properties": {"status": "Implementation", "sectors": ["Education"], "title": "SECONDARY EDUCATION SECTOR DEVELOPMENT PROGRAM", "approvalYear": "2011", "locationName": "Muang Vilabouli", "id": "46004-40368-022-GRNT0257"}}, {"geometry": {"type": "Point", "coordinates": [105.94077, 17.30329]}, "type": "Feature", "id": "8847", "properties": {"status": "Implementation", "sectors": ["Education"], "title": "SECONDARY EDUCATION SECTOR DEVELOPMENT PROGRAM", "approvalYear": "2011", "locationName": "Muang Boualapha", "id": "46004-40368-022-GRNT0257"}}, {"geometry": {"type": "Point", "coordinates": [105.29146, 17.86886]}, "type": "Feature", "id": "8848", "properties": {"status": "Implementation", "sectors": ["Education"], "title": "SECONDARY EDUCATION SECTOR DEVELOPMENT PROGRAM", "approvalYear": "2011", "locationName": "Muang Na Kay", "id": "46004-40368-022-GRNT0257"}}, {"geometry": {"type": "Point", "coordinates": [103.50898, 19.27979]}, "type": "Feature", "id": "8849", "properties": {"status": "Implementation", "sectors": ["Education"], "title": "SECONDARY EDUCATION SECTOR DEVELOPMENT PROGRAM", "approvalYear": "2011", "locationName": "Muang Khoun", "id": "46004-40368-022-GRNT0257"}}, {"geometry": {"type": "Point", "coordinates": [104.54561, 19.93248]}, "type": "Feature", "id": "8850", "properties": {"status": "Implementation", "sectors": ["Education"], "title": "SECONDARY EDUCATION SECTOR DEVELOPMENT PROGRAM", "approvalYear": "2011", "locationName": "Muang Xam-Tai", "id": "46004-40368-022-GRNT0257"}}, {"geometry": {"type": "Point", "coordinates": [101.95155, 20.1739]}, "type": "Feature", "id": "8851", "properties": {"status": "Implementation", "sectors": ["Education"], "title": "SECONDARY EDUCATION SECTOR DEVELOPMENT PROGRAM", "approvalYear": "2011", "locationName": "Muang Nga", "id": "46004-40368-022-GRNT0257"}}, {"geometry": {"type": "Point", "coordinates": [100.926, 20.18744]}, "type": "Feature", "id": "8852", "properties": {"status": "Implementation", "sectors": ["Education"], "title": "SECONDARY EDUCATION SECTOR DEVELOPMENT PROGRAM", "approvalYear": "2011", "locationName": "Muang Pha Oudom", "id": "46004-40368-022-GRNT0257"}}, {"geometry": {"type": "Point", "coordinates": [100.52639, 20.67585]}, "type": "Feature", "id": "8853", "properties": {"status": "Implementation", "sectors": ["Education"], "title": "SECONDARY EDUCATION SECTOR DEVELOPMENT PROGRAM", "approvalYear": "2011", "locationName": "Muang Meung", "id": "46004-40368-022-GRNT0257"}}, {"geometry": {"type": "Point", "coordinates": [101.41667, 20.5]}, "type": "Feature", "id": "8854", "properties": {"status": "Implementation", "sectors": ["Education"], "title": "SECONDARY EDUCATION SECTOR DEVELOPMENT PROGRAM", "approvalYear": "2011", "locationName": "Muang Nale", "id": "46004-40368-022-GRNT0257"}}, {"geometry": {"type": "Point", "coordinates": [101.0784, 20.63194]}, "type": "Feature", "id": "8855", "properties": {"status": "Implementation", "sectors": ["Education"], "title": "SECONDARY EDUCATION SECTOR DEVELOPMENT PROGRAM", "approvalYear": "2011", "locationName": "Muang Viangphoukha", "id": "46004-40368-022-GRNT0257"}}, {"geometry": {"type": "Point", "coordinates": [100.83104, 20.98503]}, "type": "Feature", "id": "8856", "properties": {"status": "Implementation", "sectors": ["Education"], "title": "SECONDARY EDUCATION SECTOR DEVELOPMENT PROGRAM", "approvalYear": "2011", "locationName": "Muang Long", "id": "46004-40368-022-GRNT0257"}}, {"geometry": {"type": "Point", "coordinates": [101.874, 22.19586]}, "type": "Feature", "id": "8857", "properties": {"status": "Implementation", "sectors": ["Education"], "title": "SECONDARY EDUCATION SECTOR DEVELOPMENT PROGRAM", "approvalYear": "2011", "locationName": "Muang Gnot-Ou", "id": "46004-40368-022-GRNT0257"}}, {"geometry": {"type": "Point", "coordinates": [102.18523, 18.26282]}, "type": "Feature", "id": "8858", "properties": {"status": "Implementation", "sectors": ["Education"], "title": "SECONDARY EDUCATION SECTOR DEVELOPMENT PROGRAM", "approvalYear": "2011", "locationName": "Muang Sangthong", "id": "46004-40368-022-GRNT0257"}}, {"geometry": {"type": "Point", "coordinates": [102.41, 21.57]}, "type": "Feature", "id": "8859", "properties": {"status": "Implementation", "sectors": ["Education"], "title": "SECONDARY EDUCATION SECTOR DEVELOPMENT PROGRAM", "approvalYear": "2011", "locationName": "Samphanh", "id": "46004-40368-022-GRNT0257"}}, {"geometry": {"type": "Point", "coordinates": [104.34265, 20.34447]}, "type": "Feature", "id": "8860", "properties": {"status": "Implementation", "sectors": ["Education"], "title": "SECONDARY EDUCATION SECTOR DEVELOPMENT PROGRAM", "approvalYear": "2011", "locationName": "Muang Viengxay", "id": "46004-40368-022-GRNT0257"}}, {"geometry": {"type": "Point", "coordinates": [106.33757, 16.76113]}, "type": "Feature", "id": "8861", "properties": {"status": "Implementation", "sectors": ["Education"], "title": "SECONDARY EDUCATION SECTOR DEVELOPMENT PROGRAM", "approvalYear": "2011", "locationName": "Muang Xepon", "id": "46004-40368-022-LN2777"}}, {"geometry": {"type": "Point", "coordinates": [101.59536, 19.3229]}, "type": "Feature", "id": "8862", "properties": {"status": "Implementation", "sectors": ["Education"], "title": "SECONDARY EDUCATION SECTOR DEVELOPMENT PROGRAM", "approvalYear": "2011", "locationName": "Muang Xaignabouli", "id": "46004-40368-022-LN2777"}}, {"geometry": {"type": "Point", "coordinates": [106.50419, 16.38458]}, "type": "Feature", "id": "8863", "properties": {"status": "Implementation", "sectors": ["Education"], "title": "SECONDARY EDUCATION SECTOR DEVELOPMENT PROGRAM", "approvalYear": "2011", "locationName": "Muang Nong", "id": "46004-40368-022-LN2777"}}, {"geometry": {"type": "Point", "coordinates": [102.7515, 20.73393]}, "type": "Feature", "id": "8864", "properties": {"status": "Implementation", "sectors": ["Education"], "title": "SECONDARY EDUCATION SECTOR DEVELOPMENT PROGRAM", "approvalYear": "2011", "locationName": "Muang Ngoy", "id": "46004-40368-022-LN2777"}}, {"geometry": {"type": "Point", "coordinates": [101.72765, 20.89077]}, "type": "Feature", "id": "8865", "properties": {"status": "Implementation", "sectors": ["Education"], "title": "SECONDARY EDUCATION SECTOR DEVELOPMENT PROGRAM", "approvalYear": "2011", "locationName": "Muang Namo", "id": "46004-40368-022-LN2777"}}, {"geometry": {"type": "Point", "coordinates": [106.02338, 16.53296]}, "type": "Feature", "id": "8866", "properties": {"status": "Implementation", "sectors": ["Education"], "title": "SECONDARY EDUCATION SECTOR DEVELOPMENT PROGRAM", "approvalYear": "2011", "locationName": "Muang Phin", "id": "46004-40368-022-LN2777"}}, {"geometry": {"type": "Point", "coordinates": [104.73074, 18.22568]}, "type": "Feature", "id": "8867", "properties": {"status": "Implementation", "sectors": ["Education"], "title": "SECONDARY EDUCATION SECTOR DEVELOPMENT PROGRAM", "approvalYear": "2011", "locationName": "Muang Khamkeut", "id": "46004-40368-022-LN2777"}}, {"geometry": {"type": "Point", "coordinates": [103.84032, 20.06257]}, "type": "Feature", "id": "8868", "properties": {"status": "Implementation", "sectors": ["Education"], "title": "SECONDARY EDUCATION SECTOR DEVELOPMENT PROGRAM", "approvalYear": "2011", "locationName": "Muang Houamuang", "id": "46004-40368-022-LN2777"}}, {"geometry": {"type": "Point", "coordinates": [101.73128, 20.35359]}, "type": "Feature", "id": "8869", "properties": {"status": "Implementation", "sectors": ["Education"], "title": "SECONDARY EDUCATION SECTOR DEVELOPMENT PROGRAM", "approvalYear": "2011", "locationName": "Muang Beng", "id": "46004-40368-022-LN2777"}}, {"geometry": {"type": "Point", "coordinates": [107.31847, 15.38199]}, "type": "Feature", "id": "8870", "properties": {"status": "Implementation", "sectors": ["Education"], "title": "SECONDARY EDUCATION SECTOR DEVELOPMENT PROGRAM", "approvalYear": "2011", "locationName": "Muang Dakchung", "id": "46004-40368-022-LN2777"}}, {"geometry": {"type": "Point", "coordinates": [107.01088, 14.56821]}, "type": "Feature", "id": "8871", "properties": {"status": "Implementation", "sectors": ["Education"], "title": "SECONDARY EDUCATION SECTOR DEVELOPMENT PROGRAM", "approvalYear": "2011", "locationName": "Muang Phouvong", "id": "46004-40368-022-LN2777"}}, {"geometry": {"type": "Point", "coordinates": [107.23158, 15.02944]}, "type": "Feature", "id": "8872", "properties": {"status": "Implementation", "sectors": ["Education"], "title": "SECONDARY EDUCATION SECTOR DEVELOPMENT PROGRAM", "approvalYear": "2011", "locationName": "Muang Sanxai", "id": "46004-40368-022-LN2777"}}, {"geometry": {"type": "Point", "coordinates": [107.04529, 15.79886]}, "type": "Feature", "id": "8873", "properties": {"status": "Implementation", "sectors": ["Education"], "title": "SECONDARY EDUCATION SECTOR DEVELOPMENT PROGRAM", "approvalYear": "2011", "locationName": "Muang Khaleum", "id": "46004-40368-022-LN2777"}}, {"geometry": {"type": "Point", "coordinates": [106.8748, 16.35868]}, "type": "Feature", "id": "8874", "properties": {"status": "Implementation", "sectors": ["Education"], "title": "SECONDARY EDUCATION SECTOR DEVELOPMENT PROGRAM", "approvalYear": "2011", "locationName": "Muang Samouay", "id": "46004-40368-022-LN2777"}}, {"geometry": {"type": "Point", "coordinates": [105.93677, 16.94067]}, "type": "Feature", "id": "8875", "properties": {"status": "Implementation", "sectors": ["Education"], "title": "SECONDARY EDUCATION SECTOR DEVELOPMENT PROGRAM", "approvalYear": "2011", "locationName": "Muang Vilabouli", "id": "46004-40368-022-LN2777"}}, {"geometry": {"type": "Point", "coordinates": [105.94077, 17.30329]}, "type": "Feature", "id": "8876", "properties": {"status": "Implementation", "sectors": ["Education"], "title": "SECONDARY EDUCATION SECTOR DEVELOPMENT PROGRAM", "approvalYear": "2011", "locationName": "Muang Boualapha", "id": "46004-40368-022-LN2777"}}, {"geometry": {"type": "Point", "coordinates": [105.29146, 17.86886]}, "type": "Feature", "id": "8877", "properties": {"status": "Implementation", "sectors": ["Education"], "title": "SECONDARY EDUCATION SECTOR DEVELOPMENT PROGRAM", "approvalYear": "2011", "locationName": "Muang Na Kay", "id": "46004-40368-022-LN2777"}}, {"geometry": {"type": "Point", "coordinates": [103.50898, 19.27979]}, "type": "Feature", "id": "8878", "properties": {"status": "Implementation", "sectors": ["Education"], "title": "SECONDARY EDUCATION SECTOR DEVELOPMENT PROGRAM", "approvalYear": "2011", "locationName": "Muang Khoun", "id": "46004-40368-022-LN2777"}}, {"geometry": {"type": "Point", "coordinates": [104.54561, 19.93248]}, "type": "Feature", "id": "8879", "properties": {"status": "Implementation", "sectors": ["Education"], "title": "SECONDARY EDUCATION SECTOR DEVELOPMENT PROGRAM", "approvalYear": "2011", "locationName": "Muang Xam-Tai", "id": "46004-40368-022-LN2777"}}, {"geometry": {"type": "Point", "coordinates": [101.95155, 20.1739]}, "type": "Feature", "id": "8880", "properties": {"status": "Implementation", "sectors": ["Education"], "title": "SECONDARY EDUCATION SECTOR DEVELOPMENT PROGRAM", "approvalYear": "2011", "locationName": "Muang Nga", "id": "46004-40368-022-LN2777"}}, {"geometry": {"type": "Point", "coordinates": [100.926, 20.18744]}, "type": "Feature", "id": "8881", "properties": {"status": "Implementation", "sectors": ["Education"], "title": "SECONDARY EDUCATION SECTOR DEVELOPMENT PROGRAM", "approvalYear": "2011", "locationName": "Muang Pha Oudom", "id": "46004-40368-022-LN2777"}}, {"geometry": {"type": "Point", "coordinates": [100.52639, 20.67585]}, "type": "Feature", "id": "8882", "properties": {"status": "Implementation", "sectors": ["Education"], "title": "SECONDARY EDUCATION SECTOR DEVELOPMENT PROGRAM", "approvalYear": "2011", "locationName": "Muang Meung", "id": "46004-40368-022-LN2777"}}, {"geometry": {"type": "Point", "coordinates": [101.41667, 20.5]}, "type": "Feature", "id": "8883", "properties": {"status": "Implementation", "sectors": ["Education"], "title": "SECONDARY EDUCATION SECTOR DEVELOPMENT PROGRAM", "approvalYear": "2011", "locationName": "Muang Nale", "id": "46004-40368-022-LN2777"}}, {"geometry": {"type": "Point", "coordinates": [101.0784, 20.63194]}, "type": "Feature", "id": "8884", "properties": {"status": "Implementation", "sectors": ["Education"], "title": "SECONDARY EDUCATION SECTOR DEVELOPMENT PROGRAM", "approvalYear": "2011", "locationName": "Muang Viangphoukha", "id": "46004-40368-022-LN2777"}}, {"geometry": {"type": "Point", "coordinates": [100.83104, 20.98503]}, "type": "Feature", "id": "8885", "properties": {"status": "Implementation", "sectors": ["Education"], "title": "SECONDARY EDUCATION SECTOR DEVELOPMENT PROGRAM", "approvalYear": "2011", "locationName": "Muang Long", "id": "46004-40368-022-LN2777"}}, {"geometry": {"type": "Point", "coordinates": [101.874, 22.19586]}, "type": "Feature", "id": "8886", "properties": {"status": "Implementation", "sectors": ["Education"], "title": "SECONDARY EDUCATION SECTOR DEVELOPMENT PROGRAM", "approvalYear": "2011", "locationName": "Muang Gnot-Ou", "id": "46004-40368-022-LN2777"}}, {"geometry": {"type": "Point", "coordinates": [102.18523, 18.26282]}, "type": "Feature", "id": "8887", "properties": {"status": "Implementation", "sectors": ["Education"], "title": "SECONDARY EDUCATION SECTOR DEVELOPMENT PROGRAM", "approvalYear": "2011", "locationName": "Muang Sangthong", "id": "46004-40368-022-LN2777"}}, {"geometry": {"type": "Point", "coordinates": [102.41, 21.57]}, "type": "Feature", "id": "8888", "properties": {"status": "Implementation", "sectors": ["Education"], "title": "SECONDARY EDUCATION SECTOR DEVELOPMENT PROGRAM", "approvalYear": "2011", "locationName": "Samphanh", "id": "46004-40368-022-LN2777"}}, {"geometry": {"type": "Point", "coordinates": [104.34265, 20.34447]}, "type": "Feature", "id": "8889", "properties": {"status": "Implementation", "sectors": ["Education"], "title": "SECONDARY EDUCATION SECTOR DEVELOPMENT PROGRAM", "approvalYear": "2011", "locationName": "Muang Viengxay", "id": "46004-40368-022-LN2777"}}, {"geometry": {"type": "Point", "coordinates": [102.45908, 18.91292]}, "type": "Feature", "id": "8890", "properties": {"status": "Implementation", "sectors": ["Agriculture, natural resources and rural development"], "title": "NAM NGUM RIVER BASIN DEV'L SECTOR-ADDITIONAL FINANCING", "approvalYear": "2011", "locationName": "Muang Vangviang", "id": "46004-33356-014-LN2780"}}, {"geometry": {"type": "Point", "coordinates": [102.69641, 18.36766]}, "type": "Feature", "id": "8891", "properties": {"status": "Implementation", "sectors": ["Agriculture, natural resources and rural development"], "title": "NAM NGUM RIVER BASIN DEV'L SECTOR-ADDITIONAL FINANCING", "approvalYear": "2011", "locationName": "Muang Thoulakh\u00f4m", "id": "46004-33356-014-LN2780"}}, {"geometry": {"type": "Point", "coordinates": [102.38488, 18.41242]}, "type": "Feature", "id": "8892", "properties": {"status": "Implementation", "sectors": ["Agriculture, natural resources and rural development"], "title": "NAM NGUM RIVER BASIN DEV'L SECTOR-ADDITIONAL FINANCING", "approvalYear": "2011", "locationName": "Muang Ph\u00f4n-H\u00f4ng", "id": "46004-33356-014-LN2780"}}, {"geometry": {"type": "Point", "coordinates": [103.27385, 19.51372]}, "type": "Feature", "id": "8893", "properties": {"status": "Implementation", "sectors": ["Agriculture, natural resources and rural development"], "title": "NAM NGUM RIVER BASIN DEV'L SECTOR-ADDITIONAL FINANCING", "approvalYear": "2011", "locationName": "Muang P\u00e8k", "id": "46004-33356-014-LN2780"}}, {"geometry": {"type": "Point", "coordinates": [102.1743, 19.14207]}, "type": "Feature", "id": "8894", "properties": {"status": "Implementation", "sectors": ["Agriculture, natural resources and rural development"], "title": "NAM NGUM RIVER BASIN DEV'L SECTOR-ADDITIONAL FINANCING", "approvalYear": "2011", "locationName": "Muang Kasi", "id": "46004-33356-014-LN2780"}}, {"geometry": {"type": "Point", "coordinates": [102.56856, 18.56926]}, "type": "Feature", "id": "8895", "properties": {"status": "Implementation", "sectors": ["Agriculture, natural resources and rural development"], "title": "NAM NGUM RIVER BASIN DEV'L SECTOR-ADDITIONAL FINANCING", "approvalYear": "2011", "locationName": "Muang K\u00e8o-Oud\u00f4m", "id": "46004-33356-014-LN2780"}}, {"geometry": {"type": "Point", "coordinates": [103.29486, 18.69246]}, "type": "Feature", "id": "8896", "properties": {"status": "Implementation", "sectors": ["Agriculture, natural resources and rural development"], "title": "NAM NGUM RIVER BASIN DEV'L SECTOR-ADDITIONAL FINANCING", "approvalYear": "2011", "locationName": "Muang H\u00f4m", "id": "46004-33356-014-LN2780"}}, {"geometry": {"type": "Point", "coordinates": [103.06752, 18.95489]}, "type": "Feature", "id": "8897", "properties": {"status": "Implementation", "sectors": ["Agriculture, natural resources and rural development"], "title": "NAM NGUM RIVER BASIN DEV'L SECTOR-ADDITIONAL FINANCING", "approvalYear": "2011", "locationName": "Muang Xais\u00f4mboun", "id": "46004-33356-014-LN2780"}}, {"geometry": {"type": "Point", "coordinates": [102.07889, 18.62355]}, "type": "Feature", "id": "8898", "properties": {"status": "Implementation", "sectors": ["Agriculture, natural resources and rural development"], "title": "NAM NGUM RIVER BASIN DEV'L SECTOR-ADDITIONAL FINANCING", "approvalYear": "2011", "locationName": "Muang Fuang", "id": "46004-33356-014-LN2780"}}, {"geometry": {"type": "Point", "coordinates": [102.59606, 19.50724]}, "type": "Feature", "id": "8899", "properties": {"status": "Implementation", "sectors": ["Agriculture, natural resources and rural development"], "title": "NAM NGUM RIVER BASIN DEV'L SECTOR-ADDITIONAL FINANCING", "approvalYear": "2011", "locationName": "Muang Phou Khoun", "id": "46004-33356-014-LN2780"}}, {"geometry": {"type": "Point", "coordinates": [103.04112, 20.49112]}, "type": "Feature", "id": "8900", "properties": {"status": "Implementation", "sectors": ["Agriculture, natural resources and rural development"], "title": "NAM NGUM RIVER BASIN DEV'L SECTOR-ADDITIONAL FINANCING", "approvalYear": "2011", "locationName": "Muang Viangkhan", "id": "46004-33356-014-LN2780"}}, {"geometry": {"type": "Point", "coordinates": [103.09067, 19.25808]}, "type": "Feature", "id": "8901", "properties": {"status": "Implementation", "sectors": ["Agriculture, natural resources and rural development"], "title": "NAM NGUM RIVER BASIN DEV'L SECTOR-ADDITIONAL FINANCING", "approvalYear": "2011", "locationName": "Muang Phaxai", "id": "46004-33356-014-LN2780"}}, {"geometry": {"type": "Point", "coordinates": [103.01856, 19.62585]}, "type": "Feature", "id": "8902", "properties": {"status": "Implementation", "sectors": ["Agriculture, natural resources and rural development"], "title": "NAM NGUM RIVER BASIN DEV'L SECTOR-ADDITIONAL FINANCING", "approvalYear": "2011", "locationName": "Muang Phou Kont", "id": "46004-33356-014-LN2780"}}, {"geometry": {"type": "Point", "coordinates": [102.72375, 18.14132]}, "type": "Feature", "id": "8903", "properties": {"status": "Implementation", "sectors": ["Agriculture, natural resources and rural development"], "title": "NAM NGUM RIVER BASIN DEV'L SECTOR-ADDITIONAL FINANCING", "approvalYear": "2011", "locationName": "Muang Xaithani", "id": "46004-33356-014-LN2780"}}, {"geometry": {"type": "Point", "coordinates": [102.93772, 18.13972]}, "type": "Feature", "id": "8904", "properties": {"status": "Implementation", "sectors": ["Agriculture, natural resources and rural development"], "title": "NAM NGUM RIVER BASIN DEV'L SECTOR-ADDITIONAL FINANCING", "approvalYear": "2011", "locationName": "Muang Maypakngum", "id": "46004-33356-014-LN2780"}}, {"geometry": {"type": "Point", "coordinates": [102.41667, 18.75]}, "type": "Feature", "id": "8905", "properties": {"status": "Implementation", "sectors": ["Agriculture, natural resources and rural development"], "title": "SMALLHOLDER DEVELOPMENT PROJECT-ADDITIONAL FINANCING", "approvalYear": "2012", "locationName": "Vientiane", "id": "46004-31351-014-LN2809"}}, {"geometry": {"type": "Point", "coordinates": [105.75, 16.5]}, "type": "Feature", "id": "8906", "properties": {"status": "Implementation", "sectors": ["Agriculture, natural resources and rural development"], "title": "SMALLHOLDER DEVELOPMENT PROJECT-ADDITIONAL FINANCING", "approvalYear": "2012", "locationName": "Khou\u00e8ng Savannakh\u00e9t", "id": "46004-31351-014-LN2809"}}, {"geometry": {"type": "Point", "coordinates": [105.31497, 17.36318]}, "type": "Feature", "id": "8907", "properties": {"status": "Implementation", "sectors": ["Agriculture, natural resources and rural development"], "title": "SMALLHOLDER DEVELOPMENT PROJECT-ADDITIONAL FINANCING", "approvalYear": "2012", "locationName": "Muang Mahaxai", "id": "46004-31351-014-LN2809"}}, {"geometry": {"type": "Point", "coordinates": [105.95938, 14.14696]}, "type": "Feature", "id": "8908", "properties": {"status": "Implementation", "sectors": ["Agriculture, natural resources and rural development"], "title": "SMALLHOLDER DEVELOPMENT PROJECT-ADDITIONAL FINANCING", "approvalYear": "2012", "locationName": "Muang Kh\u00f4ng", "id": "46004-31351-014-LN2809"}}, {"geometry": {"type": "Point", "coordinates": [105.33333, 17.5]}, "type": "Feature", "id": "8909", "properties": {"status": "Implementation", "sectors": ["Agriculture, natural resources and rural development"], "title": "SMALLHOLDER DEVELOPMENT PROJECT-ADDITIONAL FINANCING", "approvalYear": "2012", "locationName": "Khammouan", "id": "46004-31351-014-LN2809"}}, {"geometry": {"type": "Point", "coordinates": [102.1743, 19.14207]}, "type": "Feature", "id": "8910", "properties": {"status": "Implementation", "sectors": ["Agriculture, natural resources and rural development"], "title": "SMALLHOLDER DEVELOPMENT PROJECT-ADDITIONAL FINANCING", "approvalYear": "2012", "locationName": "Muang Kasi", "id": "46004-31351-014-LN2809"}}, {"geometry": {"type": "Point", "coordinates": [106.0, 14.75]}, "type": "Feature", "id": "8911", "properties": {"status": "Implementation", "sectors": ["Agriculture, natural resources and rural development"], "title": "SMALLHOLDER DEVELOPMENT PROJECT-ADDITIONAL FINANCING", "approvalYear": "2012", "locationName": "Champasak", "id": "46004-31351-014-LN2809"}}, {"geometry": {"type": "Point", "coordinates": [105.73703, 15.34107]}, "type": "Feature", "id": "8912", "properties": {"status": "Implementation", "sectors": ["Agriculture, natural resources and rural development"], "title": "SMALLHOLDER DEVELOPMENT PROJECT-ADDITIONAL FINANCING", "approvalYear": "2012", "locationName": "Muang Xanas\u00f4mboun", "id": "46004-31351-014-LN2809"}}, {"geometry": {"type": "Point", "coordinates": [105.39326, 16.72645]}, "type": "Feature", "id": "8913", "properties": {"status": "Implementation", "sectors": ["Agriculture, natural resources and rural development"], "title": "SMALLHOLDER DEVELOPMENT PROJECT-ADDITIONAL FINANCING", "approvalYear": "2012", "locationName": "Muang Alsaphangthong", "id": "46004-31351-014-LN2809"}}, {"geometry": {"type": "Point", "coordinates": [105.1259, 17.1762]}, "type": "Feature", "id": "8914", "properties": {"status": "Implementation", "sectors": ["Agriculture, natural resources and rural development"], "title": "SMALLHOLDER DEVELOPMENT PROJECT-ADDITIONAL FINANCING", "approvalYear": "2012", "locationName": "Muang Xebangfai", "id": "46004-31351-014-LN2809"}}, {"geometry": {"type": "Point", "coordinates": [101.7, 17.91667]}, "type": "Feature", "id": "8915", "properties": {"status": "Implementation", "sectors": ["Agriculture, natural resources and rural development"], "title": "SMALLHOLDER DEVELOPMENT PROJECT-ADDITIONAL FINANCING", "approvalYear": "2012", "locationName": "Muang Xanakham", "id": "46004-31351-014-LN2809"}}, {"geometry": {"type": "Point", "coordinates": [105.6, 16.7]}, "type": "Feature", "id": "8916", "properties": {"status": "Implementation", "sectors": ["Agriculture, natural resources and rural development"], "title": "SMALLHOLDER DEVELOPMENT PROJECT-ADDITIONAL FINANCING", "approvalYear": "2012", "locationName": "Thaphalanxay", "id": "46004-31351-014-LN2809"}},