{"features": [{"geometry": {"type": "Point", "coordinates": [105.81667, 21.21667]}, "type": "Feature", "id": "642", "properties": {"status": "Completion", "sectors": ["Transport"], "title": "GMS KUNMING-HAIPHONG TRANSPORT CORRIDOR PROJECT-NOI BAI-LAO CAI", "approvalYear": "2006", "locationName": "N\u1ed9i B\u00e0i", "id": "46004-33307-023-LN2222"}}, {"geometry": {"type": "Point", "coordinates": [103.97066, 22.48556]}, "type": "Feature", "id": "643", "properties": {"status": "Completion", "sectors": ["Transport"], "title": "GMS KUNMING-HAIPHONG TRANSPORT CORRIDOR PROJECT-NOI BAI-LAO CAI", "approvalYear": "2006", "locationName": "L\u00e0o Cai", "id": "46004-33307-023-LN2222"}}, {"geometry": {"type": "Point", "coordinates": [103.99502, 22.41944]}, "type": "Feature", "id": "644", "properties": {"status": "Completion", "sectors": ["Transport"], "title": "GMS KUNMING-HAIPHONG TRANSPORT CORRIDOR PROJECT-NOI BAI-LAO CAI", "approvalYear": "2006", "locationName": "Th\u00e0nh Ph\u1ed1 L\u00e0o Cai", "id": "46004-33307-023-LN2222"}}, {"geometry": {"type": "Point", "coordinates": [105.82976, 21.27098]}, "type": "Feature", "id": "645", "properties": {"status": "Completion", "sectors": ["Transport"], "title": "GMS KUNMING-HAIPHONG TRANSPORT CORRIDOR PROJECT-NOI BAI-LAO CAI", "approvalYear": "2006", "locationName": "Huy\u1ec7n S\u00f3c S\u01a1n", "id": "46004-33307-023-LN2222"}}, {"geometry": {"type": "Point", "coordinates": [109.0, 14.16667]}, "type": "Feature", "id": "646", "properties": {"status": "Completion", "sectors": ["Agriculture, natural resources and rural development"], "title": "CENTRAL REGION WATER RESOURCES PROJECT", "approvalYear": "2006", "locationName": "Tinh Binh Dinh", "id": "46004-30292-023-LN2223"}}, {"geometry": {"type": "Point", "coordinates": [106.33333, 17.5]}, "type": "Feature", "id": "647", "properties": {"status": "Completion", "sectors": ["Agriculture, natural resources and rural development"], "title": "CENTRAL REGION WATER RESOURCES PROJECT", "approvalYear": "2006", "locationName": "Tinh Quang Binh", "id": "46004-30292-023-LN2223"}}, {"geometry": {"type": "Point", "coordinates": [108.66667, 15.0]}, "type": "Feature", "id": "648", "properties": {"status": "Completion", "sectors": ["Agriculture, natural resources and rural development"], "title": "CENTRAL REGION WATER RESOURCES PROJECT", "approvalYear": "2006", "locationName": "Tinh Quang Ngai", "id": "46004-30292-023-LN2223"}}, {"geometry": {"type": "Point", "coordinates": [107.0, 16.75]}, "type": "Feature", "id": "649", "properties": {"status": "Completion", "sectors": ["Agriculture, natural resources and rural development"], "title": "CENTRAL REGION WATER RESOURCES PROJECT", "approvalYear": "2006", "locationName": "Tinh Quang Tri", "id": "46004-30292-023-LN2223"}}, {"geometry": {"type": "Point", "coordinates": [105.33333, 20.06667]}, "type": "Feature", "id": "650", "properties": {"status": "Completion", "sectors": ["Agriculture, natural resources and rural development"], "title": "CENTRAL REGION WATER RESOURCES PROJECT", "approvalYear": "2006", "locationName": "Tinh Thanh Hoa", "id": "46004-30292-023-LN2223"}}, {"geometry": {"type": "Point", "coordinates": [107.58333, 16.33333]}, "type": "Feature", "id": "651", "properties": {"status": "Completion", "sectors": ["Agriculture, natural resources and rural development"], "title": "CENTRAL REGION WATER RESOURCES PROJECT", "approvalYear": "2006", "locationName": "Tinh Thua Thien-Hue", "id": "46004-30292-023-LN2223"}}, {"geometry": {"type": "Point", "coordinates": [107.91667, 14.75]}, "type": "Feature", "id": "652", "properties": {"status": "Implementation", "sectors": ["Agriculture, natural resources and rural development"], "title": "FORESTS FOR LIVELIHOOD IMPRVMNT IN THE CNTRAL HGHLANDSSECTOR PROJ", "approvalYear": "2006", "locationName": "Kon Tum", "id": "46004-34341-013-LN2269"}}, {"geometry": {"type": "Point", "coordinates": [109.08333, 13.16667]}, "type": "Feature", "id": "653", "properties": {"status": "Implementation", "sectors": ["Agriculture, natural resources and rural development"], "title": "FORESTS FOR LIVELIHOOD IMPRVMNT IN THE CNTRAL HGHLANDSSECTOR PROJ", "approvalYear": "2006", "locationName": "T\u1ec9nh Ph\u00fa Y\u00ean", "id": "46004-34341-013-LN2269"}}, {"geometry": {"type": "Point", "coordinates": [108.08333, 11.66667]}, "type": "Feature", "id": "654", "properties": {"status": "Implementation", "sectors": ["Agriculture, natural resources and rural development"], "title": "FORESTS FOR LIVELIHOOD IMPRVMNT IN THE CNTRAL HGHLANDSSECTOR PROJ", "approvalYear": "2006", "locationName": "T\u1ec9nh L\u00e2m \u0110\u1ed3ng", "id": "46004-34341-013-LN2269"}}, {"geometry": {"type": "Point", "coordinates": [108.25, 13.75]}, "type": "Feature", "id": "655", "properties": {"status": "Implementation", "sectors": ["Agriculture, natural resources and rural development"], "title": "FORESTS FOR LIVELIHOOD IMPRVMNT IN THE CNTRAL HGHLANDSSECTOR PROJ", "approvalYear": "2006", "locationName": "Gia Lai", "id": "46004-34341-013-LN2269"}}, {"geometry": {"type": "Point", "coordinates": [108.25, 12.75]}, "type": "Feature", "id": "656", "properties": {"status": "Implementation", "sectors": ["Agriculture, natural resources and rural development"], "title": "FORESTS FOR LIVELIHOOD IMPRVMNT IN THE CNTRAL HGHLANDSSECTOR PROJ", "approvalYear": "2006", "locationName": "T\u1ec9nh \u0110\u1eafk L\u1eafk", "id": "46004-34341-013-LN2269"}}, {"geometry": {"type": "Point", "coordinates": [107.75, 12.16667]}, "type": "Feature", "id": "657", "properties": {"status": "Implementation", "sectors": ["Agriculture, natural resources and rural development"], "title": "FORESTS FOR LIVELIHOOD IMPRVMNT IN THE CNTRAL HGHLANDSSECTOR PROJ", "approvalYear": "2006", "locationName": "\u00d0\u1eafk N\u00f4ng", "id": "46004-34341-013-LN2269"}}, {"geometry": {"type": "Point", "coordinates": [109.32094, 13.09546]}, "type": "Feature", "id": "658", "properties": {"status": "Implementation", "sectors": ["Water supply and other urban infrastructure and services"], "title": "CENTRAL REGION SMALL AND MEDIUM TOWNS DEVELOPMENT PROJECT", "approvalYear": "2007", "locationName": "Tuy Hoa", "id": "46004-30286-013-LN2272"}}, {"geometry": {"type": "Point", "coordinates": [109.22348, 13.4556]}, "type": "Feature", "id": "659", "properties": {"status": "Implementation", "sectors": ["Water supply and other urban infrastructure and services"], "title": "CENTRAL REGION SMALL AND MEDIUM TOWNS DEVELOPMENT PROJECT", "approvalYear": "2007", "locationName": "Song Cau", "id": "46004-30286-013-LN2272"}}, {"geometry": {"type": "Point", "coordinates": [108.1, 10.93333]}, "type": "Feature", "id": "660", "properties": {"status": "Implementation", "sectors": ["Water supply and other urban infrastructure and services"], "title": "CENTRAL REGION SMALL AND MEDIUM TOWNS DEVELOPMENT PROJECT", "approvalYear": "2007", "locationName": "Phan Thi\u1ebft", "id": "46004-30286-013-LN2272"}}, {"geometry": {"type": "Point", "coordinates": [108.98858, 11.56432]}, "type": "Feature", "id": "661", "properties": {"status": "Implementation", "sectors": ["Water supply and other urban infrastructure and services"], "title": "CENTRAL REGION SMALL AND MEDIUM TOWNS DEVELOPMENT PROJECT", "approvalYear": "2007", "locationName": "Phan Rang", "id": "46004-30286-013-LN2272"}}, {"geometry": {"type": "Point", "coordinates": [109.12496, 12.49187]}, "type": "Feature", "id": "662", "properties": {"status": "Implementation", "sectors": ["Water supply and other urban infrastructure and services"], "title": "CENTRAL REGION SMALL AND MEDIUM TOWNS DEVELOPMENT PROJECT", "approvalYear": "2007", "locationName": "Ninh H\u00f2a", "id": "46004-30286-013-LN2272"}}, {"geometry": {"type": "Point", "coordinates": [107.69074, 12.00423]}, "type": "Feature", "id": "663", "properties": {"status": "Implementation", "sectors": ["Water supply and other urban infrastructure and services"], "title": "CENTRAL REGION SMALL AND MEDIUM TOWNS DEVELOPMENT PROJECT", "approvalYear": "2007", "locationName": "Gia Ngh\u0129a", "id": "46004-30286-013-LN2272"}}, {"geometry": {"type": "Point", "coordinates": [108.83333, 11.38333]}, "type": "Feature", "id": "664", "properties": {"status": "Implementation", "sectors": ["Water supply and other urban infrastructure and services"], "title": "CENTRAL REGION SMALL AND MEDIUM TOWNS DEVELOPMENT PROJECT", "approvalYear": "2007", "locationName": "C\u00e0 N\u00e1", "id": "46004-30286-013-LN2272"}}, {"geometry": {"type": "Point", "coordinates": [109.15913, 11.92144]}, "type": "Feature", "id": "665", "properties": {"status": "Implementation", "sectors": ["Water supply and other urban infrastructure and services"], "title": "CENTRAL REGION SMALL AND MEDIUM TOWNS DEVELOPMENT PROJECT", "approvalYear": "2007", "locationName": "Cam Ranh", "id": "46004-30286-013-LN2272"}}, {"geometry": {"type": "Point", "coordinates": [104.91667, 19.25]}, "type": "Feature", "id": "666", "properties": {"status": "Completion", "sectors": ["Agriculture, natural resources and rural development"], "title": "AGRICULTURE SCIENCE AND TECHNOLOGY PROJECT", "approvalYear": "2007", "locationName": "T\u1ec9nh Ngh\u1ec7 An", "id": "46004-36304-013-LN2283"}}, {"geometry": {"type": "Point", "coordinates": [108.83333, 11.75]}, "type": "Feature", "id": "667", "properties": {"status": "Completion", "sectors": ["Agriculture, natural resources and rural development"], "title": "AGRICULTURE SCIENCE AND TECHNOLOGY PROJECT", "approvalYear": "2007", "locationName": "T\u1ec9nh Ninh Thu\u1eadn", "id": "46004-36304-013-LN2283"}}, {"geometry": {"type": "Point", "coordinates": [107.83333, 16.16667]}, "type": "Feature", "id": "668", "properties": {"status": "Completion", "sectors": ["Agriculture, natural resources and rural development"], "title": "AGRICULTURE SCIENCE AND TECHNOLOGY PROJECT", "approvalYear": "2007", "locationName": "Vietnam", "id": "46004-36304-013-LN2283"}}, {"geometry": {"type": "Point", "coordinates": [105.33333, 20.06667]}, "type": "Feature", "id": "669", "properties": {"status": "Completion", "sectors": ["Agriculture, natural resources and rural development"], "title": "AGRICULTURE SCIENCE AND TECHNOLOGY PROJECT", "approvalYear": "2007", "locationName": "T\u1ec9nh Thanh H\u00f3a", "id": "46004-36304-013-LN2283"}}, {"geometry": {"type": "Point", "coordinates": [107.75, 12.16667]}, "type": "Feature", "id": "670", "properties": {"status": "Completion", "sectors": ["Agriculture, natural resources and rural development"], "title": "AGRICULTURE SCIENCE AND TECHNOLOGY PROJECT", "approvalYear": "2007", "locationName": "\u00d0\u1eafk N\u00f4ng", "id": "46004-36304-013-LN2283"}}, {"geometry": {"type": "Point", "coordinates": [107.91667, 15.58333]}, "type": "Feature", "id": "671", "properties": {"status": "Completion", "sectors": ["Agriculture, natural resources and rural development"], "title": "AGRICULTURE SCIENCE AND TECHNOLOGY PROJECT", "approvalYear": "2007", "locationName": "T\u1ec9nh Qu\u1ea3ng Nam", "id": "46004-36304-013-LN2283"}}, {"geometry": {"type": "Point", "coordinates": [104.91667, 19.25]}, "type": "Feature", "id": "672", "properties": {"status": "Completion", "sectors": ["Education"], "title": "UPPER SECONDARY AND PROFESSIONAL TEACHER DEVELOPMENT PROJECT", "approvalYear": "2007", "locationName": "T\u1ec9nh Ngh\u1ec7 An", "id": "46004-37622-013-LN2298"}}, {"geometry": {"type": "Point", "coordinates": [105.69232, 18.67336]}, "type": "Feature", "id": "673", "properties": {"status": "Completion", "sectors": ["Education"], "title": "UPPER SECONDARY AND PROFESSIONAL TEACHER DEVELOPMENT PROJECT", "approvalYear": "2007", "locationName": "Vinh", "id": "46004-37622-013-LN2298"}}, {"geometry": {"type": "Point", "coordinates": [107.83333, 16.16667]}, "type": "Feature", "id": "674", "properties": {"status": "Completion", "sectors": ["Education"], "title": "UPPER SECONDARY AND PROFESSIONAL TEACHER DEVELOPMENT PROJECT", "approvalYear": "2007", "locationName": "Vietnam", "id": "46004-37622-013-LN2298"}}, {"geometry": {"type": "Point", "coordinates": [107.58333, 16.33333]}, "type": "Feature", "id": "675", "properties": {"status": "Completion", "sectors": ["Education"], "title": "UPPER SECONDARY AND PROFESSIONAL TEACHER DEVELOPMENT PROJECT", "approvalYear": "2007", "locationName": "T\u1ec9nh Th\u1eeba Thi\u00ean-Hu\u1ebf", "id": "46004-37622-013-LN2298"}}, {"geometry": {"type": "Point", "coordinates": [108.08333, 11.66667]}, "type": "Feature", "id": "676", "properties": {"status": "Completion", "sectors": ["Education"], "title": "UPPER SECONDARY AND PROFESSIONAL TEACHER DEVELOPMENT PROJECT", "approvalYear": "2007", "locationName": "T\u1ec9nh L\u00e2m \u0110\u1ed3ng", "id": "46004-37622-013-LN2298"}}, {"geometry": {"type": "Point", "coordinates": [106.62978, 10.82327]}, "type": "Feature", "id": "677", "properties": {"status": "Completion", "sectors": ["Education"], "title": "UPPER SECONDARY AND PROFESSIONAL TEACHER DEVELOPMENT PROJECT", "approvalYear": "2007", "locationName": "Ho Chi Minh City", "id": "46004-37622-013-LN2298"}}, {"geometry": {"type": "Point", "coordinates": [105.75, 21.0]}, "type": "Feature", "id": "678", "properties": {"status": "Completion", "sectors": ["Education"], "title": "UPPER SECONDARY AND PROFESSIONAL TEACHER DEVELOPMENT PROJECT", "approvalYear": "2007", "locationName": "Th\u00e0nh Ph\u1ed1 H\u00e0 N\u1ed9i", "id": "46004-37622-013-LN2298"}}, {"geometry": {"type": "Point", "coordinates": [105.5, 10.11667]}, "type": "Feature", "id": "679", "properties": {"status": "Completion", "sectors": ["Education"], "title": "UPPER SECONDARY AND PROFESSIONAL TEACHER DEVELOPMENT PROJECT", "approvalYear": "2007", "locationName": "Th\u00e0nh Ph\u1ed1 C\u1ea7n Th\u01a1", "id": "46004-37622-013-LN2298"}}, {"geometry": {"type": "Point", "coordinates": [105.63333, 10.58333]}, "type": "Feature", "id": "680", "properties": {"status": "Completion", "sectors": ["Education"], "title": "UPPER SECONDARY AND PROFESSIONAL TEACHER DEVELOPMENT PROJECT", "approvalYear": "2007", "locationName": "T\u1ec9nh \u0110\u1ed3ng Th\u00e1p", "id": "46004-37622-013-LN2298"}}, {"geometry": {"type": "Point", "coordinates": [108.22083, 16.06778]}, "type": "Feature", "id": "681", "properties": {"status": "Completion", "sectors": ["Education"], "title": "UPPER SECONDARY AND PROFESSIONAL TEACHER DEVELOPMENT PROJECT", "approvalYear": "2007", "locationName": "Da Nang", "id": "46004-37622-013-LN2298"}}, {"geometry": {"type": "Point", "coordinates": [108.25, 12.75]}, "type": "Feature", "id": "682", "properties": {"status": "Completion", "sectors": ["Education"], "title": "UPPER SECONDARY AND PROFESSIONAL TEACHER DEVELOPMENT PROJECT", "approvalYear": "2007", "locationName": "T\u1ec9nh \u0110\u1eafk L\u1eafk", "id": "46004-37622-013-LN2298"}}, {"geometry": {"type": "Point", "coordinates": [108.03775, 12.66747]}, "type": "Feature", "id": "683", "properties": {"status": "Completion", "sectors": ["Education"], "title": "UPPER SECONDARY AND PROFESSIONAL TEACHER DEVELOPMENT PROJECT", "approvalYear": "2007", "locationName": "Buon Ma Thuot", "id": "46004-37622-013-LN2298"}}, {"geometry": {"type": "Point", "coordinates": [109.0, 14.16667]}, "type": "Feature", "id": "684", "properties": {"status": "Completion", "sectors": ["Education"], "title": "UPPER SECONDARY AND PROFESSIONAL TEACHER DEVELOPMENT PROJECT", "approvalYear": "2007", "locationName": "T\u1ec9nh B\u00ecnh \u0110\u1ecbnh", "id": "46004-37622-013-LN2298"}}, {"geometry": {"type": "Point", "coordinates": [105.16667, 10.5]}, "type": "Feature", "id": "685", "properties": {"status": "Completion", "sectors": ["Education"], "title": "UPPER SECONDARY AND PROFESSIONAL TEACHER DEVELOPMENT PROJECT", "approvalYear": "2007", "locationName": "An Giang", "id": "46004-37622-013-LN2298"}}, {"geometry": {"type": "Point", "coordinates": [108.08333, 16.08333]}, "type": "Feature", "id": "686", "properties": {"status": "Completion", "sectors": ["Education"], "title": "UPPER SECONDARY AND PROFESSIONAL TEACHER DEVELOPMENT PROJECT", "approvalYear": "2007", "locationName": "Th\u00e0nh Ph\u1ed1 \u0110\u00e0 N\u1eb5ng", "id": "46004-37622-013-LN2298"}}, {"geometry": {"type": "Point", "coordinates": [105.83333, 21.66667]}, "type": "Feature", "id": "687", "properties": {"status": "Completion", "sectors": ["Education"], "title": "UPPER SECONDARY AND PROFESSIONAL TEACHER DEVELOPMENT PROJECT", "approvalYear": "2007", "locationName": "T\u1ec9nh Th\u00e1i Nguy\u00ean", "id": "46004-37622-013-LN2298"}}, {"geometry": {"type": "Point", "coordinates": [106.05, 20.81667]}, "type": "Feature", "id": "688", "properties": {"status": "Completion", "sectors": ["Education"], "title": "UPPER SECONDARY AND PROFESSIONAL TEACHER DEVELOPMENT PROJECT", "approvalYear": "2007", "locationName": "T\u1ec9nh H\u01b0ng Y\u00ean", "id": "46004-37622-013-LN2298"}}, {"geometry": {"type": "Point", "coordinates": [105.7683, 10.03096]}, "type": "Feature", "id": "689", "properties": {"status": "Completion", "sectors": ["Education"], "title": "UPPER SECONDARY AND PROFESSIONAL TEACHER DEVELOPMENT PROJECT", "approvalYear": "2007", "locationName": "Tr\u01b0\u1eddng \u0110\u1ea1i H\u1ecdc C\u1ea7n Th\u01a1", "id": "46004-37622-013-LN2298"}}, {"geometry": {"type": "Point", "coordinates": [105.70815, 20.93562]}, "type": "Feature", "id": "690", "properties": {"status": "Completion", "sectors": ["Education"], "title": "UPPER SECONDARY AND PROFESSIONAL TEACHER DEVELOPMENT PROJECT", "approvalYear": "2007", "locationName": "Hanoi University of Gymnastics and Educational Sports", "id": "46004-37622-013-LN2298"}}, {"geometry": {"type": "Point", "coordinates": [105.81268, 21.58738]}, "type": "Feature", "id": "691", "properties": {"status": "Completion", "sectors": ["Education"], "title": "UPPER SECONDARY AND PROFESSIONAL TEACHER DEVELOPMENT PROJECT", "approvalYear": "2007", "locationName": "Thai Nguyen University", "id": "46004-37622-013-LN2298"}}, {"geometry": {"type": "Point", "coordinates": [107.58021, 16.45843]}, "type": "Feature", "id": "692", "properties": {"status": "Completion", "sectors": ["Education"], "title": "UPPER SECONDARY AND PROFESSIONAL TEACHER DEVELOPMENT PROJECT", "approvalYear": "2007", "locationName": "Hue University", "id": "46004-37622-013-LN2298"}}, {"geometry": {"type": "Point", "coordinates": [109.21867, 13.75992]}, "type": "Feature", "id": "693", "properties": {"status": "Completion", "sectors": ["Education"], "title": "UPPER SECONDARY AND PROFESSIONAL TEACHER DEVELOPMENT PROJECT", "approvalYear": "2007", "locationName": "Quy Nhan University", "id": "46004-37622-013-LN2298"}}, {"geometry": {"type": "Point", "coordinates": [106.77173, 10.84991]}, "type": "Feature", "id": "694", "properties": {"status": "Completion", "sectors": ["Education"], "title": "UPPER SECONDARY AND PROFESSIONAL TEACHER DEVELOPMENT PROJECT", "approvalYear": "2007", "locationName": "Ho Chi Minh University of Techincal Education", "id": "46004-37622-013-LN2298"}}, {"geometry": {"type": "Point", "coordinates": [106.00871, 20.84431]}, "type": "Feature", "id": "695", "properties": {"status": "Completion", "sectors": ["Education"], "title": "UPPER SECONDARY AND PROFESSIONAL TEACHER DEVELOPMENT PROJECT", "approvalYear": "2007", "locationName": "Hung Yen University for Technical Education", "id": "46004-37622-013-LN2298"}}, {"geometry": {"type": "Point", "coordinates": [105.43205, 10.37156]}, "type": "Feature", "id": "696", "properties": {"status": "Completion", "sectors": ["Education"], "title": "UPPER SECONDARY AND PROFESSIONAL TEACHER DEVELOPMENT PROJECT", "approvalYear": "2007", "locationName": "An Giang University", "id": "46004-37622-013-LN2298"}}, {"geometry": {"type": "Point", "coordinates": [108.44522, 11.95687]}, "type": "Feature", "id": "697", "properties": {"status": "Completion", "sectors": ["Education"], "title": "UPPER SECONDARY AND PROFESSIONAL TEACHER DEVELOPMENT PROJECT", "approvalYear": "2007", "locationName": "Da Lat University", "id": "46004-37622-013-LN2298"}}, {"geometry": {"type": "Point", "coordinates": [105.64281, 10.42014]}, "type": "Feature", "id": "698", "properties": {"status": "Completion", "sectors": ["Education"], "title": "UPPER SECONDARY AND PROFESSIONAL TEACHER DEVELOPMENT PROJECT", "approvalYear": "2007", "locationName": "University of Pedagogy Dong Thap", "id": "46004-37622-013-LN2298"}}, {"geometry": {"type": "Point", "coordinates": [108.21926, 16.0707]}, "type": "Feature", "id": "699", "properties": {"status": "Completion", "sectors": ["Education"], "title": "UPPER SECONDARY AND PROFESSIONAL TEACHER DEVELOPMENT PROJECT", "approvalYear": "2007", "locationName": "Da Nang University", "id": "46004-37622-013-LN2298"}}, {"geometry": {"type": "Point", "coordinates": [108.02656, 12.6553]}, "type": "Feature", "id": "700", "properties": {"status": "Completion", "sectors": ["Education"], "title": "UPPER SECONDARY AND PROFESSIONAL TEACHER DEVELOPMENT PROJECT", "approvalYear": "2007", "locationName": "Tay Nguyen University", "id": "46004-37622-013-LN2298"}}, {"geometry": {"type": "Point", "coordinates": [104.59238, 21.97071]}, "type": "Feature", "id": "701", "properties": {"status": "Implementation", "sectors": ["Transport"], "title": "GMS:KUNNING-HAIPHONG TRNSPRT CRRDOR YEN VIEN-LAO CAI RLWY UPGRADN", "approvalYear": "2007", "locationName": "Tr\u00e1i H\u00fat", "id": "46004-39175-013-LN2302"}}, {"geometry": {"type": "Point", "coordinates": [105.3, 21.36667]}, "type": "Feature", "id": "702", "properties": {"status": "Implementation", "sectors": ["Transport"], "title": "GMS:KUNNING-HAIPHONG TRNSPRT CRRDOR YEN VIEN-LAO CAI RLWY UPGRADN", "approvalYear": "2007", "locationName": "Ti\u00ean C\u01b0\u01a1ng", "id": "46004-39175-013-LN2302"}}, {"geometry": {"type": "Point", "coordinates": [104.08333, 22.4]}, "type": "Feature", "id": "703", "properties": {"status": "Implementation", "sectors": ["Transport"], "title": "GMS:KUNNING-HAIPHONG TRNSPRT CRRDOR YEN VIEN-LAO CAI RLWY UPGRADN", "approvalYear": "2007", "locationName": "Thai Nien", "id": "46004-39175-013-LN2302"}}, {"geometry": {"type": "Point", "coordinates": [105.73728, 21.20714]}, "type": "Feature", "id": "704", "properties": {"status": "Implementation", "sectors": ["Transport"], "title": "GMS:KUNNING-HAIPHONG TRNSPRT CRRDOR YEN VIEN-LAO CAI RLWY UPGRADN", "approvalYear": "2007", "locationName": "Ph\u00f9 Tr\u00ec", "id": "46004-39175-013-LN2302"}}, {"geometry": {"type": "Point", "coordinates": [105.22221, 21.39963]}, "type": "Feature", "id": "705", "properties": {"status": "Implementation", "sectors": ["Transport"], "title": "GMS:KUNNING-HAIPHONG TRNSPRT CRRDOR YEN VIEN-LAO CAI RLWY UPGRADN", "approvalYear": "2007", "locationName": "Ph\u00fa Th\u1ecd", "id": "46004-39175-013-LN2302"}}, {"geometry": {"type": "Point", "coordinates": [105.09871, 21.46709]}, "type": "Feature", "id": "706", "properties": {"status": "Implementation", "sectors": ["Transport"], "title": "GMS:KUNNING-HAIPHONG TRNSPRT CRRDOR YEN VIEN-LAO CAI RLWY UPGRADN", "approvalYear": "2007", "locationName": "Ph\u01b0\u01a1ng Linh", "id": "46004-39175-013-LN2302"}}, {"geometry": {"type": "Point", "coordinates": [105.70483, 21.23695]}, "type": "Feature", "id": "707", "properties": {"status": "Implementation", "sectors": ["Transport"], "title": "GMS:KUNNING-HAIPHONG TRNSPRT CRRDOR YEN VIEN-LAO CAI RLWY UPGRADN", "approvalYear": "2007", "locationName": "Ph\u00fac Y\u00ean", "id": "46004-39175-013-LN2302"}}, {"geometry": {"type": "Point", "coordinates": [104.18719, 22.31918]}, "type": "Feature", "id": "708", "properties": {"status": "Implementation", "sectors": ["Transport"], "title": "GMS:KUNNING-HAIPHONG TRNSPRT CRRDOR YEN VIEN-LAO CAI RLWY UPGRADN", "approvalYear": "2007", "locationName": "Th\u1ecb Tr\u1ea5n Ph\u1ed1 Lu", "id": "46004-39175-013-LN2302"}}, {"geometry": {"type": "Point", "coordinates": [104.96667, 21.6]}, "type": "Feature", "id": "709", "properties": {"status": "Implementation", "sectors": ["Transport"], "title": "GMS:KUNNING-HAIPHONG TRNSPRT CRRDOR YEN VIEN-LAO CAI RLWY UPGRADN", "approvalYear": "2007", "locationName": "L\u1ec7nh Khanh", "id": "46004-39175-013-LN2302"}}, {"geometry": {"type": "Point", "coordinates": [103.97066, 22.48556]}, "type": "Feature", "id": "710", "properties": {"status": "Implementation", "sectors": ["Transport"], "title": "GMS:KUNNING-HAIPHONG TRNSPRT CRRDOR YEN VIEN-LAO CAI RLWY UPGRADN", "approvalYear": "2007", "locationName": "L\u00e0o Cai", "id": "46004-39175-013-LN2302"}}, {"geometry": {"type": "Point", "coordinates": [104.66667, 21.9]}, "type": "Feature", "id": "711", "properties": {"status": "Implementation", "sectors": ["Transport"], "title": "GMS:KUNNING-HAIPHONG TRNSPRT CRRDOR YEN VIEN-LAO CAI RLWY UPGRADN", "approvalYear": "2007", "locationName": "L\u00e0ng Qu\u1ea1ch Ngo\u00e0i", "id": "46004-39175-013-LN2302"}}, {"geometry": {"type": "Point", "coordinates": [104.43333, 22.1]}, "type": "Feature", "id": "712", "properties": {"status": "Implementation", "sectors": ["Transport"], "title": "GMS:KUNNING-HAIPHONG TRNSPRT CRRDOR YEN VIEN-LAO CAI RLWY UPGRADN", "approvalYear": "2007", "locationName": "L\u00e0ng Lien", "id": "46004-39175-013-LN2302"}}, {"geometry": {"type": "Point", "coordinates": [104.5, 22.06667]}, "type": "Feature", "id": "713", "properties": {"status": "Implementation", "sectors": ["Transport"], "title": "GMS:KUNNING-HAIPHONG TRNSPRT CRRDOR YEN VIEN-LAO CAI RLWY UPGRADN", "approvalYear": "2007", "locationName": "L\u00e0ng Khay", "id": "46004-39175-013-LN2302"}}, {"geometry": {"type": "Point", "coordinates": [104.47904, 22.06275]}, "type": "Feature", "id": "714", "properties": {"status": "Implementation", "sectors": ["Transport"], "title": "GMS:KUNNING-HAIPHONG TRNSPRT CRRDOR YEN VIEN-LAO CAI RLWY UPGRADN", "approvalYear": "2007", "locationName": "Khau Tr\u1ee5c", "id": "46004-39175-013-LN2302"}}, {"geometry": {"type": "Point", "coordinates": [104.38333, 22.15]}, "type": "Feature", "id": "715", "properties": {"status": "Implementation", "sectors": ["Transport"], "title": "GMS:KUNNING-HAIPHONG TRNSPRT CRRDOR YEN VIEN-LAO CAI RLWY UPGRADN", "approvalYear": "2007", "locationName": "L\u00e0ng B\u00f9n", "id": "46004-39175-013-LN2302"}}, {"geometry": {"type": "Point", "coordinates": [105.85, 21.15]}, "type": "Feature", "id": "716", "properties": {"status": "Implementation", "sectors": ["Transport"], "title": "GMS:KUNNING-HAIPHONG TRNSPRT CRRDOR YEN VIEN-LAO CAI RLWY UPGRADN", "approvalYear": "2007", "locationName": "K\u1ec9nh N\u1ed7", "id": "46004-39175-013-LN2302"}}, {"geometry": {"type": "Point", "coordinates": [105.64697, 21.27882]}, "type": "Feature", "id": "717", "properties": {"status": "Implementation", "sectors": ["Transport"], "title": "GMS:KUNNING-HAIPHONG TRNSPRT CRRDOR YEN VIEN-LAO CAI RLWY UPGRADN", "approvalYear": "2007", "locationName": "H\u01b0\u01a1ng Canh", "id": "46004-39175-013-LN2302"}}, {"geometry": {"type": "Point", "coordinates": [105.26299, 21.38777]}, "type": "Feature", "id": "718", "properties": {"status": "Implementation", "sectors": ["Transport"], "title": "GMS:KUNNING-HAIPHONG TRNSPRT CRRDOR YEN VIEN-LAO CAI RLWY UPGRADN", "approvalYear": "2007", "locationName": "H\u00e0 Th\u1ea1ch", "id": "46004-39175-013-LN2302"}}, {"geometry": {"type": "Point", "coordinates": [105.78333, 21.18333]}, "type": "Feature", "id": "719", "properties": {"status": "Implementation", "sectors": ["Transport"], "title": "GMS:KUNNING-HAIPHONG TRNSPRT CRRDOR YEN VIEN-LAO CAI RLWY UPGRADN", "approvalYear": "2007", "locationName": "Gia Th\u01b0\u1ee3ng", "id": "46004-39175-013-LN2302"}}, {"geometry": {"type": "Point", "coordinates": [104.76667, 21.81667]}, "type": "Feature", "id": "720", "properties": {"status": "Implementation", "sectors": ["Transport"], "title": "GMS:KUNNING-HAIPHONG TRNSPRT CRRDOR YEN VIEN-LAO CAI RLWY UPGRADN", "approvalYear": "2007", "locationName": "Ga Ng\u00f2i H\u00f3p", "id": "46004-39175-013-LN2302"}}, {"geometry": {"type": "Point", "coordinates": [105.89478, 21.11824]}, "type": "Feature", "id": "721", "properties": {"status": "Implementation", "sectors": ["Transport"], "title": "GMS:KUNNING-HAIPHONG TRNSPRT CRRDOR YEN VIEN-LAO CAI RLWY UPGRADN", "approvalYear": "2007", "locationName": "D\u1ee5c T\u00fa", "id": "46004-39175-013-LN2302"}}, {"geometry": {"type": "Point", "coordinates": [105.87439, 21.13618]}, "type": "Feature", "id": "722", "properties": {"status": "Implementation", "sectors": ["Transport"], "title": "GMS:KUNNING-HAIPHONG TRNSPRT CRRDOR YEN VIEN-LAO CAI RLWY UPGRADN", "approvalYear": "2007", "locationName": "D\u1ee5c N\u1ed9i", "id": "46004-39175-013-LN2302"}}, {"geometry": {"type": "Point", "coordinates": [104.61667, 21.95]}, "type": "Feature", "id": "723", "properties": {"status": "Implementation", "sectors": ["Transport"], "title": "GMS:KUNNING-HAIPHONG TRNSPRT CRRDOR YEN VIEN-LAO CAI RLWY UPGRADN", "approvalYear": "2007", "locationName": "\u0110\u1ed9ng Cu\u00f4ng", "id": "46004-39175-013-LN2302"}}, {"geometry": {"type": "Point", "coordinates": [104.35, 22.18333]}, "type": "Feature", "id": "724", "properties": {"status": "Implementation", "sectors": ["Transport"], "title": "GMS:KUNNING-HAIPHONG TRNSPRT CRRDOR YEN VIEN-LAO CAI RLWY UPGRADN", "approvalYear": "2007", "locationName": "B\u1ea3o H\u00e0", "id": "46004-39175-013-LN2302"}}, {"geometry": {"type": "Point", "coordinates": [105.01667, 21.55]}, "type": "Feature", "id": "725", "properties": {"status": "Implementation", "sectors": ["Transport"], "title": "GMS:KUNNING-HAIPHONG TRNSPRT CRRDOR YEN VIEN-LAO CAI RLWY UPGRADN", "approvalYear": "2007", "locationName": "\u1ea4m Th\u01b0\u1ee3ng", "id": "46004-39175-013-LN2302"}}, {"geometry": {"type": "Point", "coordinates": [103.99502, 22.41944]}, "type": "Feature", "id": "726", "properties": {"status": "Implementation", "sectors": ["Transport"], "title": "GMS:KUNNING-HAIPHONG TRNSPRT CRRDOR YEN VIEN-LAO CAI RLWY UPGRADN", "approvalYear": "2007", "locationName": "Th\u00e0nh Ph\u1ed1 L\u00e0o Cai", "id": "46004-39175-013-LN2302"}}, {"geometry": {"type": "Point", "coordinates": [104.13893, 22.36896]}, "type": "Feature", "id": "727", "properties": {"status": "Implementation", "sectors": ["Transport"], "title": "GMS:KUNNING-HAIPHONG TRNSPRT CRRDOR YEN VIEN-LAO CAI RLWY UPGRADN", "approvalYear": "2007", "locationName": "Huy\u1ec7n B\u1ea3o Th\u1eafng", "id": "46004-39175-013-LN2302"}}, {"geometry": {"type": "Point", "coordinates": [104.46424, 22.26109]}, "type": "Feature", "id": "728", "properties": {"status": "Implementation", "sectors": ["Transport"], "title": "GMS:KUNNING-HAIPHONG TRNSPRT CRRDOR YEN VIEN-LAO CAI RLWY UPGRADN", "approvalYear": "2007", "locationName": "Huy\u1ec7n B\u1ea3o Y\u00ean", "id": "46004-39175-013-LN2302"}}, {"geometry": {"type": "Point", "coordinates": [105.8423, 21.13519]}, "type": "Feature", "id": "729", "properties": {"status": "Implementation", "sectors": ["Transport"], "title": "GMS:KUNNING-HAIPHONG TRNSPRT CRRDOR YEN VIEN-LAO CAI RLWY UPGRADN", "approvalYear": "2007", "locationName": "Huy\u1ec7n \u0110\u00f4ng Anh", "id": "46004-39175-013-LN2302"}}, {"geometry": {"type": "Point", "coordinates": [105.97432, 21.03156]}, "type": "Feature", "id": "730", "properties": {"status": "Implementation", "sectors": ["Transport"], "title": "GMS:KUNNING-HAIPHONG TRNSPRT CRRDOR YEN VIEN-LAO CAI RLWY UPGRADN", "approvalYear": "2007", "locationName": "Huy\u1ec7n Gia L\u00e2m", "id": "46004-39175-013-LN2302"}}, {"geometry": {"type": "Point", "coordinates": [105.5947, 21.30538]}, "type": "Feature", "id": "731", "properties": {"status": "Implementation", "sectors": ["Transport"], "title": "GMS:KUNNING-HAIPHONG TRNSPRT CRRDOR YEN VIEN-LAO CAI RLWY UPGRADN", "approvalYear": "2007", "locationName": "Th\u00e0nh Ph\u1ed1 V\u0129nh Y\u00ean", "id": "46004-39175-013-LN2302"}}, {"geometry": {"type": "Point", "coordinates": [105.7114, 21.18245]}, "type": "Feature", "id": "732", "properties": {"status": "Implementation", "sectors": ["Transport"], "title": "GMS:KUNNING-HAIPHONG TRNSPRT CRRDOR YEN VIEN-LAO CAI RLWY UPGRADN", "approvalYear": "2007", "locationName": "Huy\u1ec7n M\u00ea Linh", "id": "46004-39175-013-LN2302"}}, {"geometry": {"type": "Point", "coordinates": [105.49683, 21.24433]}, "type": "Feature", "id": "733", "properties": {"status": "Implementation", "sectors": ["Transport"], "title": "GMS:KUNNING-HAIPHONG TRNSPRT CRRDOR YEN VIEN-LAO CAI RLWY UPGRADN", "approvalYear": "2007", "locationName": "Huy\u1ec7n V\u0129nh T\u01b0\u1eddng", "id": "46004-39175-013-LN2302"}}, {"geometry": {"type": "Point", "coordinates": [105.39217, 21.32958]}, "type": "Feature", "id": "734", "properties": {"status": "Implementation", "sectors": ["Transport"], "title": "GMS:KUNNING-HAIPHONG TRNSPRT CRRDOR YEN VIEN-LAO CAI RLWY UPGRADN", "approvalYear": "2007", "locationName": "Th\u00e0nh Ph\u1ed1 Vi\u1ec7t Tr\u00ec", "id": "46004-39175-013-LN2302"}}, {"geometry": {"type": "Point", "coordinates": [105.23636, 21.41664]}, "type": "Feature", "id": "735", "properties": {"status": "Implementation", "sectors": ["Transport"], "title": "GMS:KUNNING-HAIPHONG TRNSPRT CRRDOR YEN VIEN-LAO CAI RLWY UPGRADN", "approvalYear": "2007", "locationName": "Th\u1ecb x\u00e3 Ph\u00fa Th\u1ecd", "id": "46004-39175-013-LN2302"}}, {"geometry": {"type": "Point", "coordinates": [105.15881, 21.47816]}, "type": "Feature", "id": "736", "properties": {"status": "Implementation", "sectors": ["Transport"], "title": "GMS:KUNNING-HAIPHONG TRNSPRT CRRDOR YEN VIEN-LAO CAI RLWY UPGRADN", "approvalYear": "2007", "locationName": "Huy\u1ec7n Thanh Ba", "id": "46004-39175-013-LN2302"}}, {"geometry": {"type": "Point", "coordinates": [104.99464, 21.57763]}, "type": "Feature", "id": "737", "properties": {"status": "Implementation", "sectors": ["Transport"], "title": "GMS:KUNNING-HAIPHONG TRNSPRT CRRDOR YEN VIEN-LAO CAI RLWY UPGRADN", "approvalYear": "2007", "locationName": "Huy\u1ec7n H\u1ea1 H\u00f2a", "id": "46004-39175-013-LN2302"}}, {"geometry": {"type": "Point", "coordinates": [104.9064, 21.7324]}, "type": "Feature", "id": "738", "properties": {"status": "Implementation", "sectors": ["Transport"], "title": "GMS:KUNNING-HAIPHONG TRNSPRT CRRDOR YEN VIEN-LAO CAI RLWY UPGRADN", "approvalYear": "2007", "locationName": "Th\u00e0nh Ph\u1ed1 Y\u00ean B\u00e1i", "id": "46004-39175-013-LN2302"}}, {"geometry": {"type": "Point", "coordinates": [104.79702, 21.66586]}, "type": "Feature", "id": "739", "properties": {"status": "Implementation", "sectors": ["Transport"], "title": "GMS:KUNNING-HAIPHONG TRNSPRT CRRDOR YEN VIEN-LAO CAI RLWY UPGRADN", "approvalYear": "2007", "locationName": "Huy\u1ec7n Tr\u1ea5n Y\u00ean", "id": "46004-39175-013-LN2302"}}, {"geometry": {"type": "Point", "coordinates": [104.56669, 21.90022]}, "type": "Feature", "id": "740", "properties": {"status": "Implementation", "sectors": ["Transport"], "title": "GMS:KUNNING-HAIPHONG TRNSPRT CRRDOR YEN VIEN-LAO CAI RLWY UPGRADN", "approvalYear": "2007", "locationName": "Huy\u1ec7n V\u0103n Y\u00ean", "id": "46004-39175-013-LN2302"}}, {"geometry": {"type": "Point", "coordinates": [105.56667, 21.33333]}, "type": "Feature", "id": "741", "properties": {"status": "Implementation", "sectors": ["Transport"], "title": "GMS:KUNNING-HAIPHONG TRNSPRT CRRDOR YEN VIEN-LAO CAI RLWY UPGRADN", "approvalYear": "2007", "locationName": "T\u1ec9nh V\u0129nh Ph\u00fac", "id": "46004-39175-013-LN2302"}}, {"geometry": {"type": "Point", "coordinates": [105.11586, 21.45586]}, "type": "Feature", "id": "742", "properties": {"status": "Implementation", "sectors": ["Transport"], "title": "GMS:KUNNING-HAIPHONG TRNSPRT CRRDOR YEN VIEN-LAO CAI RLWY UPGRADN", "approvalYear": "2007", "locationName": "Li\u00ean Ha", "id": "46004-39175-013-LN2302"}}, {"geometry": {"type": "Point", "coordinates": [105.11737, 21.4584]}, "type": "Feature", "id": "743", "properties": {"status": "Implementation", "sectors": ["Transport"], "title": "GMS:KUNNING-HAIPHONG TRNSPRT CRRDOR YEN VIEN-LAO CAI RLWY UPGRADN", "approvalYear": "2007", "locationName": "M\u1ea1n Lan", "id": "46004-39175-013-LN2302"}}, {"geometry": {"type": "Point", "coordinates": [105.28033, 21.37862]}, "type": "Feature", "id": "744", "properties": {"status": "Implementation", "sectors": ["Transport"], "title": "GMS:KUNNING-HAIPHONG TRNSPRT CRRDOR YEN VIEN-LAO CAI RLWY UPGRADN", "approvalYear": "2007", "locationName": "V\u0129nh Thinh", "id": "46004-39175-013-LN2302"}}, {"geometry": {"type": "Point", "coordinates": [105.35581, 21.34282]}, "type": "Feature", "id": "745", "properties": {"status": "Implementation", "sectors": ["Transport"], "title": "GMS:KUNNING-HAIPHONG TRNSPRT CRRDOR YEN VIEN-LAO CAI RLWY UPGRADN", "approvalYear": "2007", "locationName": "Ga Ph\u00fa \u0110\u1ee9c", "id": "46004-39175-013-LN2302"}}, {"geometry": {"type": "Point", "coordinates": [105.91667, 21.08333]}, "type": "Feature", "id": "746", "properties": {"status": "Implementation", "sectors": ["Transport"], "title": "GMS:KUNNING-HAIPHONG TRNSPRT CRRDOR YEN VIEN-LAO CAI RLWY UPGRADN", "approvalYear": "2007", "locationName": "Y\u00ean Vi\u00ean", "id": "46004-39175-013-LN2302"}}, {"geometry": {"type": "Point", "coordinates": [105.15, 21.43333]}, "type": "Feature", "id": "747", "properties": {"status": "Implementation", "sectors": ["Transport"], "title": "GMS:KUNNING-HAIPHONG TRNSPRT CRRDOR YEN VIEN-LAO CAI RLWY UPGRADN", "approvalYear": "2007", "locationName": "Y\u00ean Tr\u1ea1ch", "id": "46004-39175-013-LN2302"}}, {"geometry": {"type": "Point", "coordinates": [104.71667, 21.86667]}, "type": "Feature", "id": "748", "properties": {"status": "Implementation", "sectors": ["Transport"], "title": "GMS:KUNNING-HAIPHONG TRNSPRT CRRDOR YEN VIEN-LAO CAI RLWY UPGRADN", "approvalYear": "2007", "locationName": "Y\u00ean Gi\u00fang", "id": "46004-39175-013-LN2302"}}, {"geometry": {"type": "Point", "coordinates": [105.58333, 21.31667]}, "type": "Feature", "id": "749", "properties": {"status": "Implementation", "sectors": ["Transport"], "title": "GMS:KUNNING-HAIPHONG TRNSPRT CRRDOR YEN VIEN-LAO CAI RLWY UPGRADN", "approvalYear": "2007", "locationName": "X\u00f3m Tram", "id": "46004-39175-013-LN2302"}}, {"geometry": {"type": "Point", "coordinates": [104.86667, 21.71667]}, "type": "Feature", "id": "750", "properties": {"status": "Implementation", "sectors": ["Transport"], "title": "GMS:KUNNING-HAIPHONG TRNSPRT CRRDOR YEN VIEN-LAO CAI RLWY UPGRADN", "approvalYear": "2007", "locationName": "X\u00f3m Soi", "id": "46004-39175-013-LN2302"}}, {"geometry": {"type": "Point", "coordinates": [105.61667, 21.3]}, "type": "Feature", "id": "751", "properties": {"status": "Implementation", "sectors": ["Transport"], "title": "GMS:KUNNING-HAIPHONG TRNSPRT CRRDOR YEN VIEN-LAO CAI RLWY UPGRADN", "approvalYear": "2007", "locationName": "X\u00f3m D\u00f9a", "id": "46004-39175-013-LN2302"}}, {"geometry": {"type": "Point", "coordinates": [105.60489, 21.30891]}, "type": "Feature", "id": "752", "properties": {"status": "Implementation", "sectors": ["Transport"], "title": "GMS:KUNNING-HAIPHONG TRNSPRT CRRDOR YEN VIEN-LAO CAI RLWY UPGRADN", "approvalYear": "2007", "locationName": "V\u0129nh Y\u00ean", "id": "46004-39175-013-LN2302"}}, {"geometry": {"type": "Point", "coordinates": [105.40198, 21.32274]}, "type": "Feature", "id": "753", "properties": {"status": "Implementation", "sectors": ["Transport"], "title": "GMS:KUNNING-HAIPHONG TRNSPRT CRRDOR YEN VIEN-LAO CAI RLWY UPGRADN", "approvalYear": "2007", "locationName": "Vi\u1ec7t Tr\u00ec", "id": "46004-39175-013-LN2302"}}, {"geometry": {"type": "Point", "coordinates": [105.55, 21.3]}, "type": "Feature", "id": "754", "properties": {"status": "Implementation", "sectors": ["Transport"], "title": "GMS:KUNNING-HAIPHONG TRNSPRT CRRDOR YEN VIEN-LAO CAI RLWY UPGRADN", "approvalYear": "2007", "locationName": "V\u00e2n H\u1ed9i", "id": "46004-39175-013-LN2302"}}, {"geometry": {"type": "Point", "coordinates": [104.85, 21.71667]}, "type": "Feature", "id": "755", "properties": {"status": "Implementation", "sectors": ["Transport"], "title": "GMS:KUNNING-HAIPHONG TRNSPRT CRRDOR YEN VIEN-LAO CAI RLWY UPGRADN", "approvalYear": "2007", "locationName": "Tuy L\u1ed9c", "id": "46004-39175-013-LN2302"}}, {"geometry": {"type": "Point", "coordinates": [104.83333, 21.75]}, "type": "Feature", "id": "756", "properties": {"status": "Implementation", "sectors": ["Transport"], "title": "GMS:KUNNING-HAIPHONG TRNSPRT CRRDOR YEN VIEN-LAO CAI RLWY UPGRADN", "approvalYear": "2007", "locationName": "Tr\u1ea5n Y\u00ean", "id": "46004-39175-013-LN2302"}}, {"geometry": {"type": "Point", "coordinates": [104.28333, 22.23333]}, "type": "Feature", "id": "757", "properties": {"status": "Implementation", "sectors": ["Transport"], "title": "GMS:KUNNING-HAIPHONG TRNSPRT CRRDOR YEN VIEN-LAO CAI RLWY UPGRADN", "approvalYear": "2007", "locationName": "Tr\u1ea1i Van", "id": "46004-39175-013-LN2302"}}, {"geometry": {"type": "Point", "coordinates": [105.43073, 21.30073]}, "type": "Feature", "id": "758", "properties": {"status": "Implementation", "sectors": ["Transport"], "title": "GMS:KUNNING-HAIPHONG TRNSPRT CRRDOR YEN VIEN-LAO CAI RLWY UPGRADN", "approvalYear": "2007", "locationName": "Ga Vi\u1ec7t Tr\u00ec", "id": "46004-39175-013-LN2302"}}, {"geometry": {"type": "Point", "coordinates": [105.46407, 21.29057]}, "type": "Feature", "id": "759", "properties": {"status": "Implementation", "sectors": ["Transport"], "title": "GMS:KUNNING-HAIPHONG TRNSPRT CRRDOR YEN VIEN-LAO CAI RLWY UPGRADN", "approvalYear": "2007", "locationName": "B\u1ea1ch H\u1ea1c", "id": "46004-39175-013-LN2302"}}, {"geometry": {"type": "Point", "coordinates": [104.82768, 21.75585]}, "type": "Feature", "id": "760", "properties": {"status": "Implementation", "sectors": ["Transport"], "title": "GMS:KUNNING-HAIPHONG TRNSPRT CRRDOR YEN VIEN-LAO CAI RLWY UPGRADN", "approvalYear": "2007", "locationName": "C\u1ed5 Ph\u00fac", "id": "46004-39175-013-LN2302"}}, {"geometry": {"type": "Point", "coordinates": [104.65659, 21.92466]}, "type": "Feature", "id": "761", "properties": {"status": "Implementation", "sectors": ["Transport"], "title": "GMS:KUNNING-HAIPHONG TRNSPRT CRRDOR YEN VIEN-LAO CAI RLWY UPGRADN", "approvalYear": "2007", "locationName": "X\u00e3 M\u1eadu \u0110\u00f4ng", "id": "46004-39175-013-LN2302"}}, {"geometry": {"type": "Point", "coordinates": [104.40142, 22.13488]}, "type": "Feature", "id": "762", "properties": {"status": "Implementation", "sectors": ["Transport"], "title": "GMS:KUNNING-HAIPHONG TRNSPRT CRRDOR YEN VIEN-LAO CAI RLWY UPGRADN", "approvalYear": "2007", "locationName": "Ngh\u0129a Phong", "id": "46004-39175-013-LN2302"}}, {"geometry": {"type": "Point", "coordinates": [105.30808, 21.35435]}, "type": "Feature", "id": "763", "properties": {"status": "Implementation", "sectors": ["Transport"], "title": "GMS:KUNNING-HAIPHONG TRNSPRT CRRDOR YEN VIEN-LAO CAI RLWY UPGRADN", "approvalYear": "2007", "locationName": "H\u1eadu L\u1ed9c", "id": "46004-39175-013-LN2302"}}, {"geometry": {"type": "Point", "coordinates": [105.5569, 21.36189]}, "type": "Feature", "id": "764", "properties": {"status": "Implementation", "sectors": ["Transport"], "title": "GMS:KUNNING-HAIPHONG TRNSPRT CRRDOR YEN VIEN-LAO CAI RLWY UPGRADN", "approvalYear": "2007", "locationName": "Huy\u1ec7n Tam D\u01b0\u01a1ng", "id": "46004-39175-013-LN2302"}}, {"geometry": {"type": "Point", "coordinates": [105.66225, 21.30561]}, "type": "Feature", "id": "765", "properties": {"status": "Implementation", "sectors": ["Transport"], "title": "GMS:KUNNING-HAIPHONG TRNSPRT CRRDOR YEN VIEN-LAO CAI RLWY UPGRADN", "approvalYear": "2007", "locationName": "Huy\u1ec7n B\u00ecnh Xuy\u00ean", "id": "46004-39175-013-LN2302"}}, {"geometry": {"type": "Point", "coordinates": [105.67886, 21.26986]}, "type": "Feature", "id": "766", "properties": {"status": "Implementation", "sectors": ["Transport"], "title": "GMS:KUNNING-HAIPHONG TRNSPRT CRRDOR YEN VIEN-LAO CAI RLWY UPGRADN", "approvalYear": "2007", "locationName": "Ng\u1ecdc B\u1ea3o", "id": "46004-39175-013-LN2302"}}, {"geometry": {"type": "Point", "coordinates": [105.74067, 21.19665]}, "type": "Feature", "id": "767", "properties": {"status": "Implementation", "sectors": ["Transport"], "title": "GMS:KUNNING-HAIPHONG TRNSPRT CRRDOR YEN VIEN-LAO CAI RLWY UPGRADN", "approvalYear": "2007", "locationName": "L\u00e2m H\u1ed9", "id": "46004-39175-013-LN2302"}}, {"geometry": {"type": "Point", "coordinates": [104.63109, 21.93525]}, "type": "Feature", "id": "768", "properties": {"status": "Implementation", "sectors": ["Transport"], "title": "GMS:KUNNING-HAIPHONG TRNSPRT CRRDOR YEN VIEN-LAO CAI RLWY UPGRADN", "approvalYear": "2007", "locationName": "Cau Khai", "id": "46004-39175-013-LN2302"}}, {"geometry": {"type": "Point", "coordinates": [104.91114, 21.68868]}, "type": "Feature", "id": "769", "properties": {"status": "Implementation", "sectors": ["Transport"], "title": "GMS:KUNNING-HAIPHONG TRNSPRT CRRDOR YEN VIEN-LAO CAI RLWY UPGRADN", "approvalYear": "2007", "locationName": "Tien Phu", "id": "46004-39175-013-LN2302"}}, {"geometry": {"type": "Point", "coordinates": [105.31119, 21.29971]}, "type": "Feature", "id": "770", "properties": {"status": "Implementation", "sectors": ["Transport"], "title": "GMS:KUNNING-HAIPHONG TRNSPRT CRRDOR YEN VIEN-LAO CAI RLWY UPGRADN", "approvalYear": "2007", "locationName": "Huyen Lam Thao", "id": "46004-39175-013-LN2302"}}, {"geometry": {"type": "Point", "coordinates": [105.5193, 21.29134]}, "type": "Feature", "id": "771", "properties": {"status": "Implementation", "sectors": ["Transport"], "title": "GMS:KUNNING-HAIPHONG TRNSPRT CRRDOR YEN VIEN-LAO CAI RLWY UPGRADN", "approvalYear": "2007", "locationName": "Ga Huong Lai", "id": "46004-39175-013-LN2302"}}, {"geometry": {"type": "Point", "coordinates": [107.35, 21.06667]}, "type": "Feature", "id": "772", "properties": {"status": "Completion", "sectors": ["Energy"], "title": "MFF-MONG DUONG 1 THERMAL POWER INVESTMENT PROGRAM - LOAN 1", "approvalYear": "2007", "locationName": "M\u00f4ng D\u01b0\u01a1ng", "id": "46004-39595-023-LN2353"}}, {"geometry": {"type": "Point", "coordinates": [107.42543, 21.15064]}, "type": "Feature", "id": "773", "properties": {"status": "Completion", "sectors": ["Energy"], "title": "MFF-MONG DUONG 1 THERMAL POWER INVESTMENT PROGRAM - LOAN 1", "approvalYear": "2007", "locationName": "X\u00e3 B\u00ecnh D\u00e2n", "id": "46004-39595-023-LN2353"}}, {"geometry": {"type": "Point", "coordinates": [104.91667, 19.25]}, "type": "Feature", "id": "774", "properties": {"status": "Implementation", "sectors": ["Transport"], "title": "INTEGRATED RURAL DEVELOPMENT SECTOR PROJECT IN THE CENTRAL PRVNCE", "approvalYear": "2007", "locationName": "T\u1ec9nh Ngh\u1ec7 An", "id": "46004-37097-013-LN2357"}}, {"geometry": {"type": "Point", "coordinates": [108.83333, 11.75]}, "type": "Feature", "id": "775", "properties": {"status": "Implementation", "sectors": ["Transport"], "title": "INTEGRATED RURAL DEVELOPMENT SECTOR PROJECT IN THE CENTRAL PRVNCE", "approvalYear": "2007", "locationName": "T\u1ec9nh Ninh Thu\u1eadn", "id": "46004-37097-013-LN2357"}}, {"geometry": {"type": "Point", "coordinates": [107.58333, 16.33333]}, "type": "Feature", "id": "776", "properties": {"status": "Implementation", "sectors": ["Transport"], "title": "INTEGRATED RURAL DEVELOPMENT SECTOR PROJECT IN THE CENTRAL PRVNCE", "approvalYear": "2007", "locationName": "T\u1ec9nh Th\u1eeba Thi\u00ean-Hu\u1ebf", "id": "46004-37097-013-LN2357"}}, {"geometry": {"type": "Point", "coordinates": [107.91667, 14.75]}, "type": "Feature", "id": "777", "properties": {"status": "Implementation", "sectors": ["Transport"], "title": "INTEGRATED RURAL DEVELOPMENT SECTOR PROJECT IN THE CENTRAL PRVNCE", "approvalYear": "2007", "locationName": "Kon Tum", "id": "46004-37097-013-LN2357"}}, {"geometry": {"type": "Point", "coordinates": [105.33333, 20.06667]}, "type": "Feature", "id": "778", "properties": {"status": "Implementation", "sectors": ["Transport"], "title": "INTEGRATED RURAL DEVELOPMENT SECTOR PROJECT IN THE CENTRAL PRVNCE", "approvalYear": "2007", "locationName": "T\u1ec9nh Thanh H\u00f3a", "id": "46004-37097-013-LN2357"}}, {"geometry": {"type": "Point", "coordinates": [107.0, 16.75]}, "type": "Feature", "id": "779", "properties": {"status": "Implementation", "sectors": ["Transport"], "title": "INTEGRATED RURAL DEVELOPMENT SECTOR PROJECT IN THE CENTRAL PRVNCE", "approvalYear": "2007", "locationName": "T\u1ec9nh Qu\u1ea3ng Tr\u1ecb", "id": "46004-37097-013-LN2357"}}, {"geometry": {"type": "Point", "coordinates": [108.66667, 15.0]}, "type": "Feature", "id": "780", "properties": {"status": "Implementation", "sectors": ["Transport"], "title": "INTEGRATED RURAL DEVELOPMENT SECTOR PROJECT IN THE CENTRAL PRVNCE", "approvalYear": "2007", "locationName": "T\u1ec9nh Qu\u1ea3ng Ng\u00e3i", "id": "46004-37097-013-LN2357"}}, {"geometry": {"type": "Point", "coordinates": [106.33333, 17.5]}, "type": "Feature", "id": "781", "properties": {"status": "Implementation", "sectors": ["Transport"], "title": "INTEGRATED RURAL DEVELOPMENT SECTOR PROJECT IN THE CENTRAL PRVNCE", "approvalYear": "2007", "locationName": "T\u1ec9nh Qu\u1ea3ng B\u00ecnh", "id": "46004-37097-013-LN2357"}}, {"geometry": {"type": "Point", "coordinates": [109.08333, 13.16667]}, "type": "Feature", "id": "782", "properties": {"status": "Implementation", "sectors": ["Transport"], "title": "INTEGRATED RURAL DEVELOPMENT SECTOR PROJECT IN THE CENTRAL PRVNCE", "approvalYear": "2007", "locationName": "T\u1ec9nh Ph\u00fa Y\u00ean", "id": "46004-37097-013-LN2357"}}, {"geometry": {"type": "Point", "coordinates": [105.75, 18.33333]}, "type": "Feature", "id": "783", "properties": {"status": "Implementation", "sectors": ["Transport"], "title": "INTEGRATED RURAL DEVELOPMENT SECTOR PROJECT IN THE CENTRAL PRVNCE", "approvalYear": "2007", "locationName": "T\u1ec9nh H\u00e0 T\u0129nh", "id": "46004-37097-013-LN2357"}}, {"geometry": {"type": "Point", "coordinates": [108.08333, 11.08333]}, "type": "Feature", "id": "784", "properties": {"status": "Implementation", "sectors": ["Transport"], "title": "INTEGRATED RURAL DEVELOPMENT SECTOR PROJECT IN THE CENTRAL PRVNCE", "approvalYear": "2007", "locationName": "T\u1ec9nh B\u00ecnh Thu\u1eadn", "id": "46004-37097-013-LN2357"}}, {"geometry": {"type": "Point", "coordinates": [109.0, 14.16667]}, "type": "Feature", "id": "785", "properties": {"status": "Implementation", "sectors": ["Transport"], "title": "INTEGRATED RURAL DEVELOPMENT SECTOR PROJECT IN THE CENTRAL PRVNCE", "approvalYear": "2007", "locationName": "T\u1ec9nh B\u00ecnh \u0110\u1ecbnh", "id": "46004-37097-013-LN2357"}}, {"geometry": {"type": "Point", "coordinates": [107.91667, 15.58333]}, "type": "Feature", "id": "786", "properties": {"status": "Implementation", "sectors": ["Transport"], "title": "INTEGRATED RURAL DEVELOPMENT SECTOR PROJECT IN THE CENTRAL PRVNCE", "approvalYear": "2007", "locationName": "T\u1ec9nh Qu\u1ea3ng Nam", "id": "46004-37097-013-LN2357"}}, {"geometry": {"type": "Point", "coordinates": [104.44904, 10.43269]}, "type": "Feature", "id": "787", "properties": {"status": "Implementation", "sectors": ["Transport"], "title": "GREATER MEKONG & SUBREGION SOUTHERN COASTAL CORRIDOR PROJECT", "approvalYear": "2008", "locationName": "Phum\u012d Pr\u00eak Chak", "id": "46004-36353-013-LN2372"}}, {"geometry": {"type": "Point", "coordinates": [104.16667, 10.66667]}, "type": "Feature", "id": "788", "properties": {"status": "Implementation", "sectors": ["Transport"], "title": "GREATER MEKONG & SUBREGION SOUTHERN COASTAL CORRIDOR PROJECT", "approvalYear": "2008", "locationName": "Sr\u014fk K\u00e2mp\u00f4t", "id": "46004-36353-013-LN2372"}}, {"geometry": {"type": "Point", "coordinates": [104.18145, 10.61041]}, "type": "Feature", "id": "789", "properties": {"status": "Implementation", "sectors": ["Transport"], "title": "GREATER MEKONG & SUBREGION SOUTHERN COASTAL CORRIDOR PROJECT", "approvalYear": "2008", "locationName": "Kampot", "id": "46004-36353-013-LN2372"}}, {"geometry": {"type": "Point", "coordinates": [104.58333, 10.58333]}, "type": "Feature", "id": "790", "properties": {"status": "Implementation", "sectors": ["Transport"], "title": "GREATER MEKONG & SUBREGION SOUTHERN COASTAL CORRIDOR PROJECT", "approvalYear": "2008", "locationName": "Sr\u014fk K\u00e2mp\u00f3ng Trach", "id": "46004-36353-013-LN2372"}}, {"geometry": {"type": "Point", "coordinates": [104.46736, 10.55876]}, "type": "Feature", "id": "791", "properties": {"status": "Implementation", "sectors": ["Transport"], "title": "GREATER MEKONG & SUBREGION SOUTHERN COASTAL CORRIDOR PROJECT", "approvalYear": "2008", "locationName": "K\u00e2mp\u00f3ng Trach", "id": "46004-36353-013-LN2372"}}, {"geometry": {"type": "Point", "coordinates": [105.08333, 9.83333]}, "type": "Feature", "id": "792", "properties": {"status": "Implementation", "sectors": ["Transport"], "title": "GREATER MEKONG & SUBREGION SOUTHERN COASTAL CORRIDOR PROJECT", "approvalYear": "2008", "locationName": "Huy\u1ec7n An Bi\u00ean", "id": "46004-36353-013-LN2372"}}, {"geometry": {"type": "Point", "coordinates": [105.0, 9.66667]}, "type": "Feature", "id": "793", "properties": {"status": "Implementation", "sectors": ["Transport"], "title": "GREATER MEKONG & SUBREGION SOUTHERN COASTAL CORRIDOR PROJECT", "approvalYear": "2008", "locationName": "Huy\u1ec7n An Minh", "id": "46004-36353-013-LN2372"}}, {"geometry": {"type": "Point", "coordinates": [105.08333, 9.08333]}, "type": "Feature", "id": "794", "properties": {"status": "Implementation", "sectors": ["Transport"], "title": "GREATER MEKONG & SUBREGION SOUTHERN COASTAL CORRIDOR PROJECT", "approvalYear": "2008", "locationName": "T\u1ec9nh C\u00e0 Mau", "id": "46004-36353-013-LN2372"}}, {"geometry": {"type": "Point", "coordinates": [105.16667, 9.41667]}, "type": "Feature", "id": "795", "properties": {"status": "Implementation", "sectors": ["Transport"], "title": "GREATER MEKONG & SUBREGION SOUTHERN COASTAL CORRIDOR PROJECT", "approvalYear": "2008", "locationName": "Huy\u1ec7n Th\u1edbi B\u00ecnh", "id": "46004-36353-013-LN2372"}}, {"geometry": {"type": "Point", "coordinates": [104.16667, 10.6]}, "type": "Feature", "id": "796", "properties": {"status": "Implementation", "sectors": ["Transport"], "title": "GREATER MEKONG & SUBREGION SOUTHERN COASTAL CORRIDOR PROJECT", "approvalYear": "2008", "locationName": "Kampong Bay", "id": "46004-36353-013-LN2372"}}, {"geometry": {"type": "Point", "coordinates": [104.46667, 10.55]}, "type": "Feature", "id": "797", "properties": {"status": "Implementation", "sectors": ["Transport"], "title": "GREATER MEKONG & SUBREGION SOUTHERN COASTAL CORRIDOR PROJECT", "approvalYear": "2008", "locationName": "Kampong Tranch", "id": "46004-36353-013-LN2372"}}, {"geometry": {"type": "Point", "coordinates": [104.53333, 10.61667]}, "type": "Feature", "id": "798", "properties": {"status": "Implementation", "sectors": ["Transport"], "title": "GREATER MEKONG & SUBREGION SOUTHERN COASTAL CORRIDOR PROJECT", "approvalYear": "2008", "locationName": "Banteay Meas", "id": "46004-36353-013-LN2372"}}, {"geometry": {"type": "Point", "coordinates": [104.45, 10.41667]}, "type": "Feature", "id": "799", "properties": {"status": "Implementation", "sectors": ["Transport"], "title": "GREATER MEKONG & SUBREGION SOUTHERN COASTAL CORRIDOR PROJECT", "approvalYear": "2008", "locationName": "X\u00f3m Xa X\u00eda", "id": "46004-36353-013-LN2372"}}, {"geometry": {"type": "Point", "coordinates": [105.08389, 9.35083]}, "type": "Feature", "id": "800", "properties": {"status": "Implementation", "sectors": ["Transport"], "title": "GREATER MEKONG & SUBREGION SOUTHERN COASTAL CORRIDOR PROJECT", "approvalYear": "2008", "locationName": "Th\u1edbi B\u00ecnh", "id": "46004-36353-013-LN2372"}}, {"geometry": {"type": "Point", "coordinates": [105.16667, 10.0]}, "type": "Feature", "id": "801", "properties": {"status": "Implementation", "sectors": ["Transport"], "title": "GREATER MEKONG & SUBREGION SOUTHERN COASTAL CORRIDOR PROJECT", "approvalYear": "2008", "locationName": "T\u1ec9nh Ki\u1ebfn Giang", "id": "46004-36353-013-LN2372"}}, {"geometry": {"type": "Point", "coordinates": [105.11222, 9.86194]}, "type": "Feature", "id": "802", "properties": {"status": "Implementation", "sectors": ["Transport"], "title": "GREATER MEKONG & SUBREGION SOUTHERN COASTAL CORRIDOR PROJECT", "approvalYear": "2008", "locationName": "Ki\u00ean An", "id": "46004-36353-013-LN2372"}}, {"geometry": {"type": "Point", "coordinates": [104.48333, 10.38333]}, "type": "Feature", "id": "803", "properties": {"status": "Implementation", "sectors": ["Transport"], "title": "GREATER MEKONG & SUBREGION SOUTHERN COASTAL CORRIDOR PROJECT", "approvalYear": "2008", "locationName": "H\u00e0 Ti\u00ean", "id": "46004-36353-013-LN2372"}}, {"geometry": {"type": "Point", "coordinates": [105.15, 9.17694]}, "type": "Feature", "id": "804", "properties": {"status": "Implementation", "sectors": ["Transport"], "title": "GREATER MEKONG & SUBREGION SOUTHERN COASTAL CORRIDOR PROJECT", "approvalYear": "2008", "locationName": "C\u00e0 Mau", "id": "46004-36353-013-LN2372"}}, {"geometry": {"type": "Point", "coordinates": [105.025, 9.76944]}, "type": "Feature", "id": "805", "properties": {"status": "Implementation", "sectors": ["Transport"], "title": "GREATER MEKONG & SUBREGION SOUTHERN COASTAL CORRIDOR PROJECT", "approvalYear": "2008", "locationName": "An Bi\u00ean", "id": "46004-36353-013-LN2372"}}, {"geometry": {"type": "Point", "coordinates": [104.68448, 22.71581]}, "type": "Feature", "id": "806", "properties": {"status": "Implementation", "sectors": ["Education"], "title": "LOWER SECONDARY EDUCATION FOR THE MOST DISADVANTAGED REGIONS", "approvalYear": "2008", "locationName": "Huy\u1ec7n Ho\u00e0ng Su Ph\u00ec", "id": "46004-36008-013-LN2384"}}, {"geometry": {"type": "Point", "coordinates": [104.11113, 21.5296]}, "type": "Feature", "id": "807", "properties": {"status": "Implementation", "sectors": ["Education"], "title": "LOWER SECONDARY EDUCATION FOR THE MOST DISADVANTAGED REGIONS", "approvalYear": "2008", "locationName": "Huy\u1ec7n M\u01b0\u1eddng La", "id": "46004-36008-013-LN2384"}}, {"geometry": {"type": "Point", "coordinates": [103.68727, 21.06971]}, "type": "Feature", "id": "808", "properties": {"status": "Implementation", "sectors": ["Education"], "title": "LOWER SECONDARY EDUCATION FOR THE MOST DISADVANTAGED REGIONS", "approvalYear": "2008", "locationName": "Huy\u1ec7n S\u00f4ng M\u00e3", "id": "46004-36008-013-LN2384"}}, {"geometry": {"type": "Point", "coordinates": [104.38501, 21.25042]}, "type": "Feature", "id": "809", "properties": {"status": "Implementation", "sectors": ["Education"], "title": "LOWER SECONDARY EDUCATION FOR THE MOST DISADVANTAGED REGIONS", "approvalYear": "2008", "locationName": "Huy\u1ec7n B\u1eafc Y\u00ean", "id": "46004-36008-013-LN2384"}}, {"geometry": {"type": "Point", "coordinates": [104.33333, 21.5]}, "type": "Feature", "id": "810", "properties": {"status": "Implementation", "sectors": ["Education"], "title": "LOWER SECONDARY EDUCATION FOR THE MOST DISADVANTAGED REGIONS", "approvalYear": "2008", "locationName": "Huy\u1ec7n Y\u00ean Ch\u00e2u", "id": "46004-36008-013-LN2384"}}, {"geometry": {"type": "Point", "coordinates": [104.75, 21.83333]}, "type": "Feature", "id": "811", "properties": {"status": "Implementation", "sectors": ["Education"], "title": "LOWER SECONDARY EDUCATION FOR THE MOST DISADVANTAGED REGIONS", "approvalYear": "2008", "locationName": "Huy\u1ec7n M\u1ed9c Ch\u00e2u", "id": "46004-36008-013-LN2384"}}, {"geometry": {"type": "Point", "coordinates": [103.41758, 21.69481]}, "type": "Feature", "id": "812", "properties": {"status": "Implementation", "sectors": ["Education"], "title": "LOWER SECONDARY EDUCATION FOR THE MOST DISADVANTAGED REGIONS", "approvalYear": "2008", "locationName": "Huy\u1ec7n Tu\u1ea7n Gi\u00e1o", "id": "46004-36008-013-LN2384"}}, {"geometry": {"type": "Point", "coordinates": [103.37332, 21.95357]}, "type": "Feature", "id": "813", "properties": {"status": "Implementation", "sectors": ["Education"], "title": "LOWER SECONDARY EDUCATION FOR THE MOST DISADVANTAGED REGIONS", "approvalYear": "2008", "locationName": "Huy\u1ec7n T\u1ee7a Ch\u00f9a", "id": "46004-36008-013-LN2384"}}, {"geometry": {"type": "Point", "coordinates": [103.27468, 22.29924]}, "type": "Feature", "id": "814", "properties": {"status": "Implementation", "sectors": ["Education"], "title": "LOWER SECONDARY EDUCATION FOR THE MOST DISADVANTAGED REGIONS", "approvalYear": "2008", "locationName": "Huy\u1ec7n S\u00ecn H\u1ed3", "id": "46004-36008-013-LN2384"}}, {"geometry": {"type": "Point", "coordinates": [103.39154, 22.6065]}, "type": "Feature", "id": "815", "properties": {"status": "Implementation", "sectors": ["Education"], "title": "LOWER SECONDARY EDUCATION FOR THE MOST DISADVANTAGED REGIONS", "approvalYear": "2008", "locationName": "Huy\u1ec7n Phong Th\u1ed5", "id": "46004-36008-013-LN2384"}}, {"geometry": {"type": "Point", "coordinates": [102.73836, 22.37443]}, "type": "Feature", "id": "816", "properties": {"status": "Implementation", "sectors": ["Education"], "title": "LOWER SECONDARY EDUCATION FOR THE MOST DISADVANTAGED REGIONS", "approvalYear": "2008", "locationName": "Huy\u1ec7n M\u01b0\u00f2ng T\u00e8", "id": "46004-36008-013-LN2384"}}, {"geometry": {"type": "Point", "coordinates": [106.56074, 22.83333]}, "type": "Feature", "id": "817", "properties": {"status": "Implementation", "sectors": ["Education"], "title": "LOWER SECONDARY EDUCATION FOR THE MOST DISADVANTAGED REGIONS", "approvalYear": "2008", "locationName": "Huy\u1ec7n Tr\u00f9ng Kh\u00e1nh", "id": "46004-36008-013-LN2384"}}, {"geometry": {"type": "Point", "coordinates": [106.67657, 22.70933]}, "type": "Feature", "id": "818", "properties": {"status": "Implementation", "sectors": ["Education"], "title": "LOWER SECONDARY EDUCATION FOR THE MOST DISADVANTAGED REGIONS", "approvalYear": "2008", "locationName": "Huy\u1ec7n H\u1ea1 Lang", "id": "46004-36008-013-LN2384"}}, {"geometry": {"type": "Point", "coordinates": [106.34237, 22.47654]}, "type": "Feature", "id": "819", "properties": {"status": "Implementation", "sectors": ["Education"], "title": "LOWER SECONDARY EDUCATION FOR THE MOST DISADVANTAGED REGIONS", "approvalYear": "2008", "locationName": "Huy\u1ec7n Th\u1ea1ch An", "id": "46004-36008-013-LN2384"}}, {"geometry": {"type": "Point", "coordinates": [105.93248, 22.624]}, "type": "Feature", "id": "820", "properties": {"status": "Implementation", "sectors": ["Education"], "title": "LOWER SECONDARY EDUCATION FOR THE MOST DISADVANTAGED REGIONS", "approvalYear": "2008", "locationName": "Huy\u1ec7n Nguy\u00ean B\u00ecnh", "id": "46004-36008-013-LN2384"}}, {"geometry": {"type": "Point", "coordinates": [105.95846, 22.80735]}, "type": "Feature", "id": "821", "properties": {"status": "Implementation", "sectors": ["Education"], "title": "LOWER SECONDARY EDUCATION FOR THE MOST DISADVANTAGED REGIONS", "approvalYear": "2008", "locationName": "Huy\u1ec7n Th\u00f4ng N\u00f4ng", "id": "46004-36008-013-LN2384"}}, {"geometry": {"type": "Point", "coordinates": [106.12487, 22.90763]}, "type": "Feature", "id": "822", "properties": {"status": "Implementation", "sectors": ["Education"], "title": "LOWER SECONDARY EDUCATION FOR THE MOST DISADVANTAGED REGIONS", "approvalYear": "2008", "locationName": "Huy\u1ec7n H\u00e0 Qu\u1ea3ng", "id": "46004-36008-013-LN2384"}}, {"geometry": {"type": "Point", "coordinates": [105.73332, 22.90085]}, "type": "Feature", "id": "823", "properties": {"status": "Implementation", "sectors": ["Education"], "title": "LOWER SECONDARY EDUCATION FOR THE MOST DISADVANTAGED REGIONS", "approvalYear": "2008", "locationName": "Huy\u1ec7n B\u1ea3o Lac", "id": "46004-36008-013-LN2384"}}, {"geometry": {"type": "Point", "coordinates": [108.32057, 14.7562]}, "type": "Feature", "id": "824", "properties": {"status": "Implementation", "sectors": ["Education"], "title": "LOWER SECONDARY EDUCATION FOR THE MOST DISADVANTAGED REGIONS", "approvalYear": "2008", "locationName": "Huy\u1ec7n Kon Pl\u00f4ng", "id": "46004-36008-013-LN2384"}}, {"geometry": {"type": "Point", "coordinates": [107.80816, 14.70087]}, "type": "Feature", "id": "825", "properties": {"status": "Implementation", "sectors": ["Education"], "title": "LOWER SECONDARY EDUCATION FOR THE MOST DISADVANTAGED REGIONS", "approvalYear": "2008", "locationName": "Huy\u1ec7n \u0110\u1eafk T\u00f4", "id": "46004-36008-013-LN2384"}}, {"geometry": {"type": "Point", "coordinates": [107.59862, 14.3205]}, "type": "Feature", "id": "826", "properties": {"status": "Implementation", "sectors": ["Education"], "title": "LOWER SECONDARY EDUCATION FOR THE MOST DISADVANTAGED REGIONS", "approvalYear": "2008", "locationName": "Huy\u1ec7n Sa Th\u1ea7y", "id": "46004-36008-013-LN2384"}}, {"geometry": {"type": "Point", "coordinates": [107.75093, 15.11358]}, "type": "Feature", "id": "827", "properties": {"status": "Implementation", "sectors": ["Education"], "title": "LOWER SECONDARY EDUCATION FOR THE MOST DISADVANTAGED REGIONS", "approvalYear": "2008", "locationName": "Huy\u1ec7n \u0110\u1eafk Glei", "id": "46004-36008-013-LN2384"}}, {"geometry": {"type": "Point", "coordinates": [104.79702, 21.66586]}, "type": "Feature", "id": "828", "properties": {"status": "Implementation", "sectors": ["Education"], "title": "LOWER SECONDARY EDUCATION FOR THE MOST DISADVANTAGED REGIONS", "approvalYear": "2008", "locationName": "Huy\u1ec7n Tr\u1ea5n Y\u00ean", "id": "46004-36008-013-LN2384"}}, {"geometry": {"type": "Point", "coordinates": [104.64038, 21.55722]}, "type": "Feature", "id": "829", "properties": {"status": "Implementation", "sectors": ["Education"], "title": "LOWER SECONDARY EDUCATION FOR THE MOST DISADVANTAGED REGIONS", "approvalYear": "2008", "locationName": "Huy\u1ec7n V\u0103n Ch\u1ea5n", "id": "46004-36008-013-LN2384"}}, {"geometry": {"type": "Point", "coordinates": [104.56669, 21.90022]}, "type": "Feature", "id": "830", "properties": {"status": "Implementation", "sectors": ["Education"], "title": "LOWER SECONDARY EDUCATION FOR THE MOST DISADVANTAGED REGIONS", "approvalYear": "2008", "locationName": "Huy\u1ec7n V\u0103n Y\u00ean", "id": "46004-36008-013-LN2384"}}, {"geometry": {"type": "Point", "coordinates": [104.72538, 22.10235]}, "type": "Feature", "id": "831", "properties": {"status": "Implementation", "sectors": ["Education"], "title": "LOWER SECONDARY EDUCATION FOR THE MOST DISADVANTAGED REGIONS", "approvalYear": "2008", "locationName": "Huy\u1ec7n L\u1ee5c Y\u00ean", "id": "46004-36008-013-LN2384"}}, {"geometry": {"type": "Point", "coordinates": [104.42756, 21.48553]}, "type": "Feature", "id": "832", "properties": {"status": "Implementation", "sectors": ["Education"], "title": "LOWER SECONDARY EDUCATION FOR THE MOST DISADVANTAGED REGIONS", "approvalYear": "2008", "locationName": "Huy\u1ec7n Tr\u1ea1m T\u1ea5u", "id": "46004-36008-013-LN2384"}}, {"geometry": {"type": "Point", "coordinates": [104.11998, 21.78815]}, "type": "Feature", "id": "833", "properties": {"status": "Implementation", "sectors": ["Education"], "title": "LOWER SECONDARY EDUCATION FOR THE MOST DISADVANTAGED REGIONS", "approvalYear": "2008", "locationName": "Huy\u1ec7n M\u00f9 Cang Ch\u1ea3i", "id": "46004-36008-013-LN2384"}}, {"geometry": {"type": "Point", "coordinates": [105.5728, 22.18681]}, "type": "Feature", "id": "834", "properties": {"status": "Implementation", "sectors": ["Education"], "title": "LOWER SECONDARY EDUCATION FOR THE MOST DISADVANTAGED REGIONS", "approvalYear": "2008", "locationName": "Huy\u1ec7n Ch\u1ee3 \u0110\u1ed3n", "id": "46004-36008-013-LN2384"}}, {"geometry": {"type": "Point", "coordinates": [105.75, 22.41667]}, "type": "Feature", "id": "835", "properties": {"status": "Implementation", "sectors": ["Education"], "title": "LOWER SECONDARY EDUCATION FOR THE MOST DISADVANTAGED REGIONS", "approvalYear": "2008", "locationName": "Huy\u1ec7n Ba B\u1ec3", "id": "46004-36008-013-LN2384"}}, {"geometry": {"type": "Point", "coordinates": [106.0103, 22.42962]}, "type": "Feature", "id": "836", "properties": {"status": "Implementation", "sectors": ["Education"], "title": "LOWER SECONDARY EDUCATION FOR THE MOST DISADVANTAGED REGIONS", "approvalYear": "2008", "locationName": "Huy\u1ec7n Ng\u00e2n S\u01a1n", "id": "46004-36008-013-LN2384"}}, {"geometry": {"type": "Point", "coordinates": [106.11221, 22.17883]}, "type": "Feature", "id": "837", "properties": {"status": "Implementation", "sectors": ["Education"], "title": "LOWER SECONDARY EDUCATION FOR THE MOST DISADVANTAGED REGIONS", "approvalYear": "2008", "locationName": "Huy\u1ec7n Na R\u00ec", "id": "46004-36008-013-LN2384"}}, {"geometry": {"type": "Point", "coordinates": [105.16667, 9.41667]}, "type": "Feature", "id": "838", "properties": {"status": "Implementation", "sectors": ["Education"], "title": "LOWER SECONDARY EDUCATION FOR THE MOST DISADVANTAGED REGIONS", "approvalYear": "2008", "locationName": "Huy\u1ec7n Th\u1edbi B\u00ecnh", "id": "46004-36008-013-LN2384"}}, {"geometry": {"type": "Point", "coordinates": [104.91667, 9.41667]}, "type": "Feature", "id": "839", "properties": {"status": "Implementation", "sectors": ["Education"], "title": "LOWER SECONDARY EDUCATION FOR THE MOST DISADVANTAGED REGIONS", "approvalYear": "2008", "locationName": "Huy\u1ec7n U Minh", "id": "46004-36008-013-LN2384"}}, {"geometry": {"type": "Point", "coordinates": [104.91667, 9.16667]}, "type": "Feature", "id": "840", "properties": {"status": "Implementation", "sectors": ["Education"], "title": "LOWER SECONDARY EDUCATION FOR THE MOST DISADVANTAGED REGIONS", "approvalYear": "2008", "locationName": "Huy\u1ec7n Tr\u1ea7n V\u0103n Th\u1eddi", "id": "46004-36008-013-LN2384"}}, {"geometry": {"type": "Point", "coordinates": [105.25, 9.0]}, "type": "Feature", "id": "841", "properties": {"status": "Implementation", "sectors": ["Education"], "title": "LOWER SECONDARY EDUCATION FOR THE MOST DISADVANTAGED REGIONS", "approvalYear": "2008", "locationName": "Huy\u1ec7n \u0110\u1ea7m D\u01a1i", "id": "46004-36008-013-LN2384"}}, {"geometry": {"type": "Point", "coordinates": [105.0, 8.66667]}, "type": "Feature", "id": "842", "properties": {"status": "Implementation", "sectors": ["Education"], "title": "LOWER SECONDARY EDUCATION FOR THE MOST DISADVANTAGED REGIONS", "approvalYear": "2008", "locationName": "Huy\u1ec7n Ng\u1ecdc Hi\u1ec3n", "id": "46004-36008-013-LN2384"}}, {"geometry": {"type": "Point", "coordinates": [108.21042, 12.31988]}, "type": "Feature", "id": "843", "properties": {"status": "Implementation", "sectors": ["Education"], "title": "LOWER SECONDARY EDUCATION FOR THE MOST DISADVANTAGED REGIONS", "approvalYear": "2008", "locationName": "Huy\u1ec7n L\u1eafk", "id": "46004-36008-013-LN2384"}}, {"geometry": {"type": "Point", "coordinates": [108.51529, 12.78609]}, "type": "Feature", "id": "844", "properties": {"status": "Implementation", "sectors": ["Education"], "title": "LOWER SECONDARY EDUCATION FOR THE MOST DISADVANTAGED REGIONS", "approvalYear": "2008", "locationName": "Huy\u1ec7n Ea Kar", "id": "46004-36008-013-LN2384"}}, {"geometry": {"type": "Point", "coordinates": [108.82262, 12.69833]}, "type": "Feature", "id": "845", "properties": {"status": "Implementation", "sectors": ["Education"], "title": "LOWER SECONDARY EDUCATION FOR THE MOST DISADVANTAGED REGIONS", "approvalYear": "2008", "locationName": "Huy\u1ec7n M\u2019\u0110r\u1eafk", "id": "46004-36008-013-LN2384"}}, {"geometry": {"type": "Point", "coordinates": [108.41667, 13.0]}, "type": "Feature", "id": "846", "properties": {"status": "Implementation", "sectors": ["Education"], "title": "LOWER SECONDARY EDUCATION FOR THE MOST DISADVANTAGED REGIONS", "approvalYear": "2008", "locationName": "Huy\u1ec7n Kr\u00f4ng N\u0103ng", "id": "46004-36008-013-LN2384"}}, {"geometry": {"type": "Point", "coordinates": [108.07148, 13.31814]}, "type": "Feature", "id": "847", "properties": {"status": "Implementation", "sectors": ["Education"], "title": "LOWER SECONDARY EDUCATION FOR THE MOST DISADVANTAGED REGIONS", "approvalYear": "2008", "locationName": "Huy\u1ec7n Ea H'Leo", "id": "46004-36008-013-LN2384"}}, {"geometry": {"type": "Point", "coordinates": [103.59342, 22.35391]}, "type": "Feature", "id": "848", "properties": {"status": "Implementation", "sectors": ["Education"], "title": "LOWER SECONDARY EDUCATION FOR THE MOST DISADVANTAGED REGIONS", "approvalYear": "2008", "locationName": "Huy\u1ec7n Tam \u0110\u01b0\u1eddng", "id": "46004-36008-013-LN2384"}}, {"geometry": {"type": "Point", "coordinates": [104.27326, 22.67161]}, "type": "Feature", "id": "849", "properties": {"status": "Implementation", "sectors": ["Education"], "title": "LOWER SECONDARY EDUCATION FOR THE MOST DISADVANTAGED REGIONS", "approvalYear": "2008", "locationName": "Huy\u1ec7n Si Ma Cai", "id": "46004-36008-013-LN2384"}}, {"geometry": {"type": "Point", "coordinates": [104.66018, 22.41507]}, "type": "Feature", "id": "850", "properties": {"status": "Implementation", "sectors": ["Education"], "title": "LOWER SECONDARY EDUCATION FOR THE MOST DISADVANTAGED REGIONS", "approvalYear": "2008", "locationName": "Huy\u1ec7n Quang B\u00ecnh", "id": "46004-36008-013-LN2384"}}, {"geometry": {"type": "Point", "coordinates": [102.58465, 22.10353]}, "type": "Feature", "id": "851", "properties": {"status": "Implementation", "sectors": ["Education"], "title": "LOWER SECONDARY EDUCATION FOR THE MOST DISADVANTAGED REGIONS", "approvalYear": "2008", "locationName": "Huy\u1ec7n M\u01b0\u1eddng Nh\u00e9", "id": "46004-36008-013-LN2384"}}, {"geometry": {"type": "Point", "coordinates": [103.05928, 21.8569]}, "type": "Feature", "id": "852", "properties": {"status": "Implementation", "sectors": ["Education"], "title": "LOWER SECONDARY EDUCATION FOR THE MOST DISADVANTAGED REGIONS", "approvalYear": "2008", "locationName": "Huy\u1ec7n M\u01b0\u1eddng Ch\u00e0", "id": "46004-36008-013-LN2384"}}, {"geometry": {"type": "Point", "coordinates": [105.4878, 22.87041]}, "type": "Feature", "id": "853", "properties": {"status": "Implementation", "sectors": ["Education"], "title": "LOWER SECONDARY EDUCATION FOR THE MOST DISADVANTAGED REGIONS", "approvalYear": "2008", "locationName": "Huy\u1ec7n B\u1ea3o L\u00e2m", "id": "46004-36008-013-LN2384"}}, {"geometry": {"type": "Point", "coordinates": [107.94004, 14.90187]}, "type": "Feature", "id": "854", "properties": {"status": "Implementation", "sectors": ["Education"], "title": "LOWER SECONDARY EDUCATION FOR THE MOST DISADVANTAGED REGIONS", "approvalYear": "2008", "locationName": "Huy\u1ec7n Tu M\u01a1 R\u00f4n", "id": "46004-36008-013-LN2384"}}, {"geometry": {"type": "Point", "coordinates": [108.1713, 14.53258]}, "type": "Feature", "id": "855", "properties": {"status": "Implementation", "sectors": ["Education"], "title": "LOWER SECONDARY EDUCATION FOR THE MOST DISADVANTAGED REGIONS", "approvalYear": "2008", "locationName": "Huy\u1ec7n Kon R\u1eaby", "id": "46004-36008-013-LN2384"}}, {"geometry": {"type": "Point", "coordinates": [108.3218, 13.49046]}, "type": "Feature", "id": "856", "properties": {"status": "Implementation", "sectors": ["Education"], "title": "LOWER SECONDARY EDUCATION FOR THE MOST DISADVANTAGED REGIONS", "approvalYear": "2008", "locationName": "Huy\u1ec7n Ph\u00fa Thi\u1ec7n", "id": "46004-36008-013-LN2384"}}, {"geometry": {"type": "Point", "coordinates": [108.53879, 13.5161]}, "type": "Feature", "id": "857", "properties": {"status": "Implementation", "sectors": ["Education"], "title": "LOWER SECONDARY EDUCATION FOR THE MOST DISADVANTAGED REGIONS", "approvalYear": "2008", "locationName": "Huy\u1ec7n Ia Pa", "id": "46004-36008-013-LN2384"}}, {"geometry": {"type": "Point", "coordinates": [108.61183, 13.92068]}, "type": "Feature", "id": "858", "properties": {"status": "Implementation", "sectors": ["Education"], "title": "LOWER SECONDARY EDUCATION FOR THE MOST DISADVANTAGED REGIONS", "approvalYear": "2008", "locationName": "Huy\u1ec7n \u0110ak P\u01a1", "id": "46004-36008-013-LN2384"}}, {"geometry": {"type": "Point", "coordinates": [103.49743, 20.88745]}, "type": "Feature", "id": "859", "properties": {"status": "Implementation", "sectors": ["Education"], "title": "LOWER SECONDARY EDUCATION FOR THE MOST DISADVANTAGED REGIONS", "approvalYear": "2008", "locationName": "Huyen Sop Cop", "id": "46004-36008-013-LN2384"}}, {"geometry": {"type": "Point", "coordinates": [107.80235, 12.10136]}, "type": "Feature", "id": "860", "properties": {"status": "Implementation", "sectors": ["Education"], "title": "LOWER SECONDARY EDUCATION FOR THE MOST DISADVANTAGED REGIONS", "approvalYear": "2008", "locationName": "Huyen Dak Glong", "id": "46004-36008-013-LN2384"}}, {"geometry": {"type": "Point", "coordinates": [107.7, 11.98333]}, "type": "Feature", "id": "861", "properties": {"status": "Implementation", "sectors": ["Education"], "title": "LOWER SECONDARY EDUCATION FOR THE MOST DISADVANTAGED REGIONS", "approvalYear": "2008", "locationName": "Huyen Gia Nghia", "id": "46004-36008-013-LN2384"}}, {"geometry": {"type": "Point", "coordinates": [107.43423, 12.15761]}, "type": "Feature", "id": "862", "properties": {"status": "Implementation", "sectors": ["Education"], "title": "LOWER SECONDARY EDUCATION FOR THE MOST DISADVANTAGED REGIONS", "approvalYear": "2008", "locationName": "Huyen Tuy Duc", "id": "46004-36008-013-LN2384"}}, {"geometry": {"type": "Point", "coordinates": [107.62168, 12.23283]}, "type": "Feature", "id": "863", "properties": {"status": "Implementation", "sectors": ["Education"], "title": "LOWER SECONDARY EDUCATION FOR THE MOST DISADVANTAGED REGIONS", "approvalYear": "2008", "locationName": "Huyen Dak Song", "id": "46004-36008-013-LN2384"}}, {"geometry": {"type": "Point", "coordinates": [108.85515, 11.48504]}, "type": "Feature", "id": "864", "properties": {"status": "Implementation", "sectors": ["Education"], "title": "LOWER SECONDARY EDUCATION FOR THE MOST DISADVANTAGED REGIONS", "approvalYear": "2008", "locationName": "Huyen Ninh Phuoc", "id": "46004-36008-013-LN2384"}}, {"geometry": {"type": "Point", "coordinates": [108.85515, 11.83342]}, "type": "Feature", "id": "865", "properties": {"status": "Implementation", "sectors": ["Education"], "title": "LOWER SECONDARY EDUCATION FOR THE MOST DISADVANTAGED REGIONS", "approvalYear": "2008", "locationName": "Huyen Bac Ai", "id": "46004-36008-013-LN2384"}}, {"geometry": {"type": "Point", "coordinates": [104.59, 10.24892]}, "type": "Feature", "id": "866", "properties": {"status": "Implementation", "sectors": ["Education"], "title": "LOWER SECONDARY EDUCATION FOR THE MOST DISADVANTAGED REGIONS", "approvalYear": "2008", "locationName": "Huyen Kien Luong", "id": "46004-36008-013-LN2384"}}, {"geometry": {"type": "Point", "coordinates": [105.59476, 9.56127]}, "type": "Feature", "id": "867", "properties": {"status": "Implementation", "sectors": ["Education"], "title": "LOWER SECONDARY EDUCATION FOR THE MOST DISADVANTAGED REGIONS", "approvalYear": "2008", "locationName": "Huyen Nga Nam", "id": "46004-36008-013-LN2384"}}, {"geometry": {"type": "Point", "coordinates": [105.05574, 8.81531]}, "type": "Feature", "id": "868", "properties": {"status": "Implementation", "sectors": ["Education"], "title": "LOWER SECONDARY EDUCATION FOR THE MOST DISADVANTAGED REGIONS", "approvalYear": "2008", "locationName": "Huyen Nam Can", "id": "46004-36008-013-LN2384"}}, {"geometry": {"type": "Point", "coordinates": [106.45, 9.91667]}, "type": "Feature", "id": "869", "properties": {"status": "Implementation", "sectors": ["Education"], "title": "LOWER SECONDARY EDUCATION FOR THE MOST DISADVANTAGED REGIONS", "approvalYear": "2008", "locationName": "Huy\u1ec7n Ch\u00e2u Th\u00e0nh", "id": "46004-36008-013-LN2384"}}, {"geometry": {"type": "Point", "coordinates": [106.41667, 9.83333]}, "type": "Feature", "id": "870", "properties": {"status": "Implementation", "sectors": ["Education"], "title": "LOWER SECONDARY EDUCATION FOR THE MOST DISADVANTAGED REGIONS", "approvalYear": "2008", "locationName": "Huy\u1ec7n C\u1ea7u Ngang", "id": "46004-36008-013-LN2384"}}, {"geometry": {"type": "Point", "coordinates": [106.16667, 9.83333]}, "type": "Feature", "id": "871", "properties": {"status": "Implementation", "sectors": ["Education"], "title": "LOWER SECONDARY EDUCATION FOR THE MOST DISADVANTAGED REGIONS", "approvalYear": "2008", "locationName": "Huy\u1ec7n Ti\u1ec3u C\u1ea7n", "id": "46004-36008-013-LN2384"}}, {"geometry": {"type": "Point", "coordinates": [106.33333, 9.66667]}, "type": "Feature", "id": "872", "properties": {"status": "Implementation", "sectors": ["Education"], "title": "LOWER SECONDARY EDUCATION FOR THE MOST DISADVANTAGED REGIONS", "approvalYear": "2008", "locationName": "Huy\u1ec7n Tr\u00e0 C\u00fa", "id": "46004-36008-013-LN2384"}}, {"geometry": {"type": "Point", "coordinates": [106.41667, 9.58333]}, "type": "Feature", "id": "873", "properties": {"status": "Implementation", "sectors": ["Education"], "title": "LOWER SECONDARY EDUCATION FOR THE MOST DISADVANTAGED REGIONS", "approvalYear": "2008", "locationName": "Huy\u1ec7n Duy\u00ean H\u1ea3i", "id": "46004-36008-013-LN2384"}}, {"geometry": {"type": "Point", "coordinates": [106.13333, 9.58333]}, "type": "Feature", "id": "874", "properties": {"status": "Implementation", "sectors": ["Education"], "title": "LOWER SECONDARY EDUCATION FOR THE MOST DISADVANTAGED REGIONS", "approvalYear": "2008", "locationName": "Huy\u1ec7n Long Ph\u00fa", "id": "46004-36008-013-LN2384"}}, {"geometry": {"type": "Point", "coordinates": [105.78333, 9.63333]}, "type": "Feature", "id": "875", "properties": {"status": "Implementation", "sectors": ["Education"], "title": "LOWER SECONDARY EDUCATION FOR THE MOST DISADVANTAGED REGIONS", "approvalYear": "2008", "locationName": "M\u1ef9 T\u00fa Huy\u1ec7n", "id": "46004-36008-013-LN2384"}}, {"geometry": {"type": "Point", "coordinates": [105.78333, 9.41667]}, "type": "Feature", "id": "876", "properties": {"status": "Implementation", "sectors": ["Education"], "title": "LOWER SECONDARY EDUCATION FOR THE MOST DISADVANTAGED REGIONS", "approvalYear": "2008", "locationName": "Huy\u1ec7n M\u1ef9 Xuy\u00ean", "id": "46004-36008-013-LN2384"}}, {"geometry": {"type": "Point", "coordinates": [105.33333, 9.75]}, "type": "Feature", "id": "877", "properties": {"status": "Implementation", "sectors": ["Education"], "title": "LOWER SECONDARY EDUCATION FOR THE MOST DISADVANTAGED REGIONS", "approvalYear": "2008", "locationName": "Huy\u1ec7n G\u00f2 Quao", "id": "46004-36008-013-LN2384"}}, {"geometry": {"type": "Point", "coordinates": [105.08333, 9.83333]}, "type": "Feature", "id": "878", "properties": {"status": "Implementation", "sectors": ["Education"], "title": "LOWER SECONDARY EDUCATION FOR THE MOST DISADVANTAGED REGIONS", "approvalYear": "2008", "locationName": "Huy\u1ec7n An Bi\u00ean", "id": "46004-36008-013-LN2384"}}, {"geometry": {"type": "Point", "coordinates": [105.16667, 9.58333]}, "type": "Feature", "id": "879", "properties": {"status": "Implementation", "sectors": ["Education"], "title": "LOWER SECONDARY EDUCATION FOR THE MOST DISADVANTAGED REGIONS", "approvalYear": "2008", "locationName": "Huy\u1ec7n V\u0129nh Thu\u1eadn", "id": "46004-36008-013-LN2384"}}, {"geometry": {"type": "Point", "coordinates": [104.91667, 10.25]}, "type": "Feature", "id": "880", "properties": {"status": "Implementation", "sectors": ["Education"], "title": "LOWER SECONDARY EDUCATION FOR THE MOST DISADVANTAGED REGIONS", "approvalYear": "2008", "locationName": "Huy\u1ec7n H\u00f2n \u0110\u1ea5t", "id": "46004-36008-013-LN2384"}}, {"geometry": {"type": "Point", "coordinates": [109.1271, 11.61062]}, "type": "Feature", "id": "881", "properties": {"status": "Implementation", "sectors": ["Education"], "title": "LOWER SECONDARY EDUCATION FOR THE MOST DISADVANTAGED REGIONS", "approvalYear": "2008", "locationName": "Huy\u1ec7n Ninh H\u1ea3i", "id": "46004-36008-013-LN2384"}}, {"geometry": {"type": "Point", "coordinates": [108.7708, 11.70827]}, "type": "Feature", "id": "882", "properties": {"status": "Implementation", "sectors": ["Education"], "title": "LOWER SECONDARY EDUCATION FOR THE MOST DISADVANTAGED REGIONS", "approvalYear": "2008", "locationName": "Huy\u1ec7n Ninh S\u01a1n", "id": "46004-36008-013-LN2384"}}, {"geometry": {"type": "Point", "coordinates": [107.7374, 13.98937]}, "type": "Feature", "id": "883", "properties": {"status": "Implementation", "sectors": ["Education"], "title": "LOWER SECONDARY EDUCATION FOR THE MOST DISADVANTAGED REGIONS", "approvalYear": "2008", "locationName": "Huy\u1ec7n Ia Grai", "id": "46004-36008-013-LN2384"}}, {"geometry": {"type": "Point", "coordinates": [107.81099, 13.59976]}, "type": "Feature", "id": "884", "properties": {"status": "Implementation", "sectors": ["Education"], "title": "LOWER SECONDARY EDUCATION FOR THE MOST DISADVANTAGED REGIONS", "approvalYear": "2008", "locationName": "Huy\u1ec7n Ch\u01b0 Pr\u00f4ng", "id": "46004-36008-013-LN2384"}}, {"geometry": {"type": "Point", "coordinates": [108.08663, 13.74254]}, "type": "Feature", "id": "885", "properties": {"status": "Implementation", "sectors": ["Education"], "title": "LOWER SECONDARY EDUCATION FOR THE MOST DISADVANTAGED REGIONS", "approvalYear": "2008", "locationName": "Huy\u1ec7n Ch\u01b0 S\u00ea", "id": "46004-36008-013-LN2384"}}, {"geometry": {"type": "Point", "coordinates": [108.30246, 13.9284]}, "type": "Feature", "id": "886", "properties": {"status": "Implementation", "sectors": ["Education"], "title": "LOWER SECONDARY EDUCATION FOR THE MOST DISADVANTAGED REGIONS", "approvalYear": "2008", "locationName": "Huy\u1ec7n Mang Yang", "id": "46004-36008-013-LN2384"}}, {"geometry": {"type": "Point", "coordinates": [108.4978, 14.30506]}, "type": "Feature", "id": "887", "properties": {"status": "Implementation", "sectors": ["Education"], "title": "LOWER SECONDARY EDUCATION FOR THE MOST DISADVANTAGED REGIONS", "approvalYear": "2008", "locationName": "Huy\u1ec7n KBang", "id": "46004-36008-013-LN2384"}}, {"geometry": {"type": "Point", "coordinates": [107.52244, 11.8799]}, "type": "Feature", "id": "888", "properties": {"status": "Implementation", "sectors": ["Education"], "title": "LOWER SECONDARY EDUCATION FOR THE MOST DISADVANTAGED REGIONS", "approvalYear": "2008", "locationName": "Huy\u1ec7n \u0110\u1eafk R\u2019L\u00e2\u0301p", "id": "46004-36008-013-LN2384"}}, {"geometry": {"type": "Point", "coordinates": [107.7387, 12.90396]}, "type": "Feature", "id": "889", "properties": {"status": "Implementation", "sectors": ["Education"], "title": "LOWER SECONDARY EDUCATION FOR THE MOST DISADVANTAGED REGIONS", "approvalYear": "2008", "locationName": "Huy\u1ec7n Bu\u00f4n \u0110\u00f4n", "id": "46004-36008-013-LN2384"}}, {"geometry": {"type": "Point", "coordinates": [107.79954, 13.18279]}, "type": "Feature", "id": "890", "properties": {"status": "Implementation", "sectors": ["Education"], "title": "LOWER SECONDARY EDUCATION FOR THE MOST DISADVANTAGED REGIONS", "approvalYear": "2008", "locationName": "Huy\u1ec7n Ea S\u00fap", "id": "46004-36008-013-LN2384"}}, {"geometry": {"type": "Point", "coordinates": [103.71339, 22.56767]}, "type": "Feature", "id": "891", "properties": {"status": "Implementation", "sectors": ["Education"], "title": "LOWER SECONDARY EDUCATION FOR THE MOST DISADVANTAGED REGIONS", "approvalYear": "2008", "locationName": "Huy\u1ec7n B\u00e1t X\u00e1t", "id": "46004-36008-013-LN2384"}}, {"geometry": {"type": "Point", "coordinates": [104.11772, 22.6711]}, "type": "Feature", "id": "892", "properties": {"status": "Implementation", "sectors": ["Education"], "title": "LOWER SECONDARY EDUCATION FOR THE MOST DISADVANTAGED REGIONS", "approvalYear": "2008", "locationName": "Huy\u1ec7n M\u01b0\u1eddng Kh\u01b0\u01a1ng", "id": "46004-36008-013-LN2384"}}, {"geometry": {"type": "Point", "coordinates": [104.30769, 22.50998]}, "type": "Feature", "id": "893", "properties": {"status": "Implementation", "sectors": ["Education"], "title": "LOWER SECONDARY EDUCATION FOR THE MOST DISADVANTAGED REGIONS", "approvalYear": "2008", "locationName": "Huy\u1ec7n B\u1eafc H\u00e0", "id": "46004-36008-013-LN2384"}}, {"geometry": {"type": "Point", "coordinates": [103.79547, 22.03651]}, "type": "Feature", "id": "894", "properties": {"status": "Implementation", "sectors": ["Education"], "title": "LOWER SECONDARY EDUCATION FOR THE MOST DISADVANTAGED REGIONS", "approvalYear": "2008", "locationName": "Huy\u1ec7n Than Uy\u00ean", "id": "46004-36008-013-LN2384"}}, {"geometry": {"type": "Point", "coordinates": [105.29023, 22.75477]}, "type": "Feature", "id": "895", "properties": {"status": "Implementation", "sectors": ["Education"], "title": "LOWER SECONDARY EDUCATION FOR THE MOST DISADVANTAGED REGIONS", "approvalYear": "2008", "locationName": "Huy\u1ec7n B\u1eafc M\u00ea", "id": "46004-36008-013-LN2384"}}, {"geometry": {"type": "Point", "coordinates": [105.17864, 23.06992]}, "type": "Feature", "id": "896", "properties": {"status": "Implementation", "sectors": ["Education"], "title": "LOWER SECONDARY EDUCATION FOR THE MOST DISADVANTAGED REGIONS", "approvalYear": "2008", "locationName": "Huy\u1ec7n Y\u00ean Minh", "id": "46004-36008-013-LN2384"}}, {"geometry": {"type": "Point", "coordinates": [104.97241, 23.08011]}, "type": "Feature", "id": "897", "properties": {"status": "Implementation", "sectors": ["Education"], "title": "LOWER SECONDARY EDUCATION FOR THE MOST DISADVANTAGED REGIONS", "approvalYear": "2008", "locationName": "Huy\u1ec7n Qu\u1ea3n B\u1ea1", "id": "46004-36008-013-LN2384"}}, {"geometry": {"type": "Point", "coordinates": [105.27626, 23.25449]}, "type": "Feature", "id": "898", "properties": {"status": "Implementation", "sectors": ["Education"], "title": "LOWER SECONDARY EDUCATION FOR THE MOST DISADVANTAGED REGIONS", "approvalYear": "2008", "locationName": "Huy\u1ec7n \u0110\u1ed3ng V\u0103n", "id": "46004-36008-013-LN2384"}}, {"geometry": {"type": "Point", "coordinates": [105.43844, 23.14075]}, "type": "Feature", "id": "899", "properties": {"status": "Implementation", "sectors": ["Education"], "title": "LOWER SECONDARY EDUCATION FOR THE MOST DISADVANTAGED REGIONS", "approvalYear": "2008", "locationName": "Huy\u1ec7n M\u00e8o V\u1ea1c", "id": "46004-36008-013-LN2384"}}, {"geometry": {"type": "Point", "coordinates": [104.52088, 22.64148]}, "type": "Feature", "id": "900", "properties": {"status": "Implementation", "sectors": ["Education"], "title": "LOWER SECONDARY EDUCATION FOR THE MOST DISADVANTAGED REGIONS", "approvalYear": "2008", "locationName": "Huy\u1ec7n X\u00edn M\u1ea7n", "id": "46004-36008-013-LN2384"}}, {"geometry": {"type": "Point", "coordinates": [105.81667, 21.21667]}, "type": "Feature", "id": "901", "properties": {"status": "Implementation", "sectors": ["Transport", "Information and communication technology"], "title": "GMS-KUNMING-HAI PHONG TRANSPORT CORRIDOR-NOI-BAI-LAO CAI HW PRJ", "approvalYear": "2008", "locationName": "N\u1ed9i B\u00e0i", "id": "46004-33307-023-LN2391"}}, {"geometry": {"type": "Point", "coordinates": [103.97066, 22.48556]}, "type": "Feature", "id": "902", "properties": {"status": "Implementation", "sectors": ["Transport", "Information and communication technology"], "title": "GMS-KUNMING-HAI PHONG TRANSPORT CORRIDOR-NOI-BAI-LAO CAI HW PRJ", "approvalYear": "2008", "locationName": "L\u00e0o Cai", "id": "46004-33307-023-LN2391"}}, {"geometry": {"type": "Point", "coordinates": [103.99502, 22.41944]}, "type": "Feature", "id": "903", "properties": {"status": "Implementation", "sectors": ["Transport", "Information and communication technology"], "title": "GMS-KUNMING-HAI PHONG TRANSPORT CORRIDOR-NOI-BAI-LAO CAI HW PRJ", "approvalYear": "2008", "locationName": "Th\u00e0nh Ph\u1ed1 L\u00e0o Cai", "id": "46004-33307-023-LN2391"}}, {"geometry": {"type": "Point", "coordinates": [105.82976, 21.27098]}, "type": "Feature", "id": "904", "properties": {"status": "Implementation", "sectors": ["Transport", "Information and communication technology"], "title": "GMS-KUNMING-HAI PHONG TRANSPORT CORRIDOR-NOI-BAI-LAO CAI HW PRJ", "approvalYear": "2008", "locationName": "Huy\u1ec7n S\u00f3c S\u01a1n", "id": "46004-33307-023-LN2391"}}, {"geometry": {"type": "Point", "coordinates": [105.81667, 21.21667]}, "type": "Feature", "id": "905", "properties": {"status": "Implementation", "sectors": ["Transport"], "title": "GMS:KUNMING-HAI PHONG TRANSPORT CORRIDOR NOI BAI-LAO CAI HWAY PRO", "approvalYear": "2008", "locationName": "N\u1ed9i B\u00e0i", "id": "46004-33307-023-LN2392"}}, {"geometry": {"type": "Point", "coordinates": [103.97066, 22.48556]}, "type": "Feature", "id": "906", "properties": {"status": "Implementation", "sectors": ["Transport"], "title": "GMS:KUNMING-HAI PHONG TRANSPORT CORRIDOR NOI BAI-LAO CAI HWAY PRO", "approvalYear": "2008", "locationName": "L\u00e0o Cai", "id": "46004-33307-023-LN2392"}}, {"geometry": {"type": "Point", "coordinates": [103.99502, 22.41944]}, "type": "Feature", "id": "907", "properties": {"status": "Implementation", "sectors": ["Transport"], "title": "GMS:KUNMING-HAI PHONG TRANSPORT CORRIDOR NOI BAI-LAO CAI HWAY PRO", "approvalYear": "2008", "locationName": "Th\u00e0nh Ph\u1ed1 L\u00e0o Cai", "id": "46004-33307-023-LN2392"}}, {"geometry": {"type": "Point", "coordinates": [105.82976, 21.27098]}, "type": "Feature", "id": "908", "properties": {"status": "Implementation", "sectors": ["Transport"], "title": "GMS:KUNMING-HAI PHONG TRANSPORT CORRIDOR NOI BAI-LAO CAI HWAY PRO", "approvalYear": "2008", "locationName": "Huy\u1ec7n S\u00f3c S\u01a1n", "id": "46004-33307-023-LN2392"}}, {"geometry": {"type": "Point", "coordinates": [107.60267, 15.63201]}, "type": "Feature", "id": "909", "properties": {"status": "Implementation", "sectors": ["Energy"], "title": "SONG BUNG 4 HYDROPOWER PROJECT", "approvalYear": "2008", "locationName": "Huy\u1ec7n Nam Giang", "id": "46004-36352-013-LN2429"}}, {"geometry": {"type": "Point", "coordinates": [106.62965, 10.82302]}, "type": "Feature", "id": "910", "properties": {"status": "Implementation", "sectors": ["Transport", "Information and communication technology"], "title": "HO CHI MINH CITY-LONG THANH-DAU GIAY EXPRESSWAY CONSTRUCTION PRJ", "approvalYear": "2009", "locationName": "Ho Chi Minh City", "id": "46004-40198-023-LN2451"}}, {"geometry": {"type": "Point", "coordinates": [106.95, 10.78333]}, "type": "Feature", "id": "911", "properties": {"status": "Implementation", "sectors": ["Transport", "Information and communication technology"], "title": "HO CHI MINH CITY-LONG THANH-DAU GIAY EXPRESSWAY CONSTRUCTION PRJ", "approvalYear": "2009", "locationName": "Long Th\u00e0nh", "id": "46004-40198-023-LN2451"}}, {"geometry": {"type": "Point", "coordinates": [106.62978, 10.82327]}, "type": "Feature", "id": "912", "properties": {"status": "Implementation", "sectors": ["Transport", "Information and communication technology"], "title": "HO CHI MINH CITY-LONG THANH-DAU GIAY EXPRESSWAY CONSTRUCTION PRJ", "approvalYear": "2009", "locationName": "Ho Chi Minh City", "id": "46004-40198-023-LN2451"}}, {"geometry": {"type": "Point", "coordinates": [107.16667, 11.0]}, "type": "Feature", "id": "913", "properties": {"status": "Implementation", "sectors": ["Transport", "Information and communication technology"], "title": "HO CHI MINH CITY-LONG THANH-DAU GIAY EXPRESSWAY CONSTRUCTION PRJ", "approvalYear": "2009", "locationName": "T\u1ec9nh \u0110\u1ed3ng Nai", "id": "46004-40198-023-LN2451"}}, {"geometry": {"type": "Point", "coordinates": [106.76667, 10.75]}, "type": "Feature", "id": "914", "properties": {"status": "Implementation", "sectors": ["Transport", "Information and communication technology"], "title": "HO CHI MINH CITY-LONG THANH-DAU GIAY EXPRESSWAY CONSTRUCTION PRJ", "approvalYear": "2009", "locationName": "S\u00f4ng \u0110\u1ed3ng Nai", "id": "46004-40198-023-LN2451"}}, {"geometry": {"type": "Point", "coordinates": [107.14667, 10.93833]}, "type": "Feature", "id": "915", "properties": {"status": "Implementation", "sectors": ["Transport", "Information and communication technology"], "title": "HO CHI MINH CITY-LONG THANH-DAU GIAY EXPRESSWAY CONSTRUCTION PRJ", "approvalYear": "2009", "locationName": "Xa Dau Giay", "id": "46004-40198-023-LN2451"}}, {"geometry": {"type": "Point", "coordinates": [106.65272, 10.80859]}, "type": "Feature", "id": "916", "properties": {"status": "Implementation", "sectors": ["Transport", "Information and communication technology"], "title": "HO CHI MINH CITY-LONG THANH-DAU GIAY EXPRESSWAY CONSTRUCTION PRJ", "approvalYear": "2009", "locationName": "Qu\u1eadn T\u00e2n B\u00ecnh", "id": "46004-40198-023-LN2451"}}, {"geometry": {"type": "Point", "coordinates": [107.0, 10.83333]}, "type": "Feature", "id": "917", "properties": {"status": "Implementation", "sectors": ["Transport", "Information and communication technology"], "title": "HO CHI MINH CITY-LONG THANH-DAU GIAY EXPRESSWAY CONSTRUCTION PRJ", "approvalYear": "2009", "locationName": "Huy\u1ec7n Long Th\u00e0nh", "id": "46004-40198-023-LN2451"}}, {"geometry": {"type": "Point", "coordinates": [107.83333, 16.16667]}, "type": "Feature", "id": "918", "properties": {"status": "Implementation", "sectors": ["Industry and trade"], "title": "GREATER MEKONG SUBREGION SUSTAINABLE TOURISM DEVELOPMENT PROJECT)", "approvalYear": "2008", "locationName": "Vietnam", "id": "46004-38015-013-LN2457"}}, {"geometry": {"type": "Point", "coordinates": [107.58333, 16.33333]}, "type": "Feature", "id": "919", "properties": {"status": "Implementation", "sectors": ["Industry and trade"], "title": "GREATER MEKONG SUBREGION SUSTAINABLE TOURISM DEVELOPMENT PROJECT)", "approvalYear": "2008", "locationName": "T\u1ec9nh Th\u1eeba Thi\u00ean-Hu\u1ebf", "id": "46004-38015-013-LN2457"}}, {"geometry": {"type": "Point", "coordinates": [107.0, 16.75]}, "type": "Feature", "id": "920", "properties": {"status": "Implementation", "sectors": ["Industry and trade"], "title": "GREATER MEKONG SUBREGION SUSTAINABLE TOURISM DEVELOPMENT PROJECT)", "approvalYear": "2008", "locationName": "T\u1ec9nh Qu\u1ea3ng Tr\u1ecb", "id": "46004-38015-013-LN2457"}}, {"geometry": {"type": "Point", "coordinates": [106.33333, 17.5]}, "type": "Feature", "id": "921", "properties": {"status": "Implementation", "sectors": ["Industry and trade"], "title": "GREATER MEKONG SUBREGION SUSTAINABLE TOURISM DEVELOPMENT PROJECT)", "approvalYear": "2008", "locationName": "T\u1ec9nh Qu\u1ea3ng B\u00ecnh", "id": "46004-38015-013-LN2457"}}, {"geometry": {"type": "Point", "coordinates": [106.08333, 22.75]}, "type": "Feature", "id": "922", "properties": {"status": "Implementation", "sectors": ["Industry and trade"], "title": "GREATER MEKONG SUBREGION SUSTAINABLE TOURISM DEVELOPMENT PROJECT)", "approvalYear": "2008", "locationName": "T\u1ec9nh Cao B\u1eb1ng", "id": "46004-38015-013-LN2457"}}, {"geometry": {"type": "Point", "coordinates": [105.6127, 22.41089]}, "type": "Feature", "id": "923", "properties": {"status": "Implementation", "sectors": ["Industry and trade"], "title": "GREATER MEKONG SUBREGION SUSTAINABLE TOURISM DEVELOPMENT PROJECT)", "approvalYear": "2008", "locationName": "H\u1ed3 Ba B\u1ec3", "id": "46004-38015-013-LN2457"}}, {"geometry": {"type": "Point", "coordinates": [101.5, 18.5]}, "type": "Feature", "id": "924", "properties": {"status": "Implementation", "sectors": ["Industry and trade"], "title": "GREATER MEKONG SUBREGION SUSTAINABLE TOURISM DEVELOPMENT PROJECT)", "approvalYear": "2008", "locationName": "Xaignabouli", "id": "46004-38015-013-LN2457"}}, {"geometry": {"type": "Point", "coordinates": [102.41667, 18.75]}, "type": "Feature", "id": "925", "properties": {"status": "Implementation", "sectors": ["Industry and trade"], "title": "GREATER MEKONG SUBREGION SUSTAINABLE TOURISM DEVELOPMENT PROJECT)", "approvalYear": "2008", "locationName": "Vientiane Province", "id": "46004-38015-013-LN2457"}}, {"geometry": {"type": "Point", "coordinates": [105.75, 16.5]}, "type": "Feature", "id": "926", "properties": {"status": "Implementation", "sectors": ["Industry and trade"], "title": "GREATER MEKONG SUBREGION SUSTAINABLE TOURISM DEVELOPMENT PROJECT)", "approvalYear": "2008", "locationName": "Khoueng Savannakhet", "id": "46004-38015-013-LN2457"}}, {"geometry": {"type": "Point", "coordinates": [106.25, 15.75]},