{"features": [{"geometry": {"type": "Point", "coordinates": [169.4, -19.48333]}, "type": "Feature", "id": "4881", "properties": {"status": "Implementation", "sectors": ["Transport"], "title": "INTERISLAND SHIPPING SUPPORT PROJECT", "approvalYear": "2012", "locationName": "Wa\u00e9sisi", "id": "46004-42392-013-LN2820"}}, {"geometry": {"type": "Point", "coordinates": [167.76667, -16.45]}, "type": "Feature", "id": "4882", "properties": {"status": "Implementation", "sectors": ["Transport"], "title": "INTERISLAND SHIPPING SUPPORT PROJECT", "approvalYear": "2012", "locationName": "Port Sandwich", "id": "46004-42392-013-LN2820"}}, {"geometry": {"type": "Point", "coordinates": [168.32188, -17.73381]}, "type": "Feature", "id": "4883", "properties": {"status": "Implementation", "sectors": ["Transport"], "title": "INTERISLAND SHIPPING SUPPORT PROJECT", "approvalYear": "2012", "locationName": "Port Vila", "id": "46004-42392-013-LN2820"}}, {"geometry": {"type": "Point", "coordinates": [168.14803, -15.54925]}, "type": "Feature", "id": "4884", "properties": {"status": "Implementation", "sectors": ["Transport"], "title": "INTERISLAND SHIPPING SUPPORT PROJECT", "approvalYear": "2012", "locationName": "Loltong", "id": "46004-42392-013-LN2820"}}, {"geometry": {"type": "Point", "coordinates": [167.96667, -15.28333]}, "type": "Feature", "id": "4885", "properties": {"status": "Implementation", "sectors": ["Transport"], "title": "INTERISLAND SHIPPING SUPPORT PROJECT", "approvalYear": "2012", "locationName": "Lolowa\u00ef", "id": "46004-42392-013-LN2820"}}, {"geometry": {"type": "Point", "coordinates": [167.43333, -16.11667]}, "type": "Feature", "id": "4886", "properties": {"status": "Implementation", "sectors": ["Transport"], "title": "INTERISLAND SHIPPING SUPPORT PROJECT", "approvalYear": "2012", "locationName": "Litzlitz", "id": "46004-42392-013-LN2820"}}, {"geometry": {"type": "Point", "coordinates": [169.26667, -19.53333]}, "type": "Feature", "id": "4887", "properties": {"status": "Implementation", "sectors": ["Transport"], "title": "INTERISLAND SHIPPING SUPPORT PROJECT", "approvalYear": "2012", "locationName": "L\u00e9nakel", "id": "46004-42392-013-LN2820"}}, {"geometry": {"type": "Point", "coordinates": [168.32188, -17.73381]}, "type": "Feature", "id": "4888", "properties": {"status": "Implementation", "sectors": ["Transport"], "title": "PORT VILA URBAN DEVELOPMENT PROJECT", "approvalYear": "2012", "locationName": "Port Vila", "id": "46004-42391-013-LN2832"}}], "properties": {"name": "Vanuatu", "bounds": [166.52051842500012, -20.253106377999913, 169.89893639400023, -13.064873955999843]}, "type": "FeatureCollection", "id": "VU"}