{"type": "FeatureCollection", "bbox": [39.985976355423105, -20.0665597, 202.68718509200005, 48.1606518], "features": [{"geometry": {"type": "Point", "coordinates": [90.2419999, 23.8456777]}, "type": "Feature", "id": "BD", "properties": {"name": "Bangladesh", "totals": {"bbox": [88.02178959200009, 20.73871491100003, 92.64285119700017, 26.623544007000064], "disbursements": {"amount": 3518206344.33, "unit": "USD"}, "commitments": {"amount": 7609650000.0, "unit": "USD"}, "projects": {"amount": 78, "unit": null}, "locations": {"amount": 676, "unit": null}}}}, {"geometry": {"type": "Point", "coordinates": [104.9028043, 12.7155625]}, "type": "Feature", "id": "KH", "properties": {"name": "Cambodia", "totals": {"bbox": [102.31342370600012, 10.415773620000081, 107.61051639900009, 14.704581605000087], "disbursements": {"amount": 554061771.26, "unit": "USD"}, "commitments": {"amount": 1025730000.0, "unit": "USD"}, "projects": {"amount": 54, "unit": null}, "locations": {"amount": 453, "unit": null}}}}, {"geometry": {"type": "Point", "coordinates": [90.4044602, 27.4217566]}, "type": "Feature", "id": "BT", "properties": {"name": "Bhutan", "totals": {"bbox": [88.73006677200013, 26.69614939400016, 92.08877648900014, 28.358398930786294], "disbursements": {"amount": 278526510.89, "unit": "USD"}, "commitments": {"amount": 385036645.5, "unit": "USD"}, "projects": {"amount": 20, "unit": null}, "locations": {"amount": 56, "unit": null}}}}, {"geometry": {"type": "Point", "coordinates": [187.8387507, -13.7545957]}, "type": "Feature", "id": "WS", "properties": {"name": "Samoa", "totals": {"bbox": [187.21741783900012, -14.05282968499999, 188.56230716200008, -13.46282317499994], "disbursements": {"amount": 88165474.37, "unit": "USD"}, "commitments": {"amount": 124990000.0, "unit": "USD"}, "projects": {"amount": 12, "unit": null}, "locations": {"amount": 48, "unit": null}}}}, {"geometry": {"type": "Point", "coordinates": [180, -17.447562]}, "type": "Feature", "id": "FJ", "properties": {"name": "Fiji", "totals": {"bbox": [165, -21.711114190999893, 195, -12.475274346999882], "disbursements": {"amount": 61565016.82, "unit": "USD"}, "commitments": {"amount": 67360000.0, "unit": "USD"}, "projects": {"amount": 3, "unit": null}, "locations": {"amount": 28, "unit": null}}}}, {"geometry": {"type": "Point", "coordinates": [155.2606335, 6.9672811]}, "type": "Feature", "id": "FM", "properties": {"name": "Micronesia, Federated States of", "totals": {"bbox": [138.06381269600016, 0.918158270000148, 163.04656009200008, 9.775580145000134], "disbursements": {"amount": 200488.82, "unit": "USD"}, "commitments": {"amount": 9040000.0, "unit": "USD"}, "projects": {"amount": 2, "unit": null}, "locations": {"amount": 2, "unit": null}}}}, {"geometry": {"type": "Point", "coordinates": [134.3480333, 7.197636]}, "type": "Feature", "id": "PW", "properties": {"name": "Palau", "totals": {"bbox": [131.13111412900005, 2.949042059000149, 134.7273429907992, 8.096617828631437], "disbursements": {"amount": 16072734.4, "unit": "USD"}, "commitments": {"amount": 44800000.0, "unit": "USD"}, "projects": {"amount": 4, "unit": null}, "locations": {"amount": 12, "unit": null}}}}, {"geometry": {"type": "Point", "coordinates": [103.7378721, 18.5023016]}, "type": "Feature", "id": "LA", "properties": {"name": "Lao PDR", "totals": {"bbox": [100.0970732020001, 13.91545664500012, 107.66436324000011, 22.49604400700011], "disbursements": {"amount": 340166319.12, "unit": "USD"}, "commitments": {"amount": 670168000.0, "unit": "USD"}, "projects": {"amount": 45, "unit": null}, "locations": {"amount": 424, "unit": null}}}}, {"geometry": {"type": "Point", "coordinates": [178.5203532, -7.7590691]}, "type": "Feature", "id": "TV", "properties": {"name": "Tuvalu", "totals": {"bbox": [176.1252547540001, -9.420668226999808, 179.90674889400017, -5.67750416499986], "disbursements": {"amount": 5590000.0, "unit": "USD"}, "commitments": {"amount": 5590000.0, "unit": "USD"}, "projects": {"amount": 2, "unit": null}, "locations": {"amount": 1, "unit": null}}}}, {"geometry": {"type": "Point", "coordinates": [80.7031629, 7.6159146]}, "type": "Feature", "id": "LK", "properties": {"name": "Sri Lanka", "totals": {"bbox": [79.65577233200005, 5.92373281500015, 81.89031009200008, 9.829575914000145], "disbursements": {"amount": 1524605863.88, "unit": "USD"}, "commitments": {"amount": 2766770000.0, "unit": "USD"}, "projects": {"amount": 45, "unit": null}, "locations": {"amount": 641, "unit": null}}}}, {"geometry": {"type": "Point", "coordinates": [185.1314877, -20.0665597]}, "type": "Feature", "id": "TO", "properties": {"name": "Tonga", "totals": {"bbox": [183.78069095100005, -22.33879973799992, 186.0857446620001, -15.55950286299992], "disbursements": {"amount": 34384693.36, "unit": "USD"}, "commitments": {"amount": 48080000.0, "unit": "USD"}, "projects": {"amount": 7, "unit": null}, "locations": {"amount": 17, "unit": null}}}}, {"geometry": {"type": "Point", "coordinates": [125.8510758, -8.8237785]}, "type": "Feature", "id": "TL", "properties": {"name": "Timor-Leste", "totals": {"bbox": [124.03003991000011, -9.501227721999896, 127.31324303500011, -8.135023695999834], "disbursements": {"amount": 60770808.44, "unit": "USD"}, "commitments": {"amount": 175000000.0, "unit": "USD"}, "projects": {"amount": 9, "unit": null}, "locations": {"amount": 127, "unit": null}}}}, {"geometry": {"type": "Point", "coordinates": [59.3759606, 39.1159339]}, "type": "Feature", "id": "TM", "properties": {"name": "Turkmenistan", "totals": {"bbox": [52.43767061734431, 35.140646871000015, 66.64578169800009, 42.791187643000015], "disbursements": {"amount": 84554343.5, "unit": "USD"}, "commitments": {"amount": 125000000.0, "unit": "USD"}, "projects": {"amount": 1, "unit": null}, "locations": {"amount": 3, "unit": null}}}}, {"geometry": {"type": "Point", "coordinates": [71.0158341, 38.5298857]}, "type": "Feature", "id": "TJ", "properties": {"name": "Tajikistan", "totals": {"bbox": [67.34269006300022, 36.67864084900019, 75.16412479700008, 41.039976705000086], "disbursements": {"amount": 415436191.56, "unit": "USD"}, "commitments": {"amount": 882972000.0, "unit": "USD"}, "projects": {"amount": 21, "unit": null}, "locations": {"amount": 132, "unit": null}}}}, {"geometry": {"type": "Point", "coordinates": [145.2315238, -6.4701205]}, "type": "Feature", "id": "PG", "properties": {"name": "Papua New Guinea", "totals": {"bbox": [140.84921106000016, -11.636325778999847, 155.96753991, -1.346368096999882], "disbursements": {"amount": 385034284.65, "unit": "USD"}, "commitments": {"amount": 1004620000.0, "unit": "USD"}, "projects": {"amount": 26, "unit": null}, "locations": {"amount": 370, "unit": null}}}}, {"geometry": {"type": "Point", "coordinates": [101.0033334, 15.1143997]}, "type": "Feature", "id": "TH", "properties": {"name": "Thailand", "totals": {"bbox": [97.35140100100008, 5.62989003500013, 105.65099776200006, 20.4450064090001], "disbursements": {"amount": 336353302.55, "unit": "USD"}, "commitments": {"amount": 377100000.0, "unit": "USD"}, "projects": {"amount": 2, "unit": null}, "locations": {"amount": 24, "unit": null}}}}, {"geometry": {"type": "Point", "coordinates": [122.8744843, 11.7630151]}, "type": "Feature", "id": "PH", "properties": {"name": "Philippines", "totals": {"bbox": [116.95492597700016, 4.655707098000107, 126.61768639400017, 21.122381903000033], "disbursements": {"amount": 4555598768.36, "unit": "USD"}, "commitments": {"amount": 5744003895.0, "unit": "USD"}, "projects": {"amount": 23, "unit": null}, "locations": {"amount": 512, "unit": null}}}}, {"geometry": {"type": "Point", "coordinates": [83.9162533, 28.2479222]}, "type": "Feature", "id": "NP", "properties": {"name": "Nepal", "totals": {"bbox": [80.03028772000005, 26.343767802000087, 88.1690674240001, 30.416904195000086], "disbursements": {"amount": 791613207.08, "unit": "USD"}, "commitments": {"amount": 2025826029.4, "unit": "USD"}, "projects": {"amount": 58, "unit": null}, "locations": {"amount": 425, "unit": null}}}}, {"geometry": {"type": "Point", "coordinates": [69.3413433, 29.9484969]}, "type": "Feature", "id": "PK", "properties": {"name": "Pakistan", "totals": {"bbox": [60.8443787030001, 23.694525458000058, 77.0489709880002, 37.054483541000096], "disbursements": {"amount": 5804311527.62, "unit": "USD"}, "commitments": {"amount": 9458140000.0, "unit": "USD"}, "projects": {"amount": 60, "unit": null}, "locations": {"amount": 833, "unit": null}}}}, {"geometry": {"type": "Point", "coordinates": [166.9331319, -0.5207829]}, "type": "Feature", "id": "NR", "properties": {"name": "Nauru", "totals": {"bbox": [166.90699303500008, -0.551853122999901, 166.9582625660001, -0.490411065999922], "disbursements": {"amount": 4000000.0, "unit": "USD"}, "commitments": {"amount": 4000000.0, "unit": "USD"}, "projects": {"amount": 1, "unit": null}, "locations": {"amount": 1, "unit": null}}}}, {"geometry": {"type": "Point", "coordinates": [159.6380945, -8.9095832]}, "type": "Feature", "id": "SB", "properties": {"name": "Solomon Islands", "totals": {"bbox": [155.50798587300008, -12.290622653999918, 168.8258569670002, -6.599867445999806], "disbursements": {"amount": 55067485.4, "unit": "USD"}, "commitments": {"amount": 104520000.0, "unit": "USD"}, "projects": {"amount": 14, "unit": null}, "locations": {"amount": 33, "unit": null}}}}, {"geometry": {"type": "Point", "coordinates": [201.2088957, -19.8149809]}, "type": "Feature", "id": "CK", "properties": {"name": "Cook Islands", "totals": {"bbox": [194.17546634200005, -21.93889739399988, 202.68718509200005, -8.94670989399988], "disbursements": {"amount": 35895467.4, "unit": "USD"}, "commitments": {"amount": 36210000.0, "unit": "USD"}, "projects": {"amount": 5, "unit": null}, "locations": {"amount": 4, "unit": null}}}}, {"geometry": {"type": "Point", "coordinates": [103.8315717, 36.5601152]}, "type": "Feature", "id": "CN", "properties": {"name": "China", "totals": {"bbox": [73.6022563070002, 15.775376695000048, 134.7725793870002, 53.56944447900004], "disbursements": {"amount": 7322600852.61, "unit": "USD"}, "commitments": {"amount": 13611280000.0, "unit": "USD"}, "projects": {"amount": 98, "unit": null}, "locations": {"amount": 945, "unit": null}}}}, {"geometry": {"type": "Point", "coordinates": [66.0084474, 33.8362669]}, "type": "Feature", "id": "AF", "properties": {"name": "Afghanistan", "totals": {"bbox": [60.48677779100012, 29.38660532600005, 74.89230676300014, 38.473673402000145], "disbursements": {"amount": 822085466.41, "unit": "USD"}, "commitments": {"amount": 2422400000.0, "unit": "USD"}, "projects": {"amount": 24, "unit": null}, "locations": {"amount": 247, "unit": null}}}}, {"geometry": {"type": "Point", "coordinates": [44.9323012, 40.2881342]}, "type": "Feature", "id": "AM", "properties": {"name": "Armenia", "totals": {"bbox": [43.436293986000095, 38.86370127400009, 46.602612346000086, 41.29045237300015], "disbursements": {"amount": 274813033.93, "unit": "USD"}, "commitments": {"amount": 659560000.0, "unit": "USD"}, "projects": {"amount": 13, "unit": null}, "locations": {"amount": 86, "unit": null}}}}, {"geometry": {"type": "Point", "coordinates": [106.3009352, 16.6421827]}, "type": "Feature", "id": "VN", "properties": {"name": "Vietnam", "totals": {"bbox": [102.11865523300011, 8.565578518000152, 109.47242272200018, 23.366275127000122], "disbursements": {"amount": 4517050828.81, "unit": "USD"}, "commitments": {"amount": 9159270000.0, "unit": "USD"}, "projects": {"amount": 83, "unit": null}, "locations": {"amount": 1126, "unit": null}}}}, {"geometry": {"type": "Point", "coordinates": [43.5075263, 42.1688008]}, "type": "Feature", "id": "GE", "properties": {"name": "Georgia", "totals": {"bbox": [39.985976355423105, 41.044110820000114, 46.694803101000076, 43.57584259000011], "disbursements": {"amount": 514574473.58, "unit": "USD"}, "commitments": {"amount": 1232800000.0, "unit": "USD"}, "projects": {"amount": 17, "unit": null}, "locations": {"amount": 160, "unit": null}}}}, {"geometry": {"type": "Point", "coordinates": [167.7008441, -16.2012679]}, "type": "Feature", "id": "VU", "properties": {"name": "Vanuatu", "totals": {"bbox": [166.52051842500012, -20.253106377999913, 169.89893639400023, -13.064873955999843], "disbursements": {"amount": 33033.0, "unit": "USD"}, "commitments": {"amount": 15820000.0, "unit": "USD"}, "projects": {"amount": 2, "unit": null}, "locations": {"amount": 8, "unit": null}}}}, {"geometry": {"type": "Point", "coordinates": [79.6157215, 22.8879525]}, "type": "Feature", "id": "IN", "properties": {"name": "India", "totals": {"bbox": [68.1434025400001, 6.74555084800015, 97.36225305200006, 35.49540557900009], "disbursements": {"amount": 7570355696.03, "unit": "USD"}, "commitments": {"amount": 14885996000.0, "unit": "USD"}, "projects": {"amount": 97, "unit": null}, "locations": {"amount": 2700, "unit": null}}}}, {"geometry": {"type": "Point", "coordinates": [47.5421113, 40.289119]}, "type": "Feature", "id": "AZ", "properties": {"name": "Azerbaijan", "totals": {"bbox": [44.77455855300022, 38.392644755, 50.62574303500011, 41.89044159000015], "disbursements": {"amount": 630728175.91, "unit": "USD"}, "commitments": {"amount": 1337400000.0, "unit": "USD"}, "projects": {"amount": 11, "unit": null}, "locations": {"amount": 65, "unit": null}}}}, {"geometry": {"type": "Point", "coordinates": [117.2704336, -2.2229611]}, "type": "Feature", "id": "ID", "properties": {"name": "Indonesia", "totals": {"bbox": [95.01270592500012, -10.922621351999808, 140.97762699400008, 5.910101630000099], "disbursements": {"amount": 5746147736.12, "unit": "USD"}, "commitments": {"amount": 8126210000.0, "unit": "USD"}, "projects": {"amount": 42, "unit": null}, "locations": {"amount": 227, "unit": null}}}}, {"geometry": {"type": "Point", "coordinates": [74.5416695, 41.4619187]}, "type": "Feature", "id": "KG", "properties": {"name": "Kyrgyz Republic", "totals": {"bbox": [69.22629602000012, 39.189236959000084, 80.2575606690001, 43.261701558000084], "disbursements": {"amount": 347152362.24, "unit": "USD"}, "commitments": {"amount": 653333186.89, "unit": "USD"}, "projects": {"amount": 30, "unit": null}, "locations": {"amount": 159, "unit": null}}}}, {"geometry": {"type": "Point", "coordinates": [63.1399089, 41.7560359]}, "type": "Feature", "id": "UZ", "properties": {"name": "Uzbekistan", "totals": {"bbox": [55.975838663000076, 37.18514740000002, 73.14864058400016, 45.55871897400006], "disbursements": {"amount": 1004214731.23, "unit": "USD"}, "commitments": {"amount": 2945200000.0, "unit": "USD"}, "projects": {"amount": 31, "unit": null}, "locations": {"amount": 183, "unit": null}}}}, {"geometry": {"type": "Point", "coordinates": [96.4892895, 21.16767]}, "type": "Feature", "id": "MM", "properties": {"name": "Myanmar", "totals": {"bbox": [92.17497277900006, 9.790716864000132, 101.1738550210001, 28.53846588100005], "disbursements": {"amount": 511529441.32, "unit": "USD"}, "commitments": {"amount": 635500000.0, "unit": "USD"}, "projects": {"amount": 2, "unit": null}, "locations": {"amount": 17, "unit": null}}}}, {"geometry": {"type": "Point", "coordinates": [180, 0.6152009]}, "type": "Feature", "id": "KI", "properties": {"name": "Kiribati", "totals": {"bbox": [165, -11.46111419099988, 195, 4.723089911000102], "disbursements": {"amount": 6524954.66, "unit": "USD"}, "commitments": {"amount": 19560000.0, "unit": "USD"}, "projects": {"amount": 2, "unit": null}, "locations": {"amount": 9, "unit": null}}}}, {"geometry": {"type": "Point", "coordinates": [103.0562867, 46.8258061]}, "type": "Feature", "id": "MN", "properties": {"name": "Mongolia", "totals": {"bbox": [87.73570886300013, 41.58614491800003, 119.90702681500011, 52.129584046000076], "disbursements": {"amount": 254768352.32, "unit": "USD"}, "commitments": {"amount": 661550000.0, "unit": "USD"}, "projects": {"amount": 28, "unit": null}, "locations": {"amount": 90, "unit": null}}}}, {"geometry": {"type": "Point", "coordinates": [170.0995278, 7.1144653]}, "type": "Feature", "id": "MH", "properties": {"name": "Marshall Islands", "totals": {"bbox": [165.28223717500018, 4.573797919000157, 172.02979576900012, 14.610500393000123], "disbursements": {"amount": 14873807.57, "unit": "USD"}, "commitments": {"amount": 14500000.0, "unit": "USD"}, "projects": {"amount": 2, "unit": null}, "locations": {"amount": 1, "unit": null}}}}, {"geometry": {"type": "Point", "coordinates": [73.3022582, 3.8277948]}, "type": "Feature", "id": "MV", "properties": {"name": "Maldives", "totals": {"bbox": [72.684825066, -0.688571872999901, 73.75318444100017, 7.107245184000149], "disbursements": {"amount": 45299144.79, "unit": "USD"}, "commitments": {"amount": 59350000.0, "unit": "USD"}, "projects": {"amount": 6, "unit": null}, "locations": {"amount": 23, "unit": null}}}}, {"geometry": {"type": "Point", "coordinates": [67.2959647, 48.1606518]}, "type": "Feature", "id": "KZ", "properties": {"name": "Kazakhstan", "totals": {"bbox": [46.47827884900002, 40.58465566000008, 87.3237960210001, 55.434550273000085], "disbursements": {"amount": 1498568306.69, "unit": "USD"}, "commitments": {"amount": 2336300000.0, "unit": "USD"}, "projects": {"amount": 10, "unit": null}, "locations": {"amount": 49, "unit": null}}}}]}