{"id": "AF", "properties": {"name": "Afghanistan", "bounds": [60.48677779100012, 29.38660532600005, 74.89230676300014, 38.473673402000145]}, "type": "FeatureCollection", "features": [{"id": 1, "properties": {"id": "46004-39370-022-GRNT0126", "locationName": "Paktia", "title": "AGRICULTURE MARKET INFRASTRUCTURE PROJECT", "status": "Implementation", "sectors": ["Agriculture, natural resources and rural development"]}, "type": "Feature", "geometry": {"coordinates": [69.33333, 33.66667], "type": "Point"}}, {"id": 2, "properties": {"id": "46004-39370-022-GRNT0126", "locationName": "Nangarh\u0101r", "title": "AGRICULTURE MARKET INFRASTRUCTURE PROJECT", "status": "Implementation", "sectors": ["Agriculture, natural resources and rural development"]}, "type": "Feature", "geometry": {"coordinates": [70.41667, 34.33333], "type": "Point"}}, {"id": 3, "properties": {"id": "46004-39370-022-GRNT0126", "locationName": "Mazari Sharif", "title": "AGRICULTURE MARKET INFRASTRUCTURE PROJECT", "status": "Implementation", "sectors": ["Agriculture, natural resources and rural development"]}, "type": "Feature", "geometry": {"coordinates": [67.11087, 36.70904], "type": "Point"}}, {"id": 4, "properties": {"id": "46004-39370-022-GRNT0126", "locationName": "Kunduz", "title": "AGRICULTURE MARKET INFRASTRUCTURE PROJECT", "status": "Implementation", "sectors": ["Agriculture, natural resources and rural development"]}, "type": "Feature", "geometry": {"coordinates": [68.857, 36.72896], "type": "Point"}}, {"id": 5, "properties": {"id": "46004-39370-022-GRNT0126", "locationName": "Kunduz", "title": "AGRICULTURE MARKET INFRASTRUCTURE PROJECT", "status": "Implementation", "sectors": ["Agriculture, natural resources and rural development"]}, "type": "Feature", "geometry": {"coordinates": [68.75, 36.75], "type": "Point"}}, {"id": 6, "properties": {"id": "46004-39370-022-GRNT0126", "locationName": "K\u0101r\u0113z-e M\u012br", "title": "AGRICULTURE MARKET INFRASTRUCTURE PROJECT", "status": "Implementation", "sectors": ["Agriculture, natural resources and rural development"]}, "type": "Feature", "geometry": {"coordinates": [69.04754, 34.63335], "type": "Point"}}, {"id": 7, "properties": {"id": "46004-39370-022-GRNT0126", "locationName": "Kandah\u0101r", "title": "AGRICULTURE MARKET INFRASTRUCTURE PROJECT", "status": "Implementation", "sectors": ["Agriculture, natural resources and rural development"]}, "type": "Feature", "geometry": {"coordinates": [65.75, 31.0], "type": "Point"}}, {"id": 8, "properties": {"id": "46004-39370-022-GRNT0126", "locationName": "Kabul", "title": "AGRICULTURE MARKET INFRASTRUCTURE PROJECT", "status": "Implementation", "sectors": ["Agriculture, natural resources and rural development"]}, "type": "Feature", "geometry": {"coordinates": [69.41667, 34.5], "type": "Point"}}, {"id": 9, "properties": {"id": "46004-39370-022-GRNT0126", "locationName": "Kabul", "title": "AGRICULTURE MARKET INFRASTRUCTURE PROJECT", "status": "Implementation", "sectors": ["Agriculture, natural resources and rural development"]}, "type": "Feature", "geometry": {"coordinates": [69.17233, 34.52813], "type": "Point"}}, {"id": 10, "properties": {"id": "46004-39370-022-GRNT0126", "locationName": "Herat", "title": "AGRICULTURE MARKET INFRASTRUCTURE PROJECT", "status": "Implementation", "sectors": ["Agriculture, natural resources and rural development"]}, "type": "Feature", "geometry": {"coordinates": [62.0, 34.5], "type": "Point"}}, {"id": 11, "properties": {"id": "46004-39370-022-GRNT0126", "locationName": "Herat", "title": "AGRICULTURE MARKET INFRASTRUCTURE PROJECT", "status": "Implementation", "sectors": ["Agriculture, natural resources and rural development"]}, "type": "Feature", "geometry": {"coordinates": [62.19967, 34.34817], "type": "Point"}}, {"id": 12, "properties": {"id": "46004-39370-022-GRNT0126", "locationName": "Balkh", "title": "AGRICULTURE MARKET INFRASTRUCTURE PROJECT", "status": "Implementation", "sectors": ["Agriculture, natural resources and rural development"]}, "type": "Feature", "geometry": {"coordinates": [67.0, 36.75], "type": "Point"}}, {"id": 13, "properties": {"id": "46004-39370-022-GRNT0126", "locationName": "Gul B\u0101gh", "title": "AGRICULTURE MARKET INFRASTRUCTURE PROJECT", "status": "Implementation", "sectors": ["Agriculture, natural resources and rural development"]}, "type": "Feature", "geometry": {"coordinates": [69.1337, 34.41972], "type": "Point"}}, {"id": 14, "properties": {"id": "46004-42094-022-GRNT0134", "locationName": "Taloqan", "title": "MFF:ENERGY SECTOR DEVELOPMENT INVESTMENT PROGRAM -", "status": "Implementation", "sectors": ["Energy"]}, "type": "Feature", "geometry": {"coordinates": [69.53451, 36.73605], "type": "Point"}}, {"id": 15, "properties": {"id": "46004-42094-022-GRNT0134", "locationName": "Shibirgh\u0101n", "title": "MFF:ENERGY SECTOR DEVELOPMENT INVESTMENT PROGRAM -", "status": "Implementation", "sectors": ["Energy"]}, "type": "Feature", "geometry": {"coordinates": [65.7529, 36.66757], "type": "Point"}}, {"id": 16, "properties": {"id": "46004-42094-022-GRNT0134", "locationName": "Kunduz", "title": "MFF:ENERGY SECTOR DEVELOPMENT INVESTMENT PROGRAM -", "status": "Implementation", "sectors": ["Energy"]}, "type": "Feature", "geometry": {"coordinates": [68.857, 36.72896], "type": "Point"}}, {"id": 17, "properties": {"id": "46004-42094-022-GRNT0134", "locationName": "Wil\u0101yat-e B\u0101my\u0101n", "title": "MFF:ENERGY SECTOR DEVELOPMENT INVESTMENT PROGRAM -", "status": "Implementation", "sectors": ["Energy"]}, "type": "Feature", "geometry": {"coordinates": [67.25, 34.75], "type": "Point"}}, {"id": 18, "properties": {"id": "46004-42094-022-GRNT0134", "locationName": "Bah\u0101rak", "title": "MFF:ENERGY SECTOR DEVELOPMENT INVESTMENT PROGRAM -", "status": "Implementation", "sectors": ["Energy"]}, "type": "Feature", "geometry": {"coordinates": [70.90664, 37.00254], "type": "Point"}}, {"id": 19, "properties": {"id": "46004-42094-022-GRNT0134", "locationName": "Baghlan", "title": "MFF:ENERGY SECTOR DEVELOPMENT INVESTMENT PROGRAM -", "status": "Implementation", "sectors": ["Energy"]}, "type": "Feature", "geometry": {"coordinates": [68.70829, 36.13068], "type": "Point"}}, {"id": 20, "properties": {"id": "46004-42094-022-GRNT0134", "locationName": "Badakhshan", "title": "MFF:ENERGY SECTOR DEVELOPMENT INVESTMENT PROGRAM -", "status": "Implementation", "sectors": ["Energy"]}, "type": "Feature", "geometry": {"coordinates": [72.0, 36.75], "type": "Point"}}, {"id": 21, "properties": {"id": "46004-42094-022-GRNT0134", "locationName": "Bah\u0101rak", "title": "MFF:ENERGY SECTOR DEVELOPMENT INVESTMENT PROGRAM -", "status": "Implementation", "sectors": ["Energy"]}, "type": "Feature", "geometry": {"coordinates": [70.89999, 37.03761], "type": "Point"}}, {"id": 22, "properties": {"id": "46004-42094-022-GRNT0134", "locationName": "Jurm", "title": "MFF:ENERGY SECTOR DEVELOPMENT INVESTMENT PROGRAM -", "status": "Implementation", "sectors": ["Energy"]}, "type": "Feature", "geometry": {"coordinates": [70.80747, 36.56115], "type": "Point"}}, {"id": 23, "properties": {"id": "46004-42094-022-GRNT0134", "locationName": "Khan Abad", "title": "MFF:ENERGY SECTOR DEVELOPMENT INVESTMENT PROGRAM -", "status": "Implementation", "sectors": ["Energy"]}, "type": "Feature", "geometry": {"coordinates": [69.11185, 36.60632], "type": "Point"}}, {"id": 24, "properties": {"id": "46004-42094-022-GRNT0134", "locationName": "T\u0101luq\u0101n", "title": "MFF:ENERGY SECTOR DEVELOPMENT INVESTMENT PROGRAM -", "status": "Implementation", "sectors": ["Energy"]}, "type": "Feature", "geometry": {"coordinates": [69.60377, 36.73973], "type": "Point"}}, {"id": 25, "properties": {"id": "46004-42094-022-GRNT0134", "locationName": "Kunduz", "title": "MFF:ENERGY SECTOR DEVELOPMENT INVESTMENT PROGRAM -", "status": "Implementation", "sectors": ["Energy"]}, "type": "Feature", "geometry": {"coordinates": [68.84385, 36.79256], "type": "Point"}}, {"id": 26, "properties": {"id": "46004-42095-022-GRNT0135", "locationName": "Sangalak-i-Kaisar", "title": "MFF:ROAD NETWORK DEVELOPMENT INVESTMENT PROGRAM -", "status": "Completion", "sectors": ["Transport"]}, "type": "Feature", "geometry": {"coordinates": [64.29318, 35.68747], "type": "Point"}}, {"id": 27, "properties": {"id": "46004-42095-022-GRNT0135", "locationName": "Pul-e Baraq", "title": "MFF:ROAD NETWORK DEVELOPMENT INVESTMENT PROGRAM -", "status": "Completion", "sectors": ["Transport"]}, "type": "Feature", "geometry": {"coordinates": [66.90854, 36.20532], "type": "Point"}}, {"id": 28, "properties": {"id": "46004-42095-022-GRNT0135", "locationName": "Mazari Sharif", "title": "MFF:ROAD NETWORK DEVELOPMENT INVESTMENT PROGRAM -", "status": "Completion", "sectors": ["Transport"]}, "type": "Feature", "geometry": {"coordinates": [67.11087, 36.70904], "type": "Point"}}, {"id": 29, "properties": {"id": "46004-42095-022-GRNT0135", "locationName": "Faryab", "title": "MFF:ROAD NETWORK DEVELOPMENT INVESTMENT PROGRAM -", "status": "Completion", "sectors": ["Transport"]}, "type": "Feature", "geometry": {"coordinates": [64.83333, 36.25], "type": "Point"}}, {"id": 30, "properties": {"id": "46004-42095-022-GRNT0135", "locationName": "Andkh\u014dy", "title": "MFF:ROAD NETWORK DEVELOPMENT INVESTMENT PROGRAM -", "status": "Completion", "sectors": ["Transport"]}, "type": "Feature", "geometry": {"coordinates": [65.12376, 36.95293], "type": "Point"}}, {"id": 31, "properties": {"id": "46004-42095-022-GRNT0135", "locationName": "Yak\u0101wlang", "title": "MFF:ROAD NETWORK DEVELOPMENT INVESTMENT PROGRAM -", "status": "Completion", "sectors": ["Transport"]}, "type": "Feature", "geometry": {"coordinates": [66.94271, 34.9828], "type": "Point"}}, {"id": 32, "properties": {"id": "46004-42095-022-GRNT0135", "locationName": "Andkh\u014dy", "title": "MFF:ROAD NETWORK DEVELOPMENT INVESTMENT PROGRAM -", "status": "Completion", "sectors": ["Transport"]}, "type": "Feature", "geometry": {"coordinates": [65.28301, 36.85437], "type": "Point"}}, {"id": 33, "properties": {"id": "46004-42095-022-GRNT0135", "locationName": "Qa\u012b\u015f\u0101r", "title": "MFF:ROAD NETWORK DEVELOPMENT INVESTMENT PROGRAM -", "status": "Completion", "sectors": ["Transport"]}, "type": "Feature", "geometry": {"coordinates": [64.27908, 35.64137], "type": "Point"}}, {"id": 34, "properties": {"id": "46004-42095-022-GRNT0135", "locationName": "Dara-I-Suf", "title": "MFF:ROAD NETWORK DEVELOPMENT INVESTMENT PROGRAM -", "status": "Completion", "sectors": ["Transport"]}, "type": "Feature", "geometry": {"coordinates": [67.32699, 35.82467], "type": "Point"}}, {"id": 35, "properties": {"id": "46004-42095-022-GRNT0135", "locationName": "Bamyan", "title": "MFF:ROAD NETWORK DEVELOPMENT INVESTMENT PROGRAM -", "status": "Completion", "sectors": ["Transport"]}, "type": "Feature", "geometry": {"coordinates": [67.67298, 34.79547], "type": "Point"}}, {"id": 36, "properties": {"id": "46004-42095-022-GRNT0135", "locationName": "Sholgara", "title": "MFF:ROAD NETWORK DEVELOPMENT INVESTMENT PROGRAM -", "status": "Completion", "sectors": ["Transport"]}, "type": "Feature", "geometry": {"coordinates": [66.90979, 36.29404], "type": "Point"}}, {"id": 37, "properties": {"id": "46004-42095-022-GRNT0135", "locationName": "Maz\u0101r-e Shar\u012bf", "title": "MFF:ROAD NETWORK DEVELOPMENT INVESTMENT PROGRAM -", "status": "Completion", "sectors": ["Transport"]}, "type": "Feature", "geometry": {"coordinates": [67.1157, 36.70993], "type": "Point"}}, {"id": 38, "properties": {"id": "46004-42533-022-GRNT0161", "locationName": "Hairatan", "title": "HAIRATAN TO MAZAR-E-SHARIF RAILWAY PROJECT", "status": "Completion", "sectors": ["Transport"]}, "type": "Feature", "geometry": {"coordinates": [67.4241, 37.2214], "type": "Point"}}, {"id": 39, "properties": {"id": "46004-42533-022-GRNT0161", "locationName": "Kaldar", "title": "HAIRATAN TO MAZAR-E-SHARIF RAILWAY PROJECT", "status": "Completion", "sectors": ["Transport"]}, "type": "Feature", "geometry": {"coordinates": [67.54203, 37.12746], "type": "Point"}}, {"id": 40, "properties": {"id": "46004-42533-022-GRNT0161", "locationName": "Mazar-e Sharif", "title": "HAIRATAN TO MAZAR-E-SHARIF RAILWAY PROJECT", "status": "Completion", "sectors": ["Transport"]}, "type": "Feature", "geometry": {"coordinates": [67.1157, 36.70993], "type": "Point"}}, {"id": 41, "properties": {"id": "46004-42533-022-GRNT0161", "locationName": "Mazar-e Sharif", "title": "HAIRATAN TO MAZAR-E-SHARIF RAILWAY PROJECT", "status": "Completion", "sectors": ["Transport"]}, "type": "Feature", "geometry": {"coordinates": [67.11087, 36.70904], "type": "Point"}}, {"id": 42, "properties": {"id": "46004-42533-022-GRNT0161", "locationName": "Nahri Shahi", "title": "HAIRATAN TO MAZAR-E-SHARIF RAILWAY PROJECT", "status": "Completion", "sectors": ["Transport"]}, "type": "Feature", "geometry": {"coordinates": [67.21497, 36.84655], "type": "Point"}}, {"id": 43, "properties": {"id": "46004-42091-032-GRNT0167", "locationName": "Z\u0101d\u012b\u0101n", "title": "MFF:WATER RESOURCES DEVELOPMENT INVESTMENT PROGRAM", "status": "Implementation", "sectors": ["Agriculture, natural resources and rural development"]}, "type": "Feature", "geometry": {"coordinates": [66.94282, 37.02737], "type": "Point"}}, {"id": 44, "properties": {"id": "46004-42091-032-GRNT0167", "locationName": "Yang\u012b Qal\u2018ah", "title": "MFF:WATER RESOURCES DEVELOPMENT INVESTMENT PROGRAM", "status": "Implementation", "sectors": ["Agriculture, natural resources and rural development"]}, "type": "Feature", "geometry": {"coordinates": [69.61131, 37.46572], "type": "Point"}}, {"id": 45, "properties": {"id": "46004-42091-032-GRNT0167", "locationName": "Surkh", "title": "MFF:WATER RESOURCES DEVELOPMENT INVESTMENT PROGRAM", "status": "Implementation", "sectors": ["Agriculture, natural resources and rural development"]}, "type": "Feature", "geometry": {"coordinates": [66.15284, 36.88642], "type": "Point"}}, {"id": 46, "properties": {"id": "46004-42091-032-GRNT0167", "locationName": "Sherabad", "title": "MFF:WATER RESOURCES DEVELOPMENT INVESTMENT PROGRAM", "status": "Implementation", "sectors": ["Agriculture, natural resources and rural development"]}, "type": "Feature", "geometry": {"coordinates": [67.03786, 36.6862], "type": "Point"}}, {"id": 47, "properties": {"id": "46004-42091-032-GRNT0167", "locationName": "Sar-e \u0100sy\u0101b", "title": "MFF:WATER RESOURCES DEVELOPMENT INVESTMENT PROGRAM", "status": "Implementation", "sectors": ["Agriculture, natural resources and rural development"]}, "type": "Feature", "geometry": {"coordinates": [66.98877, 36.94691], "type": "Point"}}, {"id": 48, "properties": {"id": "46004-42091-032-GRNT0167", "locationName": "Samar Qand\u012b\u0101n", "title": "MFF:WATER RESOURCES DEVELOPMENT INVESTMENT PROGRAM", "status": "Implementation", "sectors": ["Agriculture, natural resources and rural development"]}, "type": "Feature", "geometry": {"coordinates": [66.84352, 36.68772], "type": "Point"}}, {"id": 49, "properties": {"id": "46004-42091-032-GRNT0167", "locationName": "Qarah Buyin", "title": "MFF:WATER RESOURCES DEVELOPMENT INVESTMENT PROGRAM", "status": "Implementation", "sectors": ["Agriculture, natural resources and rural development"]}, "type": "Feature", "geometry": {"coordinates": [66.01984, 36.88444], "type": "Point"}}, {"id": 50, "properties": {"id": "46004-42091-032-GRNT0167", "locationName": "Pusht-e B\u0101gh", "title": "MFF:WATER RESOURCES DEVELOPMENT INVESTMENT PROGRAM", "status": "Implementation", "sectors": ["Agriculture, natural resources and rural development"]}, "type": "Feature", "geometry": {"coordinates": [66.96689, 36.65406], "type": "Point"}}, {"id": 51, "properties": {"id": "46004-42091-032-GRNT0167", "locationName": "Nakhch\u012br\u0101b\u0101d", "title": "MFF:WATER RESOURCES DEVELOPMENT INVESTMENT PROGRAM", "status": "Implementation", "sectors": ["Agriculture, natural resources and rural development"]}, "type": "Feature", "geometry": {"coordinates": [66.88815, 37.01077], "type": "Point"}}, {"id": 52, "properties": {"id": "46004-42091-032-GRNT0167", "locationName": "M\u014dy Mubarak", "title": "MFF:WATER RESOURCES DEVELOPMENT INVESTMENT PROGRAM", "status": "Implementation", "sectors": ["Agriculture, natural resources and rural development"]}, "type": "Feature", "geometry": {"coordinates": [66.89798, 36.73644], "type": "Point"}}, {"id": 53, "properties": {"id": "46004-42091-032-GRNT0167", "locationName": "Mingajik-e Qulighajar", "title": "MFF:WATER RESOURCES DEVELOPMENT INVESTMENT PROGRAM", "status": "Implementation", "sectors": ["Agriculture, natural resources and rural development"]}, "type": "Feature", "geometry": {"coordinates": [66.11399, 36.93424], "type": "Point"}}, {"id": 54, "properties": {"id": "46004-42091-032-GRNT0167", "locationName": "Kaltah Sh\u0101kh", "title": "MFF:WATER RESOURCES DEVELOPMENT INVESTMENT PROGRAM", "status": "Implementation", "sectors": ["Agriculture, natural resources and rural development"]}, "type": "Feature", "geometry": {"coordinates": [66.13849, 36.85907], "type": "Point"}}, {"id": 55, "properties": {"id": "46004-42091-032-GRNT0167", "locationName": "Wil\u0101yat-e Jowzj\u0101n", "title": "MFF:WATER RESOURCES DEVELOPMENT INVESTMENT PROGRAM", "status": "Implementation", "sectors": ["Agriculture, natural resources and rural development"]}, "type": "Feature", "geometry": {"coordinates": [65.83333, 36.83333], "type": "Point"}}, {"id": 56, "properties": {"id": "46004-42091-032-GRNT0167", "locationName": "Gowr-i-Mar", "title": "MFF:WATER RESOURCES DEVELOPMENT INVESTMENT PROGRAM", "status": "Implementation", "sectors": ["Agriculture, natural resources and rural development"]}, "type": "Feature", "geometry": {"coordinates": [67.26778, 36.72833], "type": "Point"}}, {"id": 57, "properties": {"id": "46004-42091-032-GRNT0167", "locationName": "Deh-e Q\u0101\u1e95\u012b", "title": "MFF:WATER RESOURCES DEVELOPMENT INVESTMENT PROGRAM", "status": "Implementation", "sectors": ["Agriculture, natural resources and rural development"]}, "type": "Feature", "geometry": {"coordinates": [66.86787, 36.73035], "type": "Point"}}, {"id": 58, "properties": {"id": "46004-42091-032-GRNT0167", "locationName": "Chakish", "title": "MFF:WATER RESOURCES DEVELOPMENT INVESTMENT PROGRAM", "status": "Implementation", "sectors": ["Agriculture, natural resources and rural development"]}, "type": "Feature", "geometry": {"coordinates": [66.38478, 36.9195], "type": "Point"}}, {"id": 59, "properties": {"id": "46004-42091-032-GRNT0167", "locationName": "Balkh", "title": "MFF:WATER RESOURCES DEVELOPMENT INVESTMENT PROGRAM", "status": "Implementation", "sectors": ["Agriculture, natural resources and rural development"]}, "type": "Feature", "geometry": {"coordinates": [67.0, 36.75], "type": "Point"}}, {"id": 60, "properties": {"id": "46004-42091-032-GRNT0167", "locationName": "Balkh", "title": "MFF:WATER RESOURCES DEVELOPMENT INVESTMENT PROGRAM", "status": "Implementation", "sectors": ["Agriculture, natural resources and rural development"]}, "type": "Feature", "geometry": {"coordinates": [66.8972, 36.75635], "type": "Point"}}, {"id": 61, "properties": {"id": "46004-42091-032-GRNT0167", "locationName": "B\u0101b\u0101 Qushqar", "title": "MFF:WATER RESOURCES DEVELOPMENT INVESTMENT PROGRAM", "status": "Implementation", "sectors": ["Agriculture, natural resources and rural development"]}, "type": "Feature", "geometry": {"coordinates": [67.01543, 36.74232], "type": "Point"}}, {"id": 62, "properties": {"id": "46004-42091-032-GRNT0167", "locationName": "\u0100qchah", "title": "MFF:WATER RESOURCES DEVELOPMENT INVESTMENT PROGRAM", "status": "Implementation", "sectors": ["Agriculture, natural resources and rural development"]}, "type": "Feature", "geometry": {"coordinates": [66.18341, 36.905], "type": "Point"}}, {"id": 63, "properties": {"id": "46004-42091-032-GRNT0167", "locationName": "Qal\u2018achah", "title": "MFF:WATER RESOURCES DEVELOPMENT INVESTMENT PROGRAM", "status": "Implementation", "sectors": ["Agriculture, natural resources and rural development"]}, "type": "Feature", "geometry": {"coordinates": [66.87738, 36.78052], "type": "Point"}}, {"id": 64, "properties": {"id": "46004-42091-032-GRNT0167", "locationName": "Kha\u012br\u0101b\u0101d", "title": "MFF:WATER RESOURCES DEVELOPMENT INVESTMENT PROGRAM", "status": "Implementation", "sectors": ["Agriculture, natural resources and rural development"]}, "type": "Feature", "geometry": {"coordinates": [67.06315, 36.98026], "type": "Point"}}, {"id": 65, "properties": {"id": "46004-42091-032-GRNT0167", "locationName": "Shingil\u0101b\u0101d", "title": "MFF:WATER RESOURCES DEVELOPMENT INVESTMENT PROGRAM", "status": "Implementation", "sectors": ["Agriculture, natural resources and rural development"]}, "type": "Feature", "geometry": {"coordinates": [66.95507, 36.95025], "type": "Point"}}, {"id": 66, "properties": {"id": "46004-42091-032-GRNT0167", "locationName": "Mard\u012b\u0101n", "title": "MFF:WATER RESOURCES DEVELOPMENT INVESTMENT PROGRAM", "status": "Implementation", "sectors": ["Agriculture, natural resources and rural development"]}, "type": "Feature", "geometry": {"coordinates": [66.33153, 37.0488], "type": "Point"}}, {"id": 67, "properties": {"id": "46004-42094-032-GRNT0184", "locationName": "Kabul", "title": "MFF:ENERGY SECTOR DEVELOPMENT INVESTMENT PROGRAM-P", "status": "Implementation", "sectors": ["Energy"]}, "type": "Feature", "geometry": {"coordinates": [69.17233, 34.52813], "type": "Point"}}, {"id": 68, "properties": {"id": "46004-42094-032-GRNT0184", "locationName": "Dasht-e Barch\u012b", "title": "MFF:ENERGY SECTOR DEVELOPMENT INVESTMENT PROGRAM-P", "status": "Implementation", "sectors": ["Energy"]}, "type": "Feature", "geometry": {"coordinates": [69.07788, 34.50145], "type": "Point"}}, {"id": 69, "properties": {"id": "46004-42094-032-GRNT0184", "locationName": "Kabul", "title": "MFF:ENERGY SECTOR DEVELOPMENT INVESTMENT PROGRAM-P", "status": "Implementation", "sectors": ["Energy"]}, "type": "Feature", "geometry": {"coordinates": [69.10549, 34.49614], "type": "Point"}}, {"id": 70, "properties": {"id": "46004-36252-013-LN2227", "locationName": "Herat", "title": "WESTERN BASINS WATER RESOURCES MANAGEMENT PROJECT", "status": "Implementation", "sectors": ["Agriculture, natural resources and rural development"]}, "type": "Feature", "geometry": {"coordinates": [62.0, 34.5], "type": "Point"}}, {"id": 71, "properties": {"id": "46004-36252-013-LN2227", "locationName": "Ghowr", "title": "WESTERN BASINS WATER RESOURCES MANAGEMENT PROJECT", "status": "Implementation", "sectors": ["Agriculture, natural resources and rural development"]}, "type": "Feature", "geometry": {"coordinates": [65.0, 34.0], "type": "Point"}}, {"id": 72, "properties": {"id": "46004-36252-013-LN2227", "locationName": "Badghis", "title": "WESTERN BASINS WATER RESOURCES MANAGEMENT PROJECT", "status": "Implementation", "sectors": ["Agriculture, natural resources and rural development"]}, "type": "Feature", "geometry": {"coordinates": [63.75, 35.0], "type": "Point"}}, {"id": 73, "properties": {"id": "46004-36252-013-LN2227", "locationName": "R\u014dd-e M\u016brgh\u0101b", "title": "WESTERN BASINS WATER RESOURCES MANAGEMENT PROJECT", "status": "Implementation", "sectors": ["Agriculture, natural resources and rural development"]}, "type": "Feature", "geometry": {"coordinates": [64.08969, 35.04995], "type": "Point"}}, {"id": 74, "properties": {"id": "46004-36252-013-LN2227", "locationName": "Harirud", "title": "WESTERN BASINS WATER RESOURCES MANAGEMENT PROJECT", "status": "Implementation", "sectors": ["Agriculture, natural resources and rural development"]}, "type": "Feature", "geometry": {"coordinates": [63.4163, 34.38112], "type": "Point"}}, {"id": 75, "properties": {"id": "46004-39467-013-LN2257", "locationName": "B\u0101z\u0101r-e Yak\u0101wlang", "title": "NORTH-SOUTH CORRIDOR PROJECT", "status": "Implementation", "sectors": ["Transport"]}, "type": "Feature", "geometry": {"coordinates": [66.97378, 34.73525], "type": "Point"}}, {"id": 76, "properties": {"id": "46004-39467-013-LN2257", "locationName": "Pul-e Baraq", "title": "NORTH-SOUTH CORRIDOR PROJECT", "status": "Implementation", "sectors": ["Transport"]}, "type": "Feature", "geometry": {"coordinates": [66.90854, 36.20532], "type": "Point"}}, {"id": 77, "properties": {"id": "46004-39467-013-LN2257", "locationName": "Mazari Sharif", "title": "NORTH-SOUTH CORRIDOR PROJECT", "status": "Implementation", "sectors": ["Transport"]}, "type": "Feature", "geometry": {"coordinates": [67.11087, 36.70904], "type": "Point"}}, {"id": 78, "properties": {"id": "46004-39467-013-LN2257", "locationName": "B\u0101my\u0101n", "title": "NORTH-SOUTH CORRIDOR PROJECT", "status": "Implementation", "sectors": ["Transport"]}, "type": "Feature", "geometry": {"coordinates": [67.82734, 34.82156], "type": "Point"}}, {"id": 79, "properties": {"id": "46004-39467-013-LN2257", "locationName": "Yak\u0101wlang", "title": "NORTH-SOUTH CORRIDOR PROJECT", "status": "Implementation", "sectors": ["Transport"]}, "type": "Feature", "geometry": {"coordinates": [66.94271, 34.9828], "type": "Point"}}, {"id": 80, "properties": {"id": "46004-39467-013-LN2257", "locationName": "Dara-I-Suf", "title": "NORTH-SOUTH CORRIDOR PROJECT", "status": "Implementation", "sectors": ["Transport"]}, "type": "Feature", "geometry": {"coordinates": [67.32699, 35.82467], "type": "Point"}}, {"id": 81, "properties": {"id": "46004-39467-013-LN2257", "locationName": "Bamyan", "title": "NORTH-SOUTH CORRIDOR PROJECT", "status": "Implementation", "sectors": ["Transport"]}, "type": "Feature", "geometry": {"coordinates": [67.67298, 34.79547], "type": "Point"}}, {"id": 82, "properties": {"id": "46004-39467-013-LN2257", "locationName": "Sholgara", "title": "NORTH-SOUTH CORRIDOR PROJECT", "status": "Implementation", "sectors": ["Transport"]}, "type": "Feature", "geometry": {"coordinates": [66.90979, 36.29404], "type": "Point"}}, {"id": 83, "properties": {"id": "46004-39467-013-LN2257", "locationName": "Maz\u0101r-e Shar\u012bf", "title": "NORTH-SOUTH CORRIDOR PROJECT", "status": "Implementation", "sectors": ["Transport"]}, "type": "Feature", "geometry": {"coordinates": [67.1157, 36.70993], "type": "Point"}}, {"id": 84, "properties": {"id": "46004-40043-013-GRNT0230", "locationName": "Qizil Qal\u2018ah", "title": "REGIONAL POWER TRANSMISSION INTERCONNECTION PROJEC", "status": "Completion", "sectors": ["Energy"]}, "type": "Feature", "geometry": {"coordinates": [68.61126, 37.19041], "type": "Point"}}, {"id": 85, "properties": {"id": "46004-40043-013-GRNT0230", "locationName": "Kunduz", "title": "REGIONAL POWER TRANSMISSION INTERCONNECTION PROJEC", "status": "Completion", "sectors": ["Energy"]}, "type": "Feature", "geometry": {"coordinates": [68.857, 36.72896], "type": "Point"}}, {"id": 86, "properties": {"id": "46004-40043-013-GRNT0230", "locationName": "Puli Khumri", "title": "REGIONAL POWER TRANSMISSION INTERCONNECTION PROJEC", "status": "Completion", "sectors": ["Energy"]}, "type": "Feature", "geometry": {"coordinates": [68.64001, 36.00118], "type": "Point"}}, {"id": 87, "properties": {"id": "46004-40043-013-LN2304", "locationName": "Qizil Qal\u2018ah", "title": "REGIONAL POWER TRANSMISSION INTERCONNECTION PROJ-AFHAN COMPONENT", "status": "Completion", "sectors": ["Energy"]}, "type": "Feature", "geometry": {"coordinates": [68.61126, 37.19041], "type": "Point"}}, {"id": 88, "properties": {"id": "46004-40043-013-LN2304", "locationName": "Kunduz", "title": "REGIONAL POWER TRANSMISSION INTERCONNECTION PROJ-AFHAN COMPONENT", "status": "Completion", "sectors": ["Energy"]}, "type": "Feature", "geometry": {"coordinates": [68.857, 36.72896], "type": "Point"}}, {"id": 89, "properties": {"id": "46004-40043-013-LN2304", "locationName": "Puli Khumri", "title": "REGIONAL POWER TRANSMISSION INTERCONNECTION PROJ-AFHAN COMPONENT", "status": "Completion", "sectors": ["Energy"]}, "type": "Feature", "geometry": {"coordinates": [68.64001, 36.00118], "type": "Point"}}, {"id": 90, "properties": {"id": "46004-42095-032-GRNT0244", "locationName": "Sangalak-i-Kaisar", "title": "MFF: ROAD NETWORK DEVELOPMENT INVESTMENT PROGRAM-T", "status": "Implementation", "sectors": ["Transport"]}, "type": "Feature", "geometry": {"coordinates": [64.29318, 35.68747], "type": "Point"}}, {"id": 91, "properties": {"id": "46004-42095-032-GRNT0244", "locationName": "Nijr\u0101b", "title": "MFF: ROAD NETWORK DEVELOPMENT INVESTMENT PROGRAM-T", "status": "Implementation", "sectors": ["Transport"]}, "type": "Feature", "geometry": {"coordinates": [69.57242, 34.9789], "type": "Point"}}, {"id": 92, "properties": {"id": "46004-42095-032-GRNT0244", "locationName": "Bala Murghab", "title": "MFF: ROAD NETWORK DEVELOPMENT INVESTMENT PROGRAM-T", "status": "Implementation", "sectors": ["Transport"]}, "type": "Feature", "geometry": {"coordinates": [63.32886, 35.58408], "type": "Point"}}, {"id": 93, "properties": {"id": "46004-42095-032-GRNT0244", "locationName": "L\u0101m\u0101n", "title": "MFF: ROAD NETWORK DEVELOPMENT INVESTMENT PROGRAM-T", "status": "Implementation", "sectors": ["Transport"]}, "type": "Feature", "geometry": {"coordinates": [63.10416, 34.75231], "type": "Point"}}, {"id": 94, "properties": {"id": "46004-42095-032-GRNT0244", "locationName": "Jabal Saraj", "title": "MFF: ROAD NETWORK DEVELOPMENT INVESTMENT PROGRAM-T", "status": "Implementation", "sectors": ["Transport"]}, "type": "Feature", "geometry": {"coordinates": [69.23778, 35.11833], "type": "Point"}}, {"id": 95, "properties": {"id": "46004-42095-032-GRNT0244", "locationName": "Fayzabad", "title": "MFF: ROAD NETWORK DEVELOPMENT INVESTMENT PROGRAM-T", "status": "Implementation", "sectors": ["Transport"]}, "type": "Feature", "geometry": {"coordinates": [70.58002, 37.11664], "type": "Point"}}, {"id": 96, "properties": {"id": "46004-42095-032-GRNT0244", "locationName": "Sabar\u012b", "title": "MFF: ROAD NETWORK DEVELOPMENT INVESTMENT PROGRAM-T", "status": "Implementation", "sectors": ["Transport"]}, "type": "Feature", "geometry": {"coordinates": [69.8946, 33.5503], "type": "Point"}}, {"id": 97, "properties": {"id": "46004-42095-032-GRNT0244", "locationName": "Bah\u0101rak", "title": "MFF: ROAD NETWORK DEVELOPMENT INVESTMENT PROGRAM-T", "status": "Implementation", "sectors": ["Transport"]}, "type": "Feature", "geometry": {"coordinates": [69.39947, 36.80192], "type": "Point"}}, {"id": 98, "properties": {"id": "46004-42095-032-GRNT0244", "locationName": "Bagr\u0101m\u012b", "title": "MFF: ROAD NETWORK DEVELOPMENT INVESTMENT PROGRAM-T", "status": "Implementation", "sectors": ["Transport"]}, "type": "Feature", "geometry": {"coordinates": [69.36859, 34.46484], "type": "Point"}}, {"id": 99, "properties": {"id": "46004-42095-032-GRNT0244", "locationName": "Sur\u016bb\u012b", "title": "MFF: ROAD NETWORK DEVELOPMENT INVESTMENT PROGRAM-T", "status": "Implementation", "sectors": ["Transport"]}, "type": "Feature", "geometry": {"coordinates": [70.55364, 34.09014], "type": "Point"}}, {"id": 100, "properties": {"id": "46004-42095-032-GRNT0244", "locationName": "Fa\u012b\u1e95\u0101b\u0101d", "title": "MFF: ROAD NETWORK DEVELOPMENT INVESTMENT PROGRAM-T", "status": "Implementation", "sectors": ["Transport"]}, "type": "Feature", "geometry": {"coordinates": [70.61222, 37.21347], "type": "Point"}}, {"id": 101, "properties": {"id": "46004-42095-032-GRNT0244", "locationName": "Murgh\u0101b", "title": "MFF: ROAD NETWORK DEVELOPMENT INVESTMENT PROGRAM-T", "status": "Implementation", "sectors": ["Transport"]}, "type": "Feature", "geometry": {"coordinates": [63.46962, 35.46208], "type": "Point"}}, {"id": 102, "properties": {"id": "46004-42095-032-GRNT0244", "locationName": "Qa\u012b\u015f\u0101r", "title": "MFF: ROAD NETWORK DEVELOPMENT INVESTMENT PROGRAM-T", "status": "Implementation", "sectors": ["Transport"]}, "type": "Feature", "geometry": {"coordinates": [64.27908, 35.64137], "type": "Point"}}, {"id": 103, "properties": {"id": "46004-42095-032-GRNT0244", "locationName": "Bagr\u0101m\u012b", "title": "MFF: ROAD NETWORK DEVELOPMENT INVESTMENT PROGRAM-T", "status": "Implementation", "sectors": ["Transport"]}, "type": "Feature", "geometry": {"coordinates": [69.32819, 34.49347], "type": "Point"}}, {"id": 104, "properties": {"id": "46004-42095-032-GRNT0244", "locationName": "Nijr\u0101b", "title": "MFF: ROAD NETWORK DEVELOPMENT INVESTMENT PROGRAM-T", "status": "Implementation", "sectors": ["Transport"]}, "type": "Feature", "geometry": {"coordinates": [69.63337, 35.04224], "type": "Point"}}, {"id": 105, "properties": {"id": "46004-42095-032-GRNT0244", "locationName": "R\u014dd\u0101t", "title": "MFF: ROAD NETWORK DEVELOPMENT INVESTMENT PROGRAM-T", "status": "Implementation", "sectors": ["Transport"]}, "type": "Feature", "geometry": {"coordinates": [70.56797, 34.27302], "type": "Point"}}, {"id": 106, "properties": {"id": "46004-42095-032-GRNT0244", "locationName": "T\u0101luq\u0101n", "title": "MFF: ROAD NETWORK DEVELOPMENT INVESTMENT PROGRAM-T", "status": "Implementation", "sectors": ["Transport"]}, "type": "Feature", "geometry": {"coordinates": [69.60377, 36.73973], "type": "Point"}}, {"id": 107, "properties": {"id": "46004-42095-032-GRNT0244", "locationName": "\u015eabar\u012b", "title": "MFF: ROAD NETWORK DEVELOPMENT INVESTMENT PROGRAM-T", "status": "Implementation", "sectors": ["Transport"]}, "type": "Feature", "geometry": {"coordinates": [69.9118, 33.54352], "type": "Point"}}, {"id": 108, "properties": {"id": "46004-42095-032-GRNT0244", "locationName": "Jabal Saraj", "title": "MFF: ROAD NETWORK DEVELOPMENT INVESTMENT PROGRAM-T", "status": "Implementation", "sectors": ["Transport"]}, "type": "Feature", "geometry": {"coordinates": [69.18465, 35.10862], "type": "Point"}}, {"id": 109, "properties": {"id": "46004-42095-032-GRNT0244", "locationName": "Qala-i-Naw", "title": "MFF: ROAD NETWORK DEVELOPMENT INVESTMENT PROGRAM-T", "status": "Implementation", "sectors": ["Transport"]}, "type": "Feature", "geometry": {"coordinates": [63.05603, 34.88199], "type": "Point"}}, {"id": 110, "properties": {"id": "46004-44482-022-GRNT0261", "locationName": "Nijrab", "title": "MFF-TRNSPRT NETWRK DEVL INVSTMENT PROGRAM-TRANCHE", "status": "Implementation", "sectors": ["Transport"]}, "type": "Feature", "geometry": {"coordinates": [69.57242, 34.9789], "type": "Point"}}, {"id": 111, "properties": {"id": "46004-44482-022-GRNT0261", "locationName": "Mazar-e Sharif", "title": "MFF-TRNSPRT NETWRK DEVL INVSTMENT PROGRAM-TRANCHE", "status": "Implementation", "sectors": ["Transport"]}, "type": "Feature", "geometry": {"coordinates": [67.11087, 36.70904], "type": "Point"}}, {"id": 112, "properties": {"id": "46004-44482-022-GRNT0261", "locationName": "Mahmoud Raqi", "title": "MFF-TRNSPRT NETWRK DEVL INVSTMENT PROGRAM-TRANCHE", "status": "Implementation", "sectors": ["Transport"]}, "type": "Feature", "geometry": {"coordinates": [69.34, 35.01], "type": "Point"}}, {"id": 113, "properties": {"id": "46004-44482-022-GRNT0261", "locationName": "Kohistan", "title": "MFF-TRNSPRT NETWRK DEVL INVSTMENT PROGRAM-TRANCHE", "status": "Implementation", "sectors": ["Transport"]}, "type": "Feature", "geometry": {"coordinates": [69.3, 35.11667], "type": "Point"}}, {"id": 114, "properties": {"id": "46004-44482-022-GRNT0261", "locationName": "Wilayat-e Kabul", "title": "MFF-TRNSPRT NETWRK DEVL INVSTMENT PROGRAM-TRANCHE", "status": "Implementation", "sectors": ["Transport"]}, "type": "Feature", "geometry": {"coordinates": [69.41667, 34.5], "type": "Point"}}, {"id": 115, "properties": {"id": "46004-44482-022-GRNT0261", "locationName": "Jamalaghah", "title": "MFF-TRNSPRT NETWRK DEVL INVSTMENT PROGRAM-TRANCHE", "status": "Implementation", "sectors": ["Transport"]}, "type": "Feature", "geometry": {"coordinates": [69.29167, 35.06481], "type": "Point"}}, {"id": 116, "properties": {"id": "46004-44482-022-GRNT0261", "locationName": "Jabal os Saraj", "title": "MFF-TRNSPRT NETWRK DEVL INVSTMENT PROGRAM-TRANCHE", "status": "Implementation", "sectors": ["Transport"]}, "type": "Feature", "geometry": {"coordinates": [69.23778, 35.11833], "type": "Point"}}, {"id": 117, "properties": {"id": "46004-44482-022-GRNT0261", "locationName": "Hairatan", "title": "MFF-TRNSPRT NETWRK DEVL INVSTMENT PROGRAM-TRANCHE", "status": "Implementation", "sectors": ["Transport"]}, "type": "Feature", "geometry": {"coordinates": [67.4241, 37.2214], "type": "Point"}}, {"id": 118, "properties": {"id": "46004-44482-022-GRNT0261", "locationName": "Giawah-ye Pa'in", "title": "MFF-TRNSPRT NETWRK DEVL INVSTMENT PROGRAM-TRANCHE", "status": "Implementation", "sectors": ["Transport"]}, "type": "Feature", "geometry": {"coordinates": [69.5092, 35.01661], "type": "Point"}}, {"id": 119, "properties": {"id": "46004-44482-022-GRNT0261", "locationName": "Fayzabad", "title": "MFF-TRNSPRT NETWRK DEVL INVSTMENT PROGRAM-TRANCHE", "status": "Implementation", "sectors": ["Transport"]}, "type": "Feature", "geometry": {"coordinates": [70.58002, 37.11664], "type": "Point"}}, {"id": 120, "properties": {"id": "46004-44482-022-GRNT0261", "locationName": "Durnamah", "title": "MFF-TRNSPRT NETWRK DEVL INVSTMENT PROGRAM-TRANCHE", "status": "Implementation", "sectors": ["Transport"]}, "type": "Feature", "geometry": {"coordinates": [69.4976, 35.06602], "type": "Point"}}, {"id": 121, "properties": {"id": "46004-44482-022-GRNT0261", "locationName": "Baharak", "title": "MFF-TRNSPRT NETWRK DEVL INVSTMENT PROGRAM-TRANCHE", "status": "Implementation", "sectors": ["Transport"]}, "type": "Feature", "geometry": {"coordinates": [70.90664, 37.00254], "type": "Point"}}, {"id": 122, "properties": {"id": "46004-44482-022-GRNT0261", "locationName": "Bagrami", "title": "MFF-TRNSPRT NETWRK DEVL INVSTMENT PROGRAM-TRANCHE", "status": "Implementation", "sectors": ["Transport"]}, "type": "Feature", "geometry": {"coordinates": [69.27427, 34.49376], "type": "Point"}}, {"id": 123, "properties": {"id": "46004-44482-022-GRNT0261", "locationName": "Islamic Republic of Afghanistan", "title": "MFF-TRNSPRT NETWRK DEVL INVSTMENT PROGRAM-TRANCHE", "status": "Implementation", "sectors": ["Transport"]}, "type": "Feature", "geometry": {"coordinates": [66.0, 33.0], "type": "Point"}}, {"id": 124, "properties": {"id": "46004-44482-022-GRNT0261", "locationName": "Gul Bahar", "title": "MFF-TRNSPRT NETWRK DEVL INVSTMENT PROGRAM-TRANCHE", "status": "Implementation", "sectors": ["Transport"]}, "type": "Feature", "geometry": {"coordinates": [69.26964, 35.1459], "type": "Point"}}, {"id": 125, "properties": {"id": "46004-44482-022-GRNT0261", "locationName": "Baharak", "title": "MFF-TRNSPRT NETWRK DEVL INVSTMENT PROGRAM-TRANCHE", "status": "Implementation", "sectors": ["Transport"]}, "type": "Feature", "geometry": {"coordinates": [70.89999, 37.03761], "type": "Point"}}, {"id": 126, "properties": {"id": "46004-44482-022-GRNT0261", "locationName": "Faizabad", "title": "MFF-TRNSPRT NETWRK DEVL INVSTMENT PROGRAM-TRANCHE", "status": "Implementation", "sectors": ["Transport"]}, "type": "Feature", "geometry": {"coordinates": [70.61222, 37.21347], "type": "Point"}}, {"id": 127, "properties": {"id": "46004-44482-022-GRNT0261", "locationName": "Bagrami", "title": "MFF-TRNSPRT NETWRK DEVL INVSTMENT PROGRAM-TRANCHE", "status": "Implementation", "sectors": ["Transport"]}, "type": "Feature", "geometry": {"coordinates": [69.32819, 34.49347], "type": "Point"}}, {"id": 128, "properties": {"id": "46004-44482-022-GRNT0261", "locationName": "Koh Band", "title": "MFF-TRNSPRT NETWRK DEVL INVSTMENT PROGRAM-TRANCHE", "status": "Implementation", "sectors": ["Transport"]}, "type": "Feature", "geometry": {"coordinates": [69.47342, 35.10575], "type": "Point"}}, {"id": 129, "properties": {"id": "46004-44482-022-GRNT0261", "locationName": "Mahmud-e Raqi", "title": "MFF-TRNSPRT NETWRK DEVL INVSTMENT PROGRAM-TRANCHE", "status": "Implementation", "sectors": ["Transport"]}, "type": "Feature", "geometry": {"coordinates": [69.39984, 35.01368], "type": "Point"}}, {"id": 130, "properties": {"id": "46004-44482-022-GRNT0261", "locationName": "Nijrab", "title": "MFF-TRNSPRT NETWRK DEVL INVSTMENT PROGRAM-TRANCHE", "status": "Implementation", "sectors": ["Transport"]}, "type": "Feature", "geometry": {"coordinates": [69.63337, 35.04224], "type": "Point"}}, {"id": 131, "properties": {"id": "46004-44482-022-GRNT0261", "locationName": "Kaldar", "title": "MFF-TRNSPRT NETWRK DEVL INVSTMENT PROGRAM-TRANCHE", "status": "Implementation", "sectors": ["Transport"]}, "type": "Feature", "geometry": {"coordinates": [67.54203, 37.12746], "type": "Point"}}, {"id": 132, "properties": {"id": "46004-44482-022-GRNT0261", "locationName": "Jabal us Saraj", "title": "MFF-TRNSPRT NETWRK DEVL INVSTMENT PROGRAM-TRANCHE", "status": "Implementation", "sectors": ["Transport"]}, "type": "Feature", "geometry": {"coordinates": [69.18465, 35.10862], "type": "Point"}}, {"id": 133, "properties": {"id": "46004-44482-022-GRNT0261", "locationName": "Nahri Shahi", "title": "MFF-TRNSPRT NETWRK DEVL INVSTMENT PROGRAM-TRANCHE", "status": "Implementation", "sectors": ["Transport"]}, "type": "Feature", "geometry": {"coordinates": [67.21497, 36.84655], "type": "Point"}}, {"id": 134, "properties": {"id": "46004-44482-022-GRNT0261", "locationName": "Mazar-e Sharif", "title": "MFF-TRNSPRT NETWRK DEVL INVSTMENT PROGRAM-TRANCHE", "status": "Implementation", "sectors": ["Transport"]}, "type": "Feature", "geometry": {"coordinates": [67.1157, 36.70993], "type": "Point"}}, {"id": 135, "properties": {"id": "46004-42094-042-GRNT0280", "locationName": "Gereshk", "title": "MFF:ENERGY SECTOR DEVELOPMENT INVESTMENT PROGRAM-T", "status": "Implementation", "sectors": ["Energy"]}, "type": "Feature", "geometry": {"coordinates": [64.57005, 31.82089], "type": "Point"}}, {"id": 136, "properties": {"id": "46004-44482-023-GRNT0327", "locationName": "Wilayat-e Paktika", "title": "MFF:TRANSPORT NETWORK DEVELOPMENT INVESTMENT PROGR", "status": "Implementation", "sectors": ["Transport"]}, "type": "Feature", "geometry": {"coordinates": [68.75, 32.41667], "type": "Point"}}, {"id": 137, "properties": {"id": "46004-44482-023-GRNT0327", "locationName": "Nangarhar", "title": "MFF:TRANSPORT NETWORK DEVELOPMENT INVESTMENT PROGR", "status": "Implementation", "sectors": ["Transport"]}, "type": "Feature", "geometry": {"coordinates": [70.41667, 34.33333], "type": "Point"}}, {"id": 138, "properties": {"id": "46004-44482-023-GRNT0327", "locationName": "Jalalabad", "title": "MFF:TRANSPORT NETWORK DEVELOPMENT INVESTMENT PROGR", "status": "Implementation", "sectors": ["Transport"]}, "type": "Feature", "geometry": {"coordinates": [70.45153, 34.42647], "type": "Point"}}, {"id": 139, "properties": {"id": "46004-44482-023-GRNT0327", "locationName": "Helmand", "title": "MFF:TRANSPORT NETWORK DEVELOPMENT INVESTMENT PROGR", "status": "Implementation", "sectors": ["Transport"]}, "type": "Feature", "geometry": {"coordinates": [64.0, 31.0], "type": "Point"}}, {"id": 140, "properties": {"id": "46004-44482-023-GRNT0327", "locationName": "Gereshk", "title": "MFF:TRANSPORT NETWORK DEVELOPMENT INVESTMENT PROGR", "status": "Implementation", "sectors": ["Transport"]}, "type": "Feature", "geometry": {"coordinates": [64.57005, 31.82089], "type": "Point"}}, {"id": 141, "properties": {"id": "46004-44482-023-GRNT0327", "locationName": "Chah Anjir", "title": "MFF:TRANSPORT NETWORK DEVELOPMENT INVESTMENT PROGR", "status": "Implementation", "sectors": ["Transport"]}, "type": "Feature", "geometry": {"coordinates": [64.31485, 31.6793], "type": "Point"}}, {"id": 142, "properties": {"id": "46004-44482-023-GRNT0327", "locationName": "Islamic Republic of Afghanistan", "title": "MFF:TRANSPORT NETWORK DEVELOPMENT INVESTMENT PROGR", "status": "Implementation", "sectors": ["Transport"]}, "type": "Feature", "geometry": {"coordinates": [66.0, 33.0], "type": "Point"}}, {"id": 143, "properties": {"id": "46004-44482-023-GRNT0327", "locationName": "Angoor Adda", "title": "MFF:TRANSPORT NETWORK DEVELOPMENT INVESTMENT PROGR", "status": "Implementation", "sectors": ["Transport"]}, "type": "Feature", "geometry": {"coordinates": [69.27167, 32.51917], "type": "Point"}}, {"id": 144, "properties": {"id": "46004-44482-023-GRNT0327", "locationName": "Nad `Ali", "title": "MFF:TRANSPORT NETWORK DEVELOPMENT INVESTMENT PROGR", "status": "Implementation", "sectors": ["Transport"]}, "type": "Feature", "geometry": {"coordinates": [63.86144, 31.62594], "type": "Point"}}, {"id": 145, "properties": {"id": "46004-44482-023-GRNT0327", "locationName": "Nahr-e Saraj", "title": "MFF:TRANSPORT NETWORK DEVELOPMENT INVESTMENT PROGR", "status": "Implementation", "sectors": ["Transport"]}, "type": "Feature", "geometry": {"coordinates": [64.60853, 31.82936], "type": "Point"}}, {"id": 146, "properties": {"id": "46004-44482-023-GRNT0327", "locationName": "Hisarak", "title": "MFF:TRANSPORT NETWORK DEVELOPMENT INVESTMENT PROGR", "status": "Implementation", "sectors": ["Transport"]}, "type": "Feature", "geometry": {"coordinates": [69.77015, 34.28164], "type": "Point"}}, {"id": 147, "properties": {"id": "46004-44482-023-GRNT0327", "locationName": "Jalalabad", "title": "MFF:TRANSPORT NETWORK DEVELOPMENT INVESTMENT PROGR", "status": "Implementation", "sectors": ["Transport"]}, "type": "Feature", "geometry": {"coordinates": [70.44959, 34.41712], "type": "Point"}}, {"id": 148, "properties": {"id": "46004-44482-023-GRNT0327", "locationName": "Khugyani", "title": "MFF:TRANSPORT NETWORK DEVELOPMENT INVESTMENT PROGR", "status": "Implementation", "sectors": ["Transport"]}, "type": "Feature", "geometry": {"coordinates": [70.14675, 34.22706], "type": "Point"}}, {"id": 149, "properties": {"id": "46004-44482-023-GRNT0327", "locationName": "Sherzad", "title": "MFF:TRANSPORT NETWORK DEVELOPMENT INVESTMENT PROGR", "status": "Implementation", "sectors": ["Transport"]}, "type": "Feature", "geometry": {"coordinates": [69.98013, 34.19418], "type": "Point"}}, {"id": 150, "properties": {"id": "46004-44482-023-GRNT0327", "locationName": "Surkh Rod", "title": "MFF:TRANSPORT NETWORK DEVELOPMENT INVESTMENT PROGR", "status": "Implementation", "sectors": ["Transport"]}, "type": "Feature", "geometry": {"coordinates": [70.27444, 34.39385], "type": "Point"}}, {"id": 151, "properties": {"id": "46004-44482-023-GRNT0327", "locationName": "Bermal", "title": "MFF:TRANSPORT NETWORK DEVELOPMENT INVESTMENT PROGR", "status": "Implementation", "sectors": ["Transport"]}, "type": "Feature", "geometry": {"coordinates": [69.27614, 32.71332], "type": "Point"}}, {"id": 152, "properties": {"id": "46004-44482-023-GRNT0327", "locationName": "Urgun", "title": "MFF:TRANSPORT NETWORK DEVELOPMENT INVESTMENT PROGR", "status": "Implementation", "sectors": ["Transport"]}, "type": "Feature", "geometry": {"coordinates": [69.19243, 32.97518], "type": "Point"}}, {"id": 153, "properties": {"id": "46004-44482-023-GRNT0327", "locationName": "Sar Rowzah", "title": "MFF:TRANSPORT NETWORK DEVELOPMENT INVESTMENT PROGR", "status": "Implementation", "sectors": ["Transport"]}, "type": "Feature", "geometry": {"coordinates": [69.0343, 33.06067], "type": "Point"}}, {"id": 154, "properties": {"id": "46004-44482-023-GRNT0327", "locationName": "Sarobi", "title": "MFF:TRANSPORT NETWORK DEVELOPMENT INVESTMENT PROGR", "status": "Implementation", "sectors": ["Transport"]}, "type": "Feature", "geometry": {"coordinates": [69.04727, 32.75172], "type": "Point"}}, {"id": 155, "properties": {"id": "46004-44482-023-GRNT0327", "locationName": "Sharan", "title": "MFF:TRANSPORT NETWORK DEVELOPMENT INVESTMENT PROGR", "status": "Implementation", "sectors": ["Transport"]}, "type": "Feature", "geometry": {"coordinates": [68.72573, 33.20084], "type": "Point"}}, {"id": 156, "properties": {"id": "46004-44482-023-GRNT0327", "locationName": "Sharan", "title": "MFF:TRANSPORT NETWORK DEVELOPMENT INVESTMENT PROGR", "status": "Implementation", "sectors": ["Transport"]}, "type": "Feature", "geometry": {"coordinates": [68.73045, 33.17568], "type": "Point"}}, {"id": 157, "properties": {"id": "46004-36252-013-GRNT0033", "locationName": "Herat", "title": "WESTERN BASINS WATER RESOURCES MANAGEMENT", "status": "Implementation", "sectors": ["Agriculture, natural resources and rural development"]}, "type": "Feature", "geometry": {"coordinates": [62.0, 34.5], "type": "Point"}}, {"id": 158, "properties": {"id": "46004-36252-013-GRNT0033", "locationName": "Ghowr", "title": "WESTERN BASINS WATER RESOURCES MANAGEMENT", "status": "Implementation", "sectors": ["Agriculture, natural resources and rural development"]}, "type": "Feature", "geometry": {"coordinates": [65.0, 34.0], "type": "Point"}}, {"id": 159, "properties": {"id": "46004-36252-013-GRNT0033", "locationName": "Badghis", "title": "WESTERN BASINS WATER RESOURCES MANAGEMENT", "status": "Implementation", "sectors": ["Agriculture, natural resources and rural development"]}, "type": "Feature", "geometry": {"coordinates": [63.75, 35.0], "type": "Point"}}, {"id": 160, "properties": {"id": "46004-36252-013-GRNT0033", "locationName": "R\u014dd-e M\u016brgh\u0101b", "title": "WESTERN BASINS WATER RESOURCES MANAGEMENT", "status": "Implementation", "sectors": ["Agriculture, natural resources and rural development"]}, "type": "Feature", "geometry": {"coordinates": [64.08969, 35.04995], "type": "Point"}}, {"id": 161, "properties": {"id": "46004-36252-013-GRNT0033", "locationName": "Harirud", "title": "WESTERN BASINS WATER RESOURCES MANAGEMENT", "status": "Implementation", "sectors": ["Agriculture, natural resources and rural development"]}, "type": "Feature", "geometry": {"coordinates": [63.4163, 34.38112], "type": "Point"}}, {"id": 162, "properties": {"id": "46004-42094-052-GRNT0332", "locationName": "Shibirgh\u0101n", "title": "MFF:ENERGY SECTOR DEVELOPMENT_INVESTMENT_PROGRAM-P", "status": "Implementation", "sectors": ["Energy"]}, "type": "Feature", "geometry": {"coordinates": [65.7529, 36.66757], "type": "Point"}}, {"id": 163, "properties": {"id": "46004-42094-052-GRNT0332", "locationName": "Pul-e \u2018Alam", "title": "MFF:ENERGY SECTOR DEVELOPMENT_INVESTMENT_PROGRAM-P", "status": "Implementation", "sectors": ["Energy"]}, "type": "Feature", "geometry": {"coordinates": [69.02274, 33.99529], "type": "Point"}}, {"id": 164, "properties": {"id": "46004-42094-052-GRNT0332", "locationName": "Mazari Sharif", "title": "MFF:ENERGY SECTOR DEVELOPMENT_INVESTMENT_PROGRAM-P", "status": "Implementation", "sectors": ["Energy"]}, "type": "Feature", "geometry": {"coordinates": [67.11087, 36.70904], "type": "Point"}}, {"id": 165, "properties": {"id": "46004-42094-052-GRNT0332", "locationName": "Gardez", "title": "MFF:ENERGY SECTOR DEVELOPMENT_INVESTMENT_PROGRAM-P", "status": "Implementation", "sectors": ["Energy"]}, "type": "Feature", "geometry": {"coordinates": [69.22592, 33.59744], "type": "Point"}}, {"id": 166, "properties": {"id": "46004-42094-052-GRNT0332", "locationName": "Andkh\u014dy", "title": "MFF:ENERGY SECTOR DEVELOPMENT_INVESTMENT_PROGRAM-P", "status": "Implementation", "sectors": ["Energy"]}, "type": "Feature", "geometry": {"coordinates": [65.12376, 36.95293], "type": "Point"}}, {"id": 167, "properties": {"id": "46004-42094-052-GRNT0332", "locationName": "Andkh\u014dy", "title": "MFF:ENERGY SECTOR DEVELOPMENT_INVESTMENT_PROGRAM-P", "status": "Implementation", "sectors": ["Energy"]}, "type": "Feature", "geometry": {"coordinates": [65.28301, 36.85437], "type": "Point"}}, {"id": 168, "properties": {"id": "46004-42094-052-GRNT0332", "locationName": "Pul-i-Alam", "title": "MFF:ENERGY SECTOR DEVELOPMENT_INVESTMENT_PROGRAM-P", "status": "Implementation", "sectors": ["Energy"]}, "type": "Feature", "geometry": {"coordinates": [69.05159, 33.97374], "type": "Point"}}, {"id": 169, "properties": {"id": "46004-42094-052-GRNT0332", "locationName": "Shibirgh\u0101n", "title": "MFF:ENERGY SECTOR DEVELOPMENT_INVESTMENT_PROGRAM-P", "status": "Implementation", "sectors": ["Energy"]}, "type": "Feature", "geometry": {"coordinates": [65.74885, 36.56624], "type": "Point"}}, {"id": 170, "properties": {"id": "46004-42094-052-GRNT0332", "locationName": "Gard\u0113z", "title": "MFF:ENERGY SECTOR DEVELOPMENT_INVESTMENT_PROGRAM-P", "status": "Implementation", "sectors": ["Energy"]}, "type": "Feature", "geometry": {"coordinates": [69.24159, 33.60134], "type": "Point"}}, {"id": 171, "properties": {"id": "46004-42094-052-GRNT0332", "locationName": "Maz\u0101r-e Shar\u012bf", "title": "MFF:ENERGY SECTOR DEVELOPMENT_INVESTMENT_PROGRAM-P", "status": "Implementation", "sectors": ["Energy"]}, "type": "Feature", "geometry": {"coordinates": [67.1157, 36.70993], "type": "Point"}}, {"id": 172, "properties": {"id": "46004-44482-024-GRNT0355", "locationName": "Zayraki", "title": "MFF:TRANSPRT NETWORK DEVT INVSTMNT PROGRAM-TRANCHE", "status": "Implementation", "sectors": ["Transport"]}, "type": "Feature", "geometry": {"coordinates": [67.28915, 35.80693], "type": "Point"}}, {"id": 173, "properties": {"id": "46004-44482-024-GRNT0355", "locationName": "Bazar-e Yakawlang", "title": "MFF:TRANSPRT NETWORK DEVT INVSTMNT PROGRAM-TRANCHE", "status": "Implementation", "sectors": ["Transport"]}, "type": "Feature", "geometry": {"coordinates": [66.97378, 34.73525], "type": "Point"}}, {"id": 174, "properties": {"id": "46004-44482-024-GRNT0355", "locationName": "Surkh Joy", "title": "MFF:TRANSPRT NETWORK DEVT INVSTMNT PROGRAM-TRANCHE", "status": "Implementation", "sectors": ["Transport"]}, "type": "Feature", "geometry": {"coordinates": [67.19774, 35.63935], "type": "Point"}}, {"id": 175, "properties": {"id": "46004-44482-024-GRNT0355", "locationName": "Safed Khak", "title": "MFF:TRANSPRT NETWORK DEVT INVSTMNT PROGRAM-TRANCHE", "status": "Implementation", "sectors": ["Transport"]}, "type": "Feature", "geometry": {"coordinates": [67.22047, 35.529], "type": "Point"}}, {"id": 176, "properties": {"id": "46004-44482-024-GRNT0355", "locationName": "Sar-e Bum", "title": "MFF:TRANSPRT NETWORK DEVT INVSTMNT PROGRAM-TRANCHE", "status": "Implementation", "sectors": ["Transport"]}, "type": "Feature", "geometry": {"coordinates": [67.23333, 35.53688], "type": "Point"}}, {"id": 177, "properties": {"id": "46004-44482-024-GRNT0355", "locationName": "Sadmardah", "title": "MFF:TRANSPRT NETWORK DEVT INVSTMNT PROGRAM-TRANCHE", "status": "Implementation", "sectors": ["Transport"]}, "type": "Feature", "geometry": {"coordinates": [67.22407, 35.66605], "type": "Point"}}, {"id": 178, "properties": {"id": "46004-44482-024-GRNT0355", "locationName": "Rashak", "title": "MFF:TRANSPRT NETWORK DEVT INVSTMNT PROGRAM-TRANCHE", "status": "Implementation", "sectors": ["Transport"]}, "type": "Feature", "geometry": {"coordinates": [67.1889, 35.6303], "type": "Point"}}, {"id": 179, "properties": {"id": "46004-44482-024-GRNT0355", "locationName": "Qal`ah", "title": "MFF:TRANSPRT NETWORK DEVT INVSTMNT PROGRAM-TRANCHE", "status": "Implementation", "sectors": ["Transport"]}, "type": "Feature", "geometry": {"coordinates": [67.28722, 35.90932], "type": "Point"}}, {"id": 180, "properties": {"id": "46004-44482-024-GRNT0355", "locationName": "Qal`ah Now", "title": "MFF:TRANSPRT NETWORK DEVT INVSTMNT PROGRAM-TRANCHE", "status": "Implementation", "sectors": ["Transport"]}, "type": "Feature", "geometry": {"coordinates": [67.14129, 35.4435], "type": "Point"}}, {"id": 181, "properties": {"id": "46004-44482-024-GRNT0355", "locationName": "Kotah", "title": "MFF:TRANSPRT NETWORK DEVT INVSTMNT PROGRAM-TRANCHE", "status": "Implementation", "sectors": ["Transport"]}, "type": "Feature", "geometry": {"coordinates": [67.14132, 35.43392], "type": "Point"}}, {"id": 182, "properties": {"id": "46004-44482-024-GRNT0355", "locationName": "Hasani", "title": "MFF:TRANSPRT NETWORK DEVT INVSTMNT PROGRAM-TRANCHE", "status": "Implementation", "sectors": ["Transport"]}, "type": "Feature", "geometry": {"coordinates": [67.27296, 35.74714], "type": "Point"}}, {"id": 183, "properties": {"id": "46004-44482-024-GRNT0355", "locationName": "Gardan Dewal", "title": "MFF:TRANSPRT NETWORK DEVT INVSTMNT PROGRAM-TRANCHE", "status": "Implementation", "sectors": ["Transport"]}, "type": "Feature", "geometry": {"coordinates": [68.2609, 34.50982], "type": "Point"}}, {"id": 184, "properties": {"id": "46004-44482-024-GRNT0355", "locationName": "Darah-ye Daymirdad", "title": "MFF:TRANSPRT NETWORK DEVT INVSTMNT PROGRAM-TRANCHE", "status": "Implementation", "sectors": ["Transport"]}, "type": "Feature", "geometry": {"coordinates": [67.13788, 35.42606], "type": "Point"}}, {"id": 185, "properties": {"id": "46004-44482-024-GRNT0355", "locationName": "Deh-e Tarchi", "title": "MFF:TRANSPRT NETWORK DEVT INVSTMNT PROGRAM-TRANCHE", "status": "Implementation", "sectors": ["Transport"]}, "type": "Feature", "geometry": {"coordinates": [66.89256, 34.73931], "type": "Point"}}, {"id": 186, "properties": {"id": "46004-44482-024-GRNT0355", "locationName": "Chahar Deh", "title": "MFF:TRANSPRT NETWORK DEVT INVSTMNT PROGRAM-TRANCHE", "status": "Implementation", "sectors": ["Transport"]}, "type": "Feature", "geometry": {"coordinates": [67.25876, 35.6777], "type": "Point"}}, {"id": 187, "properties": {"id": "46004-44482-024-GRNT0355", "locationName": "Chaghcharan", "title": "MFF:TRANSPRT NETWORK DEVT INVSTMNT PROGRAM-TRANCHE", "status": "Implementation", "sectors": ["Transport"]}, "type": "Feature", "geometry": {"coordinates": [65.25094, 34.51952], "type": "Point"}}, {"id": 188, "properties": {"id": "46004-44482-024-GRNT0355", "locationName": "Ahangaran", "title": "MFF:TRANSPRT NETWORK DEVT INVSTMNT PROGRAM-TRANCHE", "status": "Implementation", "sectors": ["Transport"]}, "type": "Feature", "geometry": {"coordinates": [67.15438, 35.48427], "type": "Point"}}, {"id": 189, "properties": {"id": "46004-44482-024-GRNT0355", "locationName": "Islamic Republic of Afghanistan", "title": "MFF:TRANSPRT NETWORK DEVT INVSTMNT PROGRAM-TRANCHE", "status": "Implementation", "sectors": ["Transport"]}, "type": "Feature", "geometry": {"coordinates": [66.0, 33.0], "type": "Point"}}, {"id": 190, "properties": {"id": "46004-44482-024-GRNT0355", "locationName": "Baghalak", "title": "MFF:TRANSPRT NETWORK DEVT INVSTMNT PROGRAM-TRANCHE", "status": "Implementation", "sectors": ["Transport"]}, "type": "Feature", "geometry": {"coordinates": [66.87779, 34.78947], "type": "Point"}}, {"id": 191, "properties": {"id": "46004-44482-024-GRNT0355", "locationName": "Marghistan", "title": "MFF:TRANSPRT NETWORK DEVT INVSTMNT PROGRAM-TRANCHE", "status": "Implementation", "sectors": ["Transport"]}, "type": "Feature", "geometry": {"coordinates": [66.87859, 34.73986], "type": "Point"}}, {"id": 192, "properties": {"id": "46004-44482-024-GRNT0355", "locationName": "Gird Bayd", "title": "MFF:TRANSPRT NETWORK DEVT INVSTMNT PROGRAM-TRANCHE", "status": "Implementation", "sectors": ["Transport"]}, "type": "Feature", "geometry": {"coordinates": [66.91654, 34.73733], "type": "Point"}}, {"id": 193, "properties": {"id": "46004-44482-024-GRNT0355", "locationName": "Panjab", "title": "MFF:TRANSPRT NETWORK DEVT INVSTMNT PROGRAM-TRANCHE", "status": "Implementation", "sectors": ["Transport"]}, "type": "Feature", "geometry": {"coordinates": [66.92976, 34.42332], "type": "Point"}}, {"id": 194, "properties": {"id": "46004-44482-024-GRNT0355", "locationName": "Yakawlang", "title": "MFF:TRANSPRT NETWORK DEVT INVSTMNT PROGRAM-TRANCHE", "status": "Implementation", "sectors": ["Transport"]}, "type": "Feature", "geometry": {"coordinates": [66.94271, 34.9828], "type": "Point"}}, {"id": 195, "properties": {"id": "46004-44482-024-GRNT0355", "locationName": "Chaghcharan", "title": "MFF:TRANSPRT NETWORK DEVT INVSTMNT PROGRAM-TRANCHE", "status": "Implementation", "sectors": ["Transport"]}, "type": "Feature", "geometry": {"coordinates": [65.34743, 34.72821], "type": "Point"}}, {"id": 196, "properties": {"id": "46004-44482-024-GRNT0355", "locationName": "La`l wa Sar Jangal", "title": "MFF:TRANSPRT NETWORK DEVT INVSTMNT PROGRAM-TRANCHE", "status": "Implementation", "sectors": ["Transport"]}, "type": "Feature", "geometry": {"coordinates": [66.27661, 34.60268], "type": "Point"}}, {"id": 197, "properties": {"id": "46004-44482-024-GRNT0355", "locationName": "Dara-I-Suf", "title": "MFF:TRANSPRT NETWORK DEVT INVSTMNT PROGRAM-TRANCHE", "status": "Implementation", "sectors": ["Transport"]}, "type": "Feature", "geometry": {"coordinates": [67.32699, 35.82467], "type": "Point"}}, {"id": 198, "properties": {"id": "46004-44482-024-GRNT0355", "locationName": "Kabul", "title": "MFF:TRANSPRT NETWORK DEVT INVSTMNT PROGRAM-TRANCHE", "status": "Implementation", "sectors": ["Transport"]}, "type": "Feature", "geometry": {"coordinates": [69.10549, 34.49614], "type": "Point"}}, {"id": 199, "properties": {"id": "46004-44482-024-GRNT0355", "locationName": "Markazi Bihsud", "title": "MFF:TRANSPRT NETWORK DEVT INVSTMNT PROGRAM-TRANCHE", "status": "Implementation", "sectors": ["Transport"]}, "type": "Feature", "geometry": {"coordinates": [67.79737, 34.40391], "type": "Point"}}, {"id": 200, "properties": {"id": "46004-44482-024-GRNT0355", "locationName": "Hisa-I-Awal Bihsud", "title": "MFF:TRANSPRT NETWORK DEVT INVSTMNT PROGRAM-TRANCHE", "status": "Implementation", "sectors": ["Transport"]}, "type": "Feature", "geometry": {"coordinates": [68.17271, 34.58878], "type": "Point"}}, {"id": 201, "properties": {"id": "46004-42091-043-GRNT0362", "locationName": "Wil\u0101yat-e Takh\u0101r", "title": "MFF:WATER RESOURCES DEVELOPMENT INVESTMENT PROGRAM", "status": "Implementation", "sectors": ["Agriculture, natural resources and rural development"]}, "type": "Feature", "geometry": {"coordinates": [69.75, 36.66667], "type": "Point"}}, {"id": 202, "properties": {"id": "46004-42091-043-GRNT0362", "locationName": "Nahr-e Arch\u012b", "title": "MFF:WATER RESOURCES DEVELOPMENT INVESTMENT PROGRAM", "status": "Implementation", "sectors": ["Agriculture, natural resources and rural development"]}, "type": "Feature", "geometry": {"coordinates": [69.2233, 36.97395], "type": "Point"}}, {"id": 203, "properties": {"id": "46004-42091-043-GRNT0362", "locationName": "Dasht-e Arch\u012b", "title": "MFF:WATER RESOURCES DEVELOPMENT INVESTMENT PROGRAM", "status": "Implementation", "sectors": ["Agriculture, natural resources and rural development"]}, "type": "Feature", "geometry": {"coordinates": [69.16328, 36.97246], "type": "Point"}}, {"id": 204, "properties": {"id": "46004-42091-043-GRNT0362", "locationName": "Im\u0101m \u015e\u0101\u1e29ib", "title": "MFF:WATER RESOURCES DEVELOPMENT INVESTMENT PROGRAM", "status": "Implementation", "sectors": ["Agriculture, natural resources and rural development"]}, "type": "Feature", "geometry": {"coordinates": [68.85166, 37.10571], "type": "Point"}}, {"id": 205, "properties": {"id": "46004-42091-043-GRNT0362", "locationName": "Kwhaja Ghar, Afghanistan", "title": "MFF:WATER RESOURCES DEVELOPMENT INVESTMENT PROGRAM", "status": "Implementation", "sectors": ["Agriculture, natural resources and rural development"]}, "type": "Feature", "geometry": {"coordinates": [69.62146, 36.98433], "type": "Point"}}, {"id": 206, "properties": {"id": "46004-46392-001-GRNT0374", "locationName": "Pul-e Khumri", "title": "NORTH-SOUTH POWER TRANSMISSION ENHANCEMENT PROJECT", "status": "Implementation", "sectors": ["Energy"]}, "type": "Feature", "geometry": {"coordinates": [68.71512, 35.94458], "type": "Point"}}, {"id": 207, "properties": {"id": "46004-46392-001-GRNT0374", "locationName": "Doshi", "title": "NORTH-SOUTH POWER TRANSMISSION ENHANCEMENT PROJECT", "status": "Implementation", "sectors": ["Energy"]}, "type": "Feature", "geometry": {"coordinates": [68.65967, 35.61527], "type": "Point"}}, {"id": 208, "properties": {"id": "46004-46392-001-GRNT0374", "locationName": "Khinjan", "title": "NORTH-SOUTH POWER TRANSMISSION ENHANCEMENT PROJECT", "status": "Implementation", "sectors": ["Energy"]}, "type": "Feature", "geometry": {"coordinates": [68.97287, 35.47093], "type": "Point"}}, {"id": 209, "properties": {"id": "46004-46392-001-GRNT0374", "locationName": "Kalakan", "title": "NORTH-SOUTH POWER TRANSMISSION ENHANCEMENT PROJECT", "status": "Implementation", "sectors": ["Energy"]}, "type": "Feature", "geometry": {"coordinates": [69.17192, 34.76782], "type": "Point"}}, {"id": 210, "properties": {"id": "46004-46392-001-GRNT0374", "locationName": "Mir Bachah Kot", "title": "NORTH-SOUTH POWER TRANSMISSION ENHANCEMENT PROJECT", "status": "Implementation", "sectors": ["Energy"]}, "type": "Feature", "geometry": {"coordinates": [69.11738, 34.72843], "type": "Point"}}, {"id": 211, "properties": {"id": "46004-46392-001-GRNT0374", "locationName": "Paghman", "title": "NORTH-SOUTH POWER TRANSMISSION ENHANCEMENT PROJECT", "status": "Implementation", "sectors": ["Energy"]}, "type": "Feature", "geometry": {"coordinates": [68.93637, 34.54807], "type": "Point"}}, {"id": 212, "properties": {"id": "46004-46392-001-GRNT0374", "locationName": "Qarah Bagh", "title": "NORTH-SOUTH POWER TRANSMISSION ENHANCEMENT PROJECT", "status": "Implementation", "sectors": ["Energy"]}, "type": "Feature", "geometry": {"coordinates": [69.19813, 34.84288], "type": "Point"}}, {"id": 213, "properties": {"id": "46004-46392-001-GRNT0374", "locationName": "Shakar Darah", "title": "NORTH-SOUTH POWER TRANSMISSION ENHANCEMENT PROJECT", "status": "Implementation", "sectors": ["Energy"]}, "type": "Feature", "geometry": {"coordinates": [69.03642, 34.66382], "type": "Point"}}, {"id": 214, "properties": {"id": "46004-46392-001-GRNT0374", "locationName": "Bagram", "title": "NORTH-SOUTH POWER TRANSMISSION ENHANCEMENT PROJECT", "status": "Implementation", "sectors": ["Energy"]}, "type": "Feature", "geometry": {"coordinates": [69.33321, 34.92794], "type": "Point"}}, {"id": 215, "properties": {"id": "46004-46392-001-GRNT0374", "locationName": "Charikar", "title": "NORTH-SOUTH POWER TRANSMISSION ENHANCEMENT PROJECT", "status": "Implementation", "sectors": ["Energy"]}, "type": "Feature", "geometry": {"coordinates": [69.13412, 34.98448], "type": "Point"}}, {"id": 216, "properties": {"id": "46004-46392-001-GRNT0374", "locationName": "Jabal us Saraj", "title": "NORTH-SOUTH POWER TRANSMISSION ENHANCEMENT PROJECT", "status": "Implementation", "sectors": ["Energy"]}, "type": "Feature", "geometry": {"coordinates": [69.18465, 35.10862], "type": "Point"}}, {"id": 217, "properties": {"id": "46004-46392-001-GRNT0374", "locationName": "Salang", "title": "NORTH-SOUTH POWER TRANSMISSION ENHANCEMENT PROJECT", "status": "Implementation", "sectors": ["Energy"]}, "type": "Feature", "geometry": {"coordinates": [69.15827, 35.27398], "type": "Point"}}, {"id": 218, "properties": {"id": "46004-46392-001-GRNT0374", "locationName": "Puli Khumri", "title": "NORTH-SOUTH POWER TRANSMISSION ENHANCEMENT PROJECT", "status": "Implementation", "sectors": ["Energy"]}, "type": "Feature", "geometry": {"coordinates": [68.64001, 36.00118], "type": "Point"}}, {"id": 219, "properties": {"id": "46004-46392-001-GRNT0374", "locationName": "Arghandeh", "title": "NORTH-SOUTH POWER TRANSMISSION ENHANCEMENT PROJECT", "status": "Implementation", "sectors": ["Energy"]}, "type": "Feature", "geometry": {"coordinates": [68.91667, 34.46666], "type": "Point"}}, {"id": 220, "properties": {"id": "46004-42094-075-GRNT0377", "locationName": "Pul-e Khumr\u012b", "title": "MFF:ENERGY SECTOR DEVELOPMENT INVESTMENT PROGRAM-T", "status": "Implementation", "sectors": ["Energy"]}, "type": "Feature", "geometry": {"coordinates": [68.71512, 35.94458], "type": "Point"}}, {"id": 221, "properties": {"id": "46004-39467-013-GRNT0054", "locationName": "B\u0101z\u0101r-e Yak\u0101wlang", "title": "NORTH-SOUTH CORRIDOR PROJECT", "status": "Completion", "sectors": ["Transport"]}, "type": "Feature", "geometry": {"coordinates": [66.97378, 34.73525], "type": "Point"}}, {"id": 222, "properties": {"id": "46004-39467-013-GRNT0054", "locationName": "Pul-e Baraq", "title": "NORTH-SOUTH CORRIDOR PROJECT", "status": "Completion", "sectors": ["Transport"]}, "type": "Feature", "geometry": {"coordinates": [66.90854, 36.20532], "type": "Point"}}, {"id": 223, "properties": {"id": "46004-39467-013-GRNT0054", "locationName": "Mazari Sharif", "title": "NORTH-SOUTH CORRIDOR PROJECT", "status": "Completion", "sectors": ["Transport"]}, "type": "Feature", "geometry": {"coordinates": [67.11087, 36.70904], "type": "Point"}}, {"id": 224, "properties": {"id": "46004-39467-013-GRNT0054", "locationName": "B\u0101my\u0101n", "title": "NORTH-SOUTH CORRIDOR PROJECT", "status": "Completion", "sectors": ["Transport"]}, "type": "Feature", "geometry": {"coordinates": [67.82734, 34.82156], "type": "Point"}}, {"id": 225, "properties": {"id": "46004-39467-013-GRNT0054", "locationName": "Yak\u0101wlang", "title": "NORTH-SOUTH CORRIDOR PROJECT", "status": "Completion", "sectors": ["Transport"]}, "type": "Feature", "geometry": {"coordinates": [66.94271, 34.9828], "type": "Point"}}, {"id": 226, "properties": {"id": "46004-39467-013-GRNT0054", "locationName": "Dara-I-Suf", "title": "NORTH-SOUTH CORRIDOR PROJECT", "status": "Completion", "sectors": ["Transport"]}, "type": "Feature", "geometry": {"coordinates": [67.32699, 35.82467], "type": "Point"}}, {"id": 227, "properties": {"id": "46004-39467-013-GRNT0054", "locationName": "Bamyan", "title": "NORTH-SOUTH CORRIDOR PROJECT", "status": "Completion", "sectors": ["Transport"]}, "type": "Feature", "geometry": {"coordinates": [67.67298, 34.79547], "type": "Point"}}, {"id": 228, "properties": {"id": "46004-39467-013-GRNT0054", "locationName": "Sholgara", "title": "NORTH-SOUTH CORRIDOR PROJECT", "status": "Completion", "sectors": ["Transport"]}, "type": "Feature", "geometry": {"coordinates": [66.90979, 36.29404], "type": "Point"}}, {"id": 229, "properties": {"id": "46004-39467-013-GRNT0054", "locationName": "Maz\u0101r-e Shar\u012bf", "title": "NORTH-SOUTH CORRIDOR PROJECT", "status": "Completion", "sectors": ["Transport"]}, "type": "Feature", "geometry": {"coordinates": [67.1157, 36.70993], "type": "Point"}}, {"id": 230, "properties": {"id": "46004-40333-022-GRNT0081", "locationName": "Shibirgh\u0101n", "title": "ROAD NETWORK DEVELOPMENT PROJECT 1", "status": "Implementation", "sectors": ["Transport"]}, "type": "Feature", "geometry": {"coordinates": [65.7529, 36.66757], "type": "Point"}}, {"id": 231, "properties": {"id": "46004-40333-022-GRNT0081", "locationName": "Sangalak-i-Kaisar", "title": "ROAD NETWORK DEVELOPMENT PROJECT 1", "status": "Implementation", "sectors": ["Transport"]}, "type": "Feature", "geometry": {"coordinates": [64.29318, 35.68747], "type": "Point"}}, {"id": 232, "properties": {"id": "46004-40333-022-GRNT0081", "locationName": "Qala i Naw", "title": "ROAD NETWORK DEVELOPMENT PROJECT 1", "status": "Implementation", "sectors": ["Transport"]}, "type": "Feature", "geometry": {"coordinates": [63.12891, 34.98735], "type": "Point"}}, {"id": 233, "properties": {"id": "46004-40333-022-GRNT0081", "locationName": "Pul-e Khumr\u012b", "title": "ROAD NETWORK DEVELOPMENT PROJECT 1", "status": "Implementation", "sectors": ["Transport"]}, "type": "Feature", "geometry": {"coordinates": [68.71512, 35.94458], "type": "Point"}}, {"id": 234, "properties": {"id": "46004-40333-022-GRNT0081", "locationName": "Naibabad", "title": "ROAD NETWORK DEVELOPMENT PROJECT 1", "status": "Implementation", "sectors": ["Transport"]}, "type": "Feature", "geometry": {"coordinates": [67.47, 36.75], "type": "Point"}}, {"id": 235, "properties": {"id": "46004-40333-022-GRNT0081", "locationName": "Bala Murghab", "title": "ROAD NETWORK DEVELOPMENT PROJECT 1", "status": "Implementation", "sectors": ["Transport"]}, "type": "Feature", "geometry": {"coordinates": [63.32886, 35.58408], "type": "Point"}}, {"id": 236, "properties": {"id": "46004-40333-022-GRNT0081", "locationName": "L\u0101m\u0101n", "title": "ROAD NETWORK DEVELOPMENT PROJECT 1", "status": "Implementation", "sectors": ["Transport"]}, "type": "Feature", "geometry": {"coordinates": [63.10416, 34.75231], "type": "Point"}}, {"id": 237, "properties": {"id": "46004-40333-022-GRNT0081", "locationName": "\u1e28a\u012brat\u0101n", "title": "ROAD NETWORK DEVELOPMENT PROJECT 1", "status": "Implementation", "sectors": ["Transport"]}, "type": "Feature", "geometry": {"coordinates": [67.4241, 37.2214], "type": "Point"}}, {"id": 238, "properties": {"id": "46004-40333-022-GRNT0081", "locationName": "Balkh", "title": "ROAD NETWORK DEVELOPMENT PROJECT 1", "status": "Implementation", "sectors": ["Transport"]}, "type": "Feature", "geometry": {"coordinates": [66.8972, 36.75635], "type": "Point"}}, {"id": 239, "properties": {"id": "46004-40333-022-GRNT0081", "locationName": "Andkh\u014dy", "title": "ROAD NETWORK DEVELOPMENT PROJECT 1", "status": "Implementation", "sectors": ["Transport"]}, "type": "Feature", "geometry": {"coordinates": [65.12376, 36.95293], "type": "Point"}}, {"id": 240, "properties": {"id": "46004-40333-022-GRNT0081", "locationName": "Murgh\u0101b", "title": "ROAD NETWORK DEVELOPMENT PROJECT 1", "status": "Implementation", "sectors": ["Transport"]}, "type": "Feature", "geometry": {"coordinates": [63.46962, 35.46208], "type": "Point"}}, {"id": 241, "properties": {"id": "46004-40333-022-GRNT0081", "locationName": "Andkh\u014dy", "title": "ROAD NETWORK DEVELOPMENT PROJECT 1", "status": "Implementation", "sectors": ["Transport"]}, "type": "Feature", "geometry": {"coordinates": [65.28301, 36.85437], "type": "Point"}}, {"id": 242, "properties": {"id": "46004-40333-022-GRNT0081", "locationName": "Qa\u012b\u015f\u0101r", "title": "ROAD NETWORK DEVELOPMENT PROJECT 1", "status": "Implementation", "sectors": ["Transport"]}, "type": "Feature", "geometry": {"coordinates": [64.27908, 35.64137], "type": "Point"}}, {"id": 243, "properties": {"id": "46004-40333-022-GRNT0081", "locationName": "Kald\u0101r", "title": "ROAD NETWORK DEVELOPMENT PROJECT 1", "status": "Implementation", "sectors": ["Transport"]}, "type": "Feature", "geometry": {"coordinates": [67.54203, 37.12746], "type": "Point"}}, {"id": 244, "properties": {"id": "46004-40333-022-GRNT0081", "locationName": "Khulm", "title": "ROAD NETWORK DEVELOPMENT PROJECT 1", "status": "Implementation", "sectors": ["Transport"]}, "type": "Feature", "geometry": {"coordinates": [67.74518, 36.81333], "type": "Point"}}, {"id": 245, "properties": {"id": "46004-40333-022-GRNT0081", "locationName": "Shibirgh\u0101n", "title": "ROAD NETWORK DEVELOPMENT PROJECT 1", "status": "Implementation", "sectors": ["Transport"]}, "type": "Feature", "geometry": {"coordinates": [65.74885, 36.56624], "type": "Point"}}, {"id": 246, "properties": {"id": "46004-40333-022-GRNT0081", "locationName": "Qala-i-Naw", "title": "ROAD NETWORK DEVELOPMENT PROJECT 1", "status": "Implementation", "sectors": ["Transport"]}, "type": "Feature", "geometry": {"coordinates": [63.05603, 34.88199], "type": "Point"}}, {"id": 247, "properties": {"id": "46004-40333-022-GRNT0081", "locationName": "Puli Khumri", "title": "ROAD NETWORK DEVELOPMENT PROJECT 1", "status": "Implementation", "sectors": ["Transport"]}, "type": "Feature", "geometry": {"coordinates": [68.64001, 36.00118], "type": "Point"}}]}