{"id": "BD", "properties": {"name": "Bangladesh", "bounds": [88.02178959200009, 20.73871491100003, 92.64285119700017, 26.623544007000064]}, "type": "FeatureCollection", "features": [{"id": 399, "properties": {"id": "46004-35242-013-LN2188", "locationName": "Ull\u0101p\u0101ra", "title": "Gas Tranmission and Development Project", "status": "Implementation", "sectors": ["Energy"]}, "type": "Feature", "geometry": {"coordinates": [89.57011, 24.31277], "type": "Point"}}, {"id": 400, "properties": {"id": "46004-35242-013-LN2188", "locationName": "Kushtia District", "title": "Gas Tranmission and Development Project", "status": "Implementation", "sectors": ["Energy"]}, "type": "Feature", "geometry": {"coordinates": [88.91667, 23.83333], "type": "Point"}}, {"id": 401, "properties": {"id": "46004-35242-013-LN2188", "locationName": "H\u0101t\u012bkumrul", "title": "Gas Tranmission and Development Project", "status": "Implementation", "sectors": ["Energy"]}, "type": "Feature", "geometry": {"coordinates": [89.55171, 24.43237], "type": "Point"}}, {"id": 402, "properties": {"id": "46004-35242-013-LN2188", "locationName": "Elenga", "title": "Gas Tranmission and Development Project", "status": "Implementation", "sectors": ["Energy"]}, "type": "Feature", "geometry": {"coordinates": [89.91274, 24.33682], "type": "Point"}}, {"id": 403, "properties": {"id": "46004-35242-013-LN2188", "locationName": "Dhanua", "title": "Gas Tranmission and Development Project", "status": "Implementation", "sectors": ["Energy"]}, "type": "Feature", "geometry": {"coordinates": [90.38777, 24.2661], "type": "Point"}}, {"id": 404, "properties": {"id": "46004-35242-013-LN2188", "locationName": "Chhota Manohardi", "title": "Gas Tranmission and Development Project", "status": "Implementation", "sectors": ["Energy"]}, "type": "Feature", "geometry": {"coordinates": [90.61069, 23.78097], "type": "Point"}}, {"id": 405, "properties": {"id": "46004-35242-013-LN2188", "locationName": "Bara Manohardi", "title": "Gas Tranmission and Development Project", "status": "Implementation", "sectors": ["Energy"]}, "type": "Feature", "geometry": {"coordinates": [90.61739, 23.78736], "type": "Point"}}, {"id": 406, "properties": {"id": "46004-35242-013-LN2188", "locationName": "\u0100shuganj", "title": "Gas Tranmission and Development Project", "status": "Implementation", "sectors": ["Energy"]}, "type": "Feature", "geometry": {"coordinates": [91.0117, 24.04016], "type": "Point"}}, {"id": 407, "properties": {"id": "46004-35242-013-LN2188", "locationName": "R\u0101jsh\u0101hi District", "title": "Gas Tranmission and Development Project", "status": "Implementation", "sectors": ["Energy"]}, "type": "Feature", "geometry": {"coordinates": [89.0, 25.0], "type": "Point"}}, {"id": 408, "properties": {"id": "46004-35242-013-LN2188", "locationName": "Sir\u0101jganj District", "title": "Gas Tranmission and Development Project", "status": "Implementation", "sectors": ["Energy"]}, "type": "Feature", "geometry": {"coordinates": [89.61667, 24.33333], "type": "Point"}}, {"id": 409, "properties": {"id": "46004-35242-013-LN2188", "locationName": "P\u0101bna District", "title": "Gas Tranmission and Development Project", "status": "Implementation", "sectors": ["Energy"]}, "type": "Feature", "geometry": {"coordinates": [89.33533, 24.00633], "type": "Point"}}, {"id": 410, "properties": {"id": "46004-35242-013-LN2188", "locationName": "Jessore District", "title": "Gas Tranmission and Development Project", "status": "Implementation", "sectors": ["Energy"]}, "type": "Feature", "geometry": {"coordinates": [89.16667, 23.08333], "type": "Point"}}, {"id": 411, "properties": {"id": "46004-35242-013-LN2188", "locationName": "Khulna District", "title": "Gas Tranmission and Development Project", "status": "Implementation", "sectors": ["Energy"]}, "type": "Feature", "geometry": {"coordinates": [89.33333, 22.5], "type": "Point"}}, {"id": 412, "properties": {"id": "46004-35242-013-LN2188", "locationName": "Bheram\u0101ra", "title": "Gas Tranmission and Development Project", "status": "Implementation", "sectors": ["Energy"]}, "type": "Feature", "geometry": {"coordinates": [88.86369, 23.9649], "type": "Point"}}, {"id": 413, "properties": {"id": "46004-35242-013-LN2188", "locationName": "Tarash", "title": "Gas Tranmission and Development Project", "status": "Implementation", "sectors": ["Energy"]}, "type": "Feature", "geometry": {"coordinates": [89.36, 24.45], "type": "Point"}}, {"id": 414, "properties": {"id": "46004-35242-013-LN2188", "locationName": "Lalpur", "title": "Gas Tranmission and Development Project", "status": "Implementation", "sectors": ["Energy"]}, "type": "Feature", "geometry": {"coordinates": [88.95, 24.19], "type": "Point"}}, {"id": 415, "properties": {"id": "46004-35242-013-LN2188", "locationName": "Natore S.", "title": "Gas Tranmission and Development Project", "status": "Implementation", "sectors": ["Energy"]}, "type": "Feature", "geometry": {"coordinates": [88.98, 24.45], "type": "Point"}}, {"id": 416, "properties": {"id": "46004-35242-013-LN2188", "locationName": "Kamarkhanda", "title": "Gas Tranmission and Development Project", "status": "Implementation", "sectors": ["Energy"]}, "type": "Feature", "geometry": {"coordinates": [89.65, 24.38], "type": "Point"}}, {"id": 417, "properties": {"id": "46004-35242-013-LN2189", "locationName": "Ull\u0101p\u0101ra", "title": "GAS TRANSMISSION AND DEVELOPMENT PROJECT", "status": "Completion", "sectors": ["Energy"]}, "type": "Feature", "geometry": {"coordinates": [89.57011, 24.31277], "type": "Point"}}, {"id": 418, "properties": {"id": "46004-35242-013-LN2189", "locationName": "Kushtia District", "title": "GAS TRANSMISSION AND DEVELOPMENT PROJECT", "status": "Completion", "sectors": ["Energy"]}, "type": "Feature", "geometry": {"coordinates": [88.91667, 23.83333], "type": "Point"}}, {"id": 419, "properties": {"id": "46004-35242-013-LN2189", "locationName": "H\u0101t\u012bkumrul", "title": "GAS TRANSMISSION AND DEVELOPMENT PROJECT", "status": "Completion", "sectors": ["Energy"]}, "type": "Feature", "geometry": {"coordinates": [89.55171, 24.43237], "type": "Point"}}, {"id": 420, "properties": {"id": "46004-35242-013-LN2189", "locationName": "Elenga", "title": "GAS TRANSMISSION AND DEVELOPMENT PROJECT", "status": "Completion", "sectors": ["Energy"]}, "type": "Feature", "geometry": {"coordinates": [89.91274, 24.33682], "type": "Point"}}, {"id": 421, "properties": {"id": "46004-35242-013-LN2189", "locationName": "Dhanua", "title": "GAS TRANSMISSION AND DEVELOPMENT PROJECT", "status": "Completion", "sectors": ["Energy"]}, "type": "Feature", "geometry": {"coordinates": [90.38777, 24.2661], "type": "Point"}}, {"id": 422, "properties": {"id": "46004-35242-013-LN2189", "locationName": "Chhota Manohardi", "title": "GAS TRANSMISSION AND DEVELOPMENT PROJECT", "status": "Completion", "sectors": ["Energy"]}, "type": "Feature", "geometry": {"coordinates": [90.61069, 23.78097], "type": "Point"}}, {"id": 423, "properties": {"id": "46004-35242-013-LN2189", "locationName": "Bara Manohardi", "title": "GAS TRANSMISSION AND DEVELOPMENT PROJECT", "status": "Completion", "sectors": ["Energy"]}, "type": "Feature", "geometry": {"coordinates": [90.61739, 23.78736], "type": "Point"}}, {"id": 424, "properties": {"id": "46004-35242-013-LN2189", "locationName": "\u0100shuganj", "title": "GAS TRANSMISSION AND DEVELOPMENT PROJECT", "status": "Completion", "sectors": ["Energy"]}, "type": "Feature", "geometry": {"coordinates": [91.0117, 24.04016], "type": "Point"}}, {"id": 425, "properties": {"id": "46004-35242-013-LN2189", "locationName": "R\u0101jsh\u0101hi District", "title": "GAS TRANSMISSION AND DEVELOPMENT PROJECT", "status": "Completion", "sectors": ["Energy"]}, "type": "Feature", "geometry": {"coordinates": [89.0, 25.0], "type": "Point"}}, {"id": 426, "properties": {"id": "46004-35242-013-LN2189", "locationName": "Sir\u0101jganj District", "title": "GAS TRANSMISSION AND DEVELOPMENT PROJECT", "status": "Completion", "sectors": ["Energy"]}, "type": "Feature", "geometry": {"coordinates": [89.61667, 24.33333], "type": "Point"}}, {"id": 427, "properties": {"id": "46004-35242-013-LN2189", "locationName": "P\u0101bna District", "title": "GAS TRANSMISSION AND DEVELOPMENT PROJECT", "status": "Completion", "sectors": ["Energy"]}, "type": "Feature", "geometry": {"coordinates": [89.33533, 24.00633], "type": "Point"}}, {"id": 428, "properties": {"id": "46004-35242-013-LN2189", "locationName": "Jessore District", "title": "GAS TRANSMISSION AND DEVELOPMENT PROJECT", "status": "Completion", "sectors": ["Energy"]}, "type": "Feature", "geometry": {"coordinates": [89.16667, 23.08333], "type": "Point"}}, {"id": 429, "properties": {"id": "46004-35242-013-LN2189", "locationName": "Khulna District", "title": "GAS TRANSMISSION AND DEVELOPMENT PROJECT", "status": "Completion", "sectors": ["Energy"]}, "type": "Feature", "geometry": {"coordinates": [89.33333, 22.5], "type": "Point"}}, {"id": 430, "properties": {"id": "46004-35242-013-LN2189", "locationName": "Bheram\u0101ra", "title": "GAS TRANSMISSION AND DEVELOPMENT PROJECT", "status": "Completion", "sectors": ["Energy"]}, "type": "Feature", "geometry": {"coordinates": [88.86369, 23.9649], "type": "Point"}}, {"id": 431, "properties": {"id": "46004-35242-013-LN2189", "locationName": "Tarash", "title": "GAS TRANSMISSION AND DEVELOPMENT PROJECT", "status": "Completion", "sectors": ["Energy"]}, "type": "Feature", "geometry": {"coordinates": [89.36, 24.45], "type": "Point"}}, {"id": 432, "properties": {"id": "46004-35242-013-LN2189", "locationName": "Lalpur", "title": "GAS TRANSMISSION AND DEVELOPMENT PROJECT", "status": "Completion", "sectors": ["Energy"]}, "type": "Feature", "geometry": {"coordinates": [88.95, 24.19], "type": "Point"}}, {"id": 433, "properties": {"id": "46004-35242-013-LN2189", "locationName": "Natore S.", "title": "GAS TRANSMISSION AND DEVELOPMENT PROJECT", "status": "Completion", "sectors": ["Energy"]}, "type": "Feature", "geometry": {"coordinates": [88.98, 24.45], "type": "Point"}}, {"id": 434, "properties": {"id": "46004-35242-013-LN2189", "locationName": "Kamarkhanda", "title": "GAS TRANSMISSION AND DEVELOPMENT PROJECT", "status": "Completion", "sectors": ["Energy"]}, "type": "Feature", "geometry": {"coordinates": [89.65, 24.38], "type": "Point"}}, {"id": 435, "properties": {"id": "46004-34418-013-LN2200", "locationName": "R\u0101jb\u0101ri District", "title": "SOUTHWEST AREA INTEGRATED WATER RESOURCES PLANNING & MANAGEMENT", "status": "Implementation", "sectors": ["Agriculture, natural resources and rural development"]}, "type": "Feature", "geometry": {"coordinates": [89.55, 23.66667], "type": "Point"}}, {"id": 436, "properties": {"id": "46004-34418-013-LN2200", "locationName": "Far\u012bdpur District", "title": "SOUTHWEST AREA INTEGRATED WATER RESOURCES PLANNING & MANAGEMENT", "status": "Implementation", "sectors": ["Agriculture, natural resources and rural development"]}, "type": "Feature", "geometry": {"coordinates": [90.16667, 23.41667], "type": "Point"}}, {"id": 437, "properties": {"id": "46004-34418-013-LN2200", "locationName": "Gop\u0101lganj District", "title": "SOUTHWEST AREA INTEGRATED WATER RESOURCES PLANNING & MANAGEMENT", "status": "Implementation", "sectors": ["Agriculture, natural resources and rural development"]}, "type": "Feature", "geometry": {"coordinates": [89.91667, 23.16667], "type": "Point"}}, {"id": 438, "properties": {"id": "46004-34418-013-LN2200", "locationName": "M\u0101gura District", "title": "SOUTHWEST AREA INTEGRATED WATER RESOURCES PLANNING & MANAGEMENT", "status": "Implementation", "sectors": ["Agriculture, natural resources and rural development"]}, "type": "Feature", "geometry": {"coordinates": [89.43333, 23.43333], "type": "Point"}}, {"id": 439, "properties": {"id": "46004-34418-013-LN2200", "locationName": "Jessore District", "title": "SOUTHWEST AREA INTEGRATED WATER RESOURCES PLANNING & MANAGEMENT", "status": "Implementation", "sectors": ["Agriculture, natural resources and rural development"]}, "type": "Feature", "geometry": {"coordinates": [89.16667, 23.08333], "type": "Point"}}, {"id": 440, "properties": {"id": "46004-34418-013-LN2200", "locationName": "Narail District", "title": "SOUTHWEST AREA INTEGRATED WATER RESOURCES PLANNING & MANAGEMENT", "status": "Implementation", "sectors": ["Agriculture, natural resources and rural development"]}, "type": "Feature", "geometry": {"coordinates": [89.6, 23.13333], "type": "Point"}}, {"id": 441, "properties": {"id": "46004-36197-013-LN2232", "locationName": "Bangladesh", "title": "IMPROVEMENT OF CAPITAL MARKET AND INSURANCE GOVERNANCE PROJECT", "status": "Completion", "sectors": ["Finance"]}, "type": "Feature", "geometry": {"coordinates": [90.0, 24.0], "type": "Point"}}, {"id": 442, "properties": {"id": "46004-36224-013-LN2254", "locationName": "Dhaka District", "title": "SECOND RURAL INFRASTRUCTURE IMPROVEMENT PROJECT", "status": "Completion", "sectors": ["Agriculture, natural resources and rural development"]}, "type": "Feature", "geometry": {"coordinates": [90.36542, 23.81093], "type": "Point"}}, {"id": 443, "properties": {"id": "46004-36224-013-LN2254", "locationName": "N\u0101r\u0101yanganj District", "title": "SECOND RURAL INFRASTRUCTURE IMPROVEMENT PROJECT", "status": "Completion", "sectors": ["Agriculture, natural resources and rural development"]}, "type": "Feature", "geometry": {"coordinates": [90.58333, 23.75], "type": "Point"}}, {"id": 444, "properties": {"id": "46004-36224-013-LN2254", "locationName": "Munshiganj District", "title": "SECOND RURAL INFRASTRUCTURE IMPROVEMENT PROJECT", "status": "Completion", "sectors": ["Agriculture, natural resources and rural development"]}, "type": "Feature", "geometry": {"coordinates": [90.36667, 23.55], "type": "Point"}}, {"id": 445, "properties": {"id": "46004-36224-013-LN2254", "locationName": "Br\u0101hmanb\u0101ria District", "title": "SECOND RURAL INFRASTRUCTURE IMPROVEMENT PROJECT", "status": "Completion", "sectors": ["Agriculture, natural resources and rural development"]}, "type": "Feature", "geometry": {"coordinates": [91.16667, 23.98333], "type": "Point"}}, {"id": 446, "properties": {"id": "46004-36224-013-LN2254", "locationName": "Ch\u0101ndpur District", "title": "SECOND RURAL INFRASTRUCTURE IMPROVEMENT PROJECT", "status": "Completion", "sectors": ["Agriculture, natural resources and rural development"]}, "type": "Feature", "geometry": {"coordinates": [90.83333, 23.25], "type": "Point"}}, {"id": 447, "properties": {"id": "46004-36224-013-LN2254", "locationName": "Lakshmipur District", "title": "SECOND RURAL INFRASTRUCTURE IMPROVEMENT PROJECT", "status": "Completion", "sectors": ["Agriculture, natural resources and rural development"]}, "type": "Feature", "geometry": {"coordinates": [90.83333, 22.91667], "type": "Point"}}, {"id": 448, "properties": {"id": "46004-36224-013-LN2254", "locationName": "Feni District", "title": "SECOND RURAL INFRASTRUCTURE IMPROVEMENT PROJECT", "status": "Completion", "sectors": ["Agriculture, natural resources and rural development"]}, "type": "Feature", "geometry": {"coordinates": [91.31667, 22.96667], "type": "Point"}}, {"id": 449, "properties": {"id": "46004-36224-013-LN2254", "locationName": "Manikganj District", "title": "SECOND RURAL INFRASTRUCTURE IMPROVEMENT PROJECT", "status": "Completion", "sectors": ["Agriculture, natural resources and rural development"]}, "type": "Feature", "geometry": {"coordinates": [89.95, 23.86667], "type": "Point"}}, {"id": 450, "properties": {"id": "46004-36224-013-LN2254", "locationName": "Gobindapur", "title": "SECOND RURAL INFRASTRUCTURE IMPROVEMENT PROJECT", "status": "Completion", "sectors": ["Agriculture, natural resources and rural development"]}, "type": "Feature", "geometry": {"coordinates": [91.1092, 23.19611], "type": "Point"}}, {"id": 451, "properties": {"id": "46004-36224-013-LN2254", "locationName": "Mohamaya", "title": "SECOND RURAL INFRASTRUCTURE IMPROVEMENT PROJECT", "status": "Completion", "sectors": ["Agriculture, natural resources and rural development"]}, "type": "Feature", "geometry": {"coordinates": [91.50361, 23.06917], "type": "Point"}}, {"id": 452, "properties": {"id": "46004-36224-013-LN2254", "locationName": "Latifpur", "title": "SECOND RURAL INFRASTRUCTURE IMPROVEMENT PROJECT", "status": "Completion", "sectors": ["Agriculture, natural resources and rural development"]}, "type": "Feature", "geometry": {"coordinates": [91.74639, 22.40667], "type": "Point"}}, {"id": 453, "properties": {"id": "46004-36224-013-LN2254", "locationName": "Sarail", "title": "SECOND RURAL INFRASTRUCTURE IMPROVEMENT PROJECT", "status": "Completion", "sectors": ["Agriculture, natural resources and rural development"]}, "type": "Feature", "geometry": {"coordinates": [91.11, 24.1], "type": "Point"}}, {"id": 454, "properties": {"id": "46004-36224-013-LN2254", "locationName": "Sirajdikhan", "title": "SECOND RURAL INFRASTRUCTURE IMPROVEMENT PROJECT", "status": "Completion", "sectors": ["Agriculture, natural resources and rural development"]}, "type": "Feature", "geometry": {"coordinates": [90.39, 23.6], "type": "Point"}}, {"id": 455, "properties": {"id": "46004-36224-013-LN2254", "locationName": "Natore S.", "title": "SECOND RURAL INFRASTRUCTURE IMPROVEMENT PROJECT", "status": "Completion", "sectors": ["Agriculture, natural resources and rural development"]}, "type": "Feature", "geometry": {"coordinates": [88.98, 24.45], "type": "Point"}}, {"id": 456, "properties": {"id": "46004-36224-013-LN2254", "locationName": "Thakurgaon S.", "title": "SECOND RURAL INFRASTRUCTURE IMPROVEMENT PROJECT", "status": "Completion", "sectors": ["Agriculture, natural resources and rural development"]}, "type": "Feature", "geometry": {"coordinates": [88.47, 26.08], "type": "Point"}}, {"id": 457, "properties": {"id": "46004-36224-013-LN2254", "locationName": "Koyra", "title": "SECOND RURAL INFRASTRUCTURE IMPROVEMENT PROJECT", "status": "Completion", "sectors": ["Agriculture, natural resources and rural development"]}, "type": "Feature", "geometry": {"coordinates": [89.4, 22.2], "type": "Point"}}, {"id": 458, "properties": {"id": "46004-36224-013-LN2254", "locationName": "Bakshinganj", "title": "SECOND RURAL INFRASTRUCTURE IMPROVEMENT PROJECT", "status": "Completion", "sectors": ["Agriculture, natural resources and rural development"]}, "type": "Feature", "geometry": {"coordinates": [89.86928, 25.1849], "type": "Point"}}, {"id": 459, "properties": {"id": "46004-36224-013-LN2254", "locationName": "Naogaon", "title": "SECOND RURAL INFRASTRUCTURE IMPROVEMENT PROJECT", "status": "Completion", "sectors": ["Agriculture, natural resources and rural development"]}, "type": "Feature", "geometry": {"coordinates": [88.8, 25.9], "type": "Point"}}, {"id": 460, "properties": {"id": "46004-36224-013-LN2254", "locationName": "Sylhet", "title": "SECOND RURAL INFRASTRUCTURE IMPROVEMENT PROJECT", "status": "Completion", "sectors": ["Agriculture, natural resources and rural development"]}, "type": "Feature", "geometry": {"coordinates": [91.87198, 24.89904], "type": "Point"}}, {"id": 461, "properties": {"id": "46004-36224-013-LN2254", "locationName": "Jam\u0101lpur", "title": "SECOND RURAL INFRASTRUCTURE IMPROVEMENT PROJECT", "status": "Completion", "sectors": ["Agriculture, natural resources and rural development"]}, "type": "Feature", "geometry": {"coordinates": [89.94812, 24.91965], "type": "Point"}}, {"id": 462, "properties": {"id": "46004-36224-013-LN2254", "locationName": "Netrakona", "title": "SECOND RURAL INFRASTRUCTURE IMPROVEMENT PROJECT", "status": "Completion", "sectors": ["Agriculture, natural resources and rural development"]}, "type": "Feature", "geometry": {"coordinates": [90.72898, 24.88352], "type": "Point"}}, {"id": 463, "properties": {"id": "46004-36224-013-LN2254", "locationName": "Comilla", "title": "SECOND RURAL INFRASTRUCTURE IMPROVEMENT PROJECT", "status": "Completion", "sectors": ["Agriculture, natural resources and rural development"]}, "type": "Feature", "geometry": {"coordinates": [91.18504, 23.46186], "type": "Point"}}, {"id": 464, "properties": {"id": "46004-36224-013-LN2254", "locationName": "Mohanganj", "title": "SECOND RURAL INFRASTRUCTURE IMPROVEMENT PROJECT", "status": "Completion", "sectors": ["Agriculture, natural resources and rural development"]}, "type": "Feature", "geometry": {"coordinates": [90.97773, 24.87564], "type": "Point"}}, {"id": 465, "properties": {"id": "46004-36224-013-LN2254", "locationName": "Deldu\u0101r", "title": "SECOND RURAL INFRASTRUCTURE IMPROVEMENT PROJECT", "status": "Completion", "sectors": ["Agriculture, natural resources and rural development"]}, "type": "Feature", "geometry": {"coordinates": [89.96213, 24.15971], "type": "Point"}}, {"id": 466, "properties": {"id": "46004-36224-013-LN2254", "locationName": "Ruhea", "title": "SECOND RURAL INFRASTRUCTURE IMPROVEMENT PROJECT", "status": "Completion", "sectors": ["Agriculture, natural resources and rural development"]}, "type": "Feature", "geometry": {"coordinates": [88.40812, 26.169], "type": "Point"}}, {"id": 467, "properties": {"id": "46004-36224-013-LN2254", "locationName": "Rampur", "title": "SECOND RURAL INFRASTRUCTURE IMPROVEMENT PROJECT", "status": "Completion", "sectors": ["Agriculture, natural resources and rural development"]}, "type": "Feature", "geometry": {"coordinates": [90.9423, 22.89626], "type": "Point"}}, {"id": 468, "properties": {"id": "46004-36224-013-LN2254", "locationName": "Latabdi", "title": "SECOND RURAL INFRASTRUCTURE IMPROVEMENT PROJECT", "status": "Completion", "sectors": ["Agriculture, natural resources and rural development"]}, "type": "Feature", "geometry": {"coordinates": [90.38803, 23.59414], "type": "Point"}}, {"id": 469, "properties": {"id": "46004-36224-013-LN2254", "locationName": "Kuchi\u0101mora", "title": "SECOND RURAL INFRASTRUCTURE IMPROVEMENT PROJECT", "status": "Completion", "sectors": ["Agriculture, natural resources and rural development"]}, "type": "Feature", "geometry": {"coordinates": [90.34652, 23.63186], "type": "Point"}}, {"id": 470, "properties": {"id": "46004-36224-013-LN2254", "locationName": "K\u0101t\u0101kh\u0101li", "title": "SECOND RURAL INFRASTRUCTURE IMPROVEMENT PROJECT", "status": "Completion", "sectors": ["Agriculture, natural resources and rural development"]}, "type": "Feature", "geometry": {"coordinates": [89.45474, 22.69508], "type": "Point"}}, {"id": 471, "properties": {"id": "46004-36224-013-LN2254", "locationName": "Jon\u0101il", "title": "SECOND RURAL INFRASTRUCTURE IMPROVEMENT PROJECT", "status": "Completion", "sectors": ["Agriculture, natural resources and rural development"]}, "type": "Feature", "geometry": {"coordinates": [89.22311, 24.27501], "type": "Point"}}, {"id": 472, "properties": {"id": "46004-36224-013-LN2254", "locationName": "Bh\u0101ter Char", "title": "SECOND RURAL INFRASTRUCTURE IMPROVEMENT PROJECT", "status": "Completion", "sectors": ["Agriculture, natural resources and rural development"]}, "type": "Feature", "geometry": {"coordinates": [90.62892, 23.57221], "type": "Point"}}, {"id": 473, "properties": {"id": "46004-36224-013-LN2254", "locationName": "Bh\u0101deswar", "title": "SECOND RURAL INFRASTRUCTURE IMPROVEMENT PROJECT", "status": "Completion", "sectors": ["Agriculture, natural resources and rural development"]}, "type": "Feature", "geometry": {"coordinates": [92.03333, 24.76667], "type": "Point"}}, {"id": 474, "properties": {"id": "46004-36224-013-LN2254", "locationName": "B\u0101kila", "title": "SECOND RURAL INFRASTRUCTURE IMPROVEMENT PROJECT", "status": "Completion", "sectors": ["Agriculture, natural resources and rural development"]}, "type": "Feature", "geometry": {"coordinates": [90.77628, 23.2513], "type": "Point"}}, {"id": 475, "properties": {"id": "46004-36224-013-LN2254", "locationName": "\u0100shuganj", "title": "SECOND RURAL INFRASTRUCTURE IMPROVEMENT PROJECT", "status": "Completion", "sectors": ["Agriculture, natural resources and rural development"]}, "type": "Feature", "geometry": {"coordinates": [91.0117, 24.04016], "type": "Point"}}, {"id": 476, "properties": {"id": "46004-36224-013-LN2254", "locationName": "\u0100ru\u0101il", "title": "SECOND RURAL INFRASTRUCTURE IMPROVEMENT PROJECT", "status": "Completion", "sectors": ["Agriculture, natural resources and rural development"]}, "type": "Feature", "geometry": {"coordinates": [91.04079, 24.16321], "type": "Point"}}, {"id": 477, "properties": {"id": "46004-36224-013-LN2254", "locationName": "\u0100r\u0101nagar", "title": "SECOND RURAL INFRASTRUCTURE IMPROVEMENT PROJECT", "status": "Completion", "sectors": ["Agriculture, natural resources and rural development"]}, "type": "Feature", "geometry": {"coordinates": [88.8497, 25.09304], "type": "Point"}}, {"id": 478, "properties": {"id": "46004-36224-013-LN2254", "locationName": "Khulna", "title": "SECOND RURAL INFRASTRUCTURE IMPROVEMENT PROJECT", "status": "Completion", "sectors": ["Agriculture, natural resources and rural development"]}, "type": "Feature", "geometry": {"coordinates": [89.56439, 22.80978], "type": "Point"}}, {"id": 479, "properties": {"id": "46004-36224-013-LN2254", "locationName": "Din\u0101jpur District", "title": "SECOND RURAL INFRASTRUCTURE IMPROVEMENT PROJECT", "status": "Completion", "sectors": ["Agriculture, natural resources and rural development"]}, "type": "Feature", "geometry": {"coordinates": [88.75, 25.61667], "type": "Point"}}, {"id": 480, "properties": {"id": "46004-36224-013-LN2254", "locationName": "Nilph\u0101m\u0101ri District", "title": "SECOND RURAL INFRASTRUCTURE IMPROVEMENT PROJECT", "status": "Completion", "sectors": ["Agriculture, natural resources and rural development"]}, "type": "Feature", "geometry": {"coordinates": [88.95, 25.96667], "type": "Point"}}, {"id": 481, "properties": {"id": "46004-36224-013-LN2254", "locationName": "Kur\u012bgr\u0101m District", "title": "SECOND RURAL INFRASTRUCTURE IMPROVEMENT PROJECT", "status": "Completion", "sectors": ["Agriculture, natural resources and rural development"]}, "type": "Feature", "geometry": {"coordinates": [89.66667, 25.75], "type": "Point"}}, {"id": 482, "properties": {"id": "46004-36224-013-LN2254", "locationName": "Rangpur District", "title": "SECOND RURAL INFRASTRUCTURE IMPROVEMENT PROJECT", "status": "Completion", "sectors": ["Agriculture, natural resources and rural development"]}, "type": "Feature", "geometry": {"coordinates": [89.25, 25.6], "type": "Point"}}, {"id": 483, "properties": {"id": "46004-36224-013-LN2254", "locationName": "Gaibandha District", "title": "SECOND RURAL INFRASTRUCTURE IMPROVEMENT PROJECT", "status": "Completion", "sectors": ["Agriculture, natural resources and rural development"]}, "type": "Feature", "geometry": {"coordinates": [89.5, 25.25], "type": "Point"}}, {"id": 484, "properties": {"id": "46004-36224-013-LN2254", "locationName": "Sherpur District", "title": "SECOND RURAL INFRASTRUCTURE IMPROVEMENT PROJECT", "status": "Completion", "sectors": ["Agriculture, natural resources and rural development"]}, "type": "Feature", "geometry": {"coordinates": [90.08333, 25.08333], "type": "Point"}}, {"id": 485, "properties": {"id": "46004-36224-013-LN2254", "locationName": "Jam\u0101lpur District", "title": "SECOND RURAL INFRASTRUCTURE IMPROVEMENT PROJECT", "status": "Completion", "sectors": ["Agriculture, natural resources and rural development"]}, "type": "Feature", "geometry": {"coordinates": [89.83333, 25.0], "type": "Point"}}, {"id": 486, "properties": {"id": "46004-36224-013-LN2254", "locationName": "Mymensingh District", "title": "SECOND RURAL INFRASTRUCTURE IMPROVEMENT PROJECT", "status": "Completion", "sectors": ["Agriculture, natural resources and rural development"]}, "type": "Feature", "geometry": {"coordinates": [90.4, 24.75], "type": "Point"}}, {"id": 487, "properties": {"id": "46004-36224-013-LN2254", "locationName": "Tangail District", "title": "SECOND RURAL INFRASTRUCTURE IMPROVEMENT PROJECT", "status": "Completion", "sectors": ["Agriculture, natural resources and rural development"]}, "type": "Feature", "geometry": {"coordinates": [89.98667, 24.33853], "type": "Point"}}, {"id": 488, "properties": {"id": "46004-36297-013-LN2265", "locationName": "Sirajganj", "title": "SECONDARY TOWNS WATER SUPPLY AND SANITATION PROJECT", "status": "Implementation", "sectors": ["Water supply and other urban infrastructure and services"]}, "type": "Feature", "geometry": {"coordinates": [89.70802, 24.45771], "type": "Point"}}, {"id": 489, "properties": {"id": "46004-36297-013-LN2265", "locationName": "Pirojpur", "title": "SECONDARY TOWNS WATER SUPPLY AND SANITATION PROJECT", "status": "Implementation", "sectors": ["Water supply and other urban infrastructure and services"]}, "type": "Feature", "geometry": {"coordinates": [89.97521, 22.57965], "type": "Point"}}, {"id": 490, "properties": {"id": "46004-36297-013-LN2265", "locationName": "Br\u0101hmanh\u0101ta", "title": "SECONDARY TOWNS WATER SUPPLY AND SANITATION PROJECT", "status": "Implementation", "sectors": ["Water supply and other urban infrastructure and services"]}, "type": "Feature", "geometry": {"coordinates": [90.75, 24.11667], "type": "Point"}}, {"id": 491, "properties": {"id": "46004-36297-013-LN2265", "locationName": "Bangladesh", "title": "SECONDARY TOWNS WATER SUPPLY AND SANITATION PROJECT", "status": "Implementation", "sectors": ["Water supply and other urban infrastructure and services"]}, "type": "Feature", "geometry": {"coordinates": [90.0, 24.0], "type": "Point"}}, {"id": 492, "properties": {"id": "46004-36297-013-LN2265", "locationName": "Jessore", "title": "SECONDARY TOWNS WATER SUPPLY AND SANITATION PROJECT", "status": "Implementation", "sectors": ["Water supply and other urban infrastructure and services"]}, "type": "Feature", "geometry": {"coordinates": [89.21371, 23.16971], "type": "Point"}}, {"id": 493, "properties": {"id": "46004-37307-013-LN2266", "locationName": "Bangladesh", "title": "SECONDARY EDUCATION SECTOR DEVELOPMENT PROJECT", "status": "Implementation", "sectors": ["Education"]}, "type": "Feature", "geometry": {"coordinates": [90.0, 24.0], "type": "Point"}}, {"id": 494, "properties": {"id": "46004-37307-013-LN2267", "locationName": "Bangladesh", "title": "SECONDARY EDUCATION SECTOR DEVELOPMENT PROGRAM", "status": "Completion", "sectors": ["Education"]}, "type": "Feature", "geometry": {"coordinates": [90.0, 24.0], "type": "Point"}}, {"id": 495, "properties": {"id": "46004-32234-023-LN2316", "locationName": "Sirajganj", "title": "MFF-BAN RAILWAY SECTOR INVESTMENT PROGRAM", "status": "Implementation", "sectors": ["Transport", "Information and communication technology"]}, "type": "Feature", "geometry": {"coordinates": [89.70802, 24.45771], "type": "Point"}}, {"id": 496, "properties": {"id": "46004-32234-023-LN2316", "locationName": "Narsingdi", "title": "MFF-BAN RAILWAY SECTOR INVESTMENT PROGRAM", "status": "Implementation", "sectors": ["Transport", "Information and communication technology"]}, "type": "Feature", "geometry": {"coordinates": [90.71768, 23.92298], "type": "Point"}}, {"id": 497, "properties": {"id": "46004-32234-023-LN2316", "locationName": "Parbatipur", "title": "MFF-BAN RAILWAY SECTOR INVESTMENT PROGRAM", "status": "Implementation", "sectors": ["Transport", "Information and communication technology"]}, "type": "Feature", "geometry": {"coordinates": [88.93093, 25.66369], "type": "Point"}}, {"id": 498, "properties": {"id": "46004-32234-023-LN2316", "locationName": "L\u0101ksh\u0101m", "title": "MFF-BAN RAILWAY SECTOR INVESTMENT PROGRAM", "status": "Implementation", "sectors": ["Transport", "Information and communication technology"]}, "type": "Feature", "geometry": {"coordinates": [91.12143, 23.24018], "type": "Point"}}, {"id": 499, "properties": {"id": "46004-32234-023-LN2316", "locationName": "Ishurdi", "title": "MFF-BAN RAILWAY SECTOR INVESTMENT PROGRAM", "status": "Implementation", "sectors": ["Transport", "Information and communication technology"]}, "type": "Feature", "geometry": {"coordinates": [89.06573, 24.12858], "type": "Point"}}, {"id": 500, "properties": {"id": "46004-32234-023-LN2316", "locationName": "Dhaka", "title": "MFF-BAN RAILWAY SECTOR INVESTMENT PROGRAM", "status": "Implementation", "sectors": ["Transport", "Information and communication technology"]}, "type": "Feature", "geometry": {"coordinates": [90.40744, 23.7104], "type": "Point"}}, {"id": 501, "properties": {"id": "46004-32234-023-LN2316", "locationName": "Bhairab B\u0101z\u0101r", "title": "MFF-BAN RAILWAY SECTOR INVESTMENT PROGRAM", "status": "Implementation", "sectors": ["Transport", "Information and communication technology"]}, "type": "Feature", "geometry": {"coordinates": [90.9764, 24.0524], "type": "Point"}}, {"id": 502, "properties": {"id": "46004-32234-023-LN2316", "locationName": "Tongi", "title": "MFF-BAN RAILWAY SECTOR INVESTMENT PROGRAM", "status": "Implementation", "sectors": ["Transport", "Information and communication technology"]}, "type": "Feature", "geometry": {"coordinates": [90.4, 23.9], "type": "Point"}}, {"id": 503, "properties": {"id": "46004-32234-023-LN2316", "locationName": "Sitalakhya River", "title": "MFF-BAN RAILWAY SECTOR INVESTMENT PROGRAM", "status": "Implementation", "sectors": ["Transport", "Information and communication technology"]}, "type": "Feature", "geometry": {"coordinates": [90.53345, 23.56973], "type": "Point"}}, {"id": 504, "properties": {"id": "46004-32234-023-LN2316", "locationName": "Jamuna", "title": "MFF-BAN RAILWAY SECTOR INVESTMENT PROGRAM", "status": "Implementation", "sectors": ["Transport", "Information and communication technology"]}, "type": "Feature", "geometry": {"coordinates": [90.46118, 24.00346], "type": "Point"}}, {"id": 505, "properties": {"id": "46004-32234-023-LN2316", "locationName": "J\u0101mtail", "title": "MFF-BAN RAILWAY SECTOR INVESTMENT PROGRAM", "status": "Implementation", "sectors": ["Transport", "Information and communication technology"]}, "type": "Feature", "geometry": {"coordinates": [89.64997, 24.35899], "type": "Point"}}, {"id": 506, "properties": {"id": "46004-32234-023-LN2316", "locationName": "H\u0101ntubh\u0101nga", "title": "MFF-BAN RAILWAY SECTOR INVESTMENT PROGRAM", "status": "Implementation", "sectors": ["Transport", "Information and communication technology"]}, "type": "Feature", "geometry": {"coordinates": [90.82296, 23.96543], "type": "Point"}}, {"id": 507, "properties": {"id": "46004-32234-023-LN2316", "locationName": "Ghor\u0101s\u0101l", "title": "MFF-BAN RAILWAY SECTOR INVESTMENT PROGRAM", "status": "Implementation", "sectors": ["Transport", "Information and communication technology"]}, "type": "Feature", "geometry": {"coordinates": [90.63035, 23.94129], "type": "Point"}}, {"id": 508, "properties": {"id": "46004-32234-023-LN2316", "locationName": "Darsana", "title": "MFF-BAN RAILWAY SECTOR INVESTMENT PROGRAM", "status": "Implementation", "sectors": ["Transport", "Information and communication technology"]}, "type": "Feature", "geometry": {"coordinates": [88.84827, 23.53578], "type": "Point"}}, {"id": 509, "properties": {"id": "46004-32234-023-LN2316", "locationName": "Brahmaputra River", "title": "MFF-BAN RAILWAY SECTOR INVESTMENT PROGRAM", "status": "Implementation", "sectors": ["Transport", "Information and communication technology"]}, "type": "Feature", "geometry": {"coordinates": [90.98333, 24.03333], "type": "Point"}}, {"id": 510, "properties": {"id": "46004-32234-023-LN2316", "locationName": "B\u0101lu River", "title": "MFF-BAN RAILWAY SECTOR INVESTMENT PROGRAM", "status": "Implementation", "sectors": ["Transport", "Information and communication technology"]}, "type": "Feature", "geometry": {"coordinates": [90.49942, 23.72264], "type": "Point"}}, {"id": 511, "properties": {"id": "46004-32234-023-LN2316", "locationName": "\u0100rikhola", "title": "MFF-BAN RAILWAY SECTOR INVESTMENT PROGRAM", "status": "Implementation", "sectors": ["Transport", "Information and communication technology"]}, "type": "Feature", "geometry": {"coordinates": [90.54927, 23.92894], "type": "Point"}}, {"id": 512, "properties": {"id": "46004-32234-023-LN2316", "locationName": "Ari\u0101l Kh\u0101n River", "title": "MFF-BAN RAILWAY SECTOR INVESTMENT PROGRAM", "status": "Implementation", "sectors": ["Transport", "Information and communication technology"]}, "type": "Feature", "geometry": {"coordinates": [90.74279, 23.91642], "type": "Point"}}, {"id": 513, "properties": {"id": "46004-32234-023-LN2316", "locationName": "Khulna", "title": "MFF-BAN RAILWAY SECTOR INVESTMENT PROGRAM", "status": "Implementation", "sectors": ["Transport", "Information and communication technology"]}, "type": "Feature", "geometry": {"coordinates": [89.56439, 22.80978], "type": "Point"}}, {"id": 514, "properties": {"id": "46004-32234-023-LN2316", "locationName": "G\u0101zipur District", "title": "MFF-BAN RAILWAY SECTOR INVESTMENT PROGRAM", "status": "Implementation", "sectors": ["Transport", "Information and communication technology"]}, "type": "Feature", "geometry": {"coordinates": [89.5, 25.25], "type": "Point"}}, {"id": 515, "properties": {"id": "46004-32234-023-LN2316", "locationName": "Kishorganj District", "title": "MFF-BAN RAILWAY SECTOR INVESTMENT PROGRAM", "status": "Implementation", "sectors": ["Transport", "Information and communication technology"]}, "type": "Feature", "geometry": {"coordinates": [90.95, 24.41667], "type": "Point"}}, {"id": 516, "properties": {"id": "46004-32234-023-LN2316", "locationName": "Bogra", "title": "MFF-BAN RAILWAY SECTOR INVESTMENT PROGRAM", "status": "Implementation", "sectors": ["Transport", "Information and communication technology"]}, "type": "Feature", "geometry": {"coordinates": [89.37108, 24.85098], "type": "Point"}}, {"id": 517, "properties": {"id": "46004-32234-023-LN2316", "locationName": "Gazipur S.", "title": "MFF-BAN RAILWAY SECTOR INVESTMENT PROGRAM", "status": "Implementation", "sectors": ["Transport", "Information and communication technology"]}, "type": "Feature", "geometry": {"coordinates": [90.4, 24.02], "type": "Point"}}, {"id": 518, "properties": {"id": "46004-32234-023-LN2316", "locationName": "Amirganj Railway station", "title": "MFF-BAN RAILWAY SECTOR INVESTMENT PROGRAM", "status": "Implementation", "sectors": ["Transport", "Information and communication technology"]}, "type": "Feature", "geometry": {"coordinates": [90.76889, 23.93417], "type": "Point"}}, {"id": 519, "properties": {"id": "46004-32234-023-LN2317", "locationName": "Sirajganj", "title": "MFF-BAN:RAILWAY SECTOR INVESTMENT PROGRAM REFORM", "status": "Implementation", "sectors": ["Transport"]}, "type": "Feature", "geometry": {"coordinates": [89.70802, 24.45771], "type": "Point"}}, {"id": 520, "properties": {"id": "46004-32234-023-LN2317", "locationName": "Narsingdi", "title": "MFF-BAN:RAILWAY SECTOR INVESTMENT PROGRAM REFORM", "status": "Implementation", "sectors": ["Transport"]}, "type": "Feature", "geometry": {"coordinates": [90.71768, 23.92298], "type": "Point"}}, {"id": 521, "properties": {"id": "46004-32234-023-LN2317", "locationName": "Parbatipur", "title": "MFF-BAN:RAILWAY SECTOR INVESTMENT PROGRAM REFORM", "status": "Implementation", "sectors": ["Transport"]}, "type": "Feature", "geometry": {"coordinates": [88.93093, 25.66369], "type": "Point"}}, {"id": 522, "properties": {"id": "46004-32234-023-LN2317", "locationName": "L\u0101ksh\u0101m", "title": "MFF-BAN:RAILWAY SECTOR INVESTMENT PROGRAM REFORM", "status": "Implementation", "sectors": ["Transport"]}, "type": "Feature", "geometry": {"coordinates": [91.12143, 23.24018], "type": "Point"}}, {"id": 523, "properties": {"id": "46004-32234-023-LN2317", "locationName": "Ishurdi", "title": "MFF-BAN:RAILWAY SECTOR INVESTMENT PROGRAM REFORM", "status": "Implementation", "sectors": ["Transport"]}, "type": "Feature", "geometry": {"coordinates": [89.06573, 24.12858], "type": "Point"}}, {"id": 524, "properties": {"id": "46004-32234-023-LN2317", "locationName": "Dhaka", "title": "MFF-BAN:RAILWAY SECTOR INVESTMENT PROGRAM REFORM", "status": "Implementation", "sectors": ["Transport"]}, "type": "Feature", "geometry": {"coordinates": [90.40744, 23.7104], "type": "Point"}}, {"id": 525, "properties": {"id": "46004-32234-023-LN2317", "locationName": "Bhairab B\u0101z\u0101r", "title": "MFF-BAN:RAILWAY SECTOR INVESTMENT PROGRAM REFORM", "status": "Implementation", "sectors": ["Transport"]}, "type": "Feature", "geometry": {"coordinates": [90.9764, 24.0524], "type": "Point"}}, {"id": 526, "properties": {"id": "46004-32234-023-LN2317", "locationName": "Tongi", "title": "MFF-BAN:RAILWAY SECTOR INVESTMENT PROGRAM REFORM", "status": "Implementation", "sectors": ["Transport"]}, "type": "Feature", "geometry": {"coordinates": [90.4, 23.9], "type": "Point"}}, {"id": 527, "properties": {"id": "46004-32234-023-LN2317", "locationName": "Sitalakhya River", "title": "MFF-BAN:RAILWAY SECTOR INVESTMENT PROGRAM REFORM", "status": "Implementation", "sectors": ["Transport"]}, "type": "Feature", "geometry": {"coordinates": [90.53345, 23.56973], "type": "Point"}}, {"id": 528, "properties": {"id": "46004-32234-023-LN2317", "locationName": "Jamuna", "title": "MFF-BAN:RAILWAY SECTOR INVESTMENT PROGRAM REFORM", "status": "Implementation", "sectors": ["Transport"]}, "type": "Feature", "geometry": {"coordinates": [90.46118, 24.00346], "type": "Point"}}, {"id": 529, "properties": {"id": "46004-32234-023-LN2317", "locationName": "J\u0101mtail", "title": "MFF-BAN:RAILWAY SECTOR INVESTMENT PROGRAM REFORM", "status": "Implementation", "sectors": ["Transport"]}, "type": "Feature", "geometry": {"coordinates": [89.64997, 24.35899], "type": "Point"}}, {"id": 530, "properties": {"id": "46004-32234-023-LN2317", "locationName": "H\u0101ntubh\u0101nga", "title": "MFF-BAN:RAILWAY SECTOR INVESTMENT PROGRAM REFORM", "status": "Implementation", "sectors": ["Transport"]}, "type": "Feature", "geometry": {"coordinates": [90.82296, 23.96543], "type": "Point"}}, {"id": 531, "properties": {"id": "46004-32234-023-LN2317", "locationName": "Ghor\u0101s\u0101l", "title": "MFF-BAN:RAILWAY SECTOR INVESTMENT PROGRAM REFORM", "status": "Implementation", "sectors": ["Transport"]}, "type": "Feature", "geometry": {"coordinates": [90.63035, 23.94129], "type": "Point"}}, {"id": 532, "properties": {"id": "46004-32234-023-LN2317", "locationName": "Darsana", "title": "MFF-BAN:RAILWAY SECTOR INVESTMENT PROGRAM REFORM", "status": "Implementation", "sectors": ["Transport"]}, "type": "Feature", "geometry": {"coordinates": [88.84827, 23.53578], "type": "Point"}}, {"id": 533, "properties": {"id": "46004-32234-023-LN2317", "locationName": "Brahmaputra River", "title": "MFF-BAN:RAILWAY SECTOR INVESTMENT PROGRAM REFORM", "status": "Implementation", "sectors": ["Transport"]}, "type": "Feature", "geometry": {"coordinates": [90.98333, 24.03333], "type": "Point"}}, {"id": 534, "properties": {"id": "46004-32234-023-LN2317", "locationName": "B\u0101lu River", "title": "MFF-BAN:RAILWAY SECTOR INVESTMENT PROGRAM REFORM", "status": "Implementation", "sectors": ["Transport"]}, "type": "Feature", "geometry": {"coordinates": [90.49942, 23.72264], "type": "Point"}}, {"id": 535, "properties": {"id": "46004-32234-023-LN2317", "locationName": "\u0100rikhola", "title": "MFF-BAN:RAILWAY SECTOR INVESTMENT PROGRAM REFORM", "status": "Implementation", "sectors": ["Transport"]}, "type": "Feature", "geometry": {"coordinates": [90.54927, 23.92894], "type": "Point"}}, {"id": 536, "properties": {"id": "46004-32234-023-LN2317", "locationName": "Ari\u0101l Kh\u0101n River", "title": "MFF-BAN:RAILWAY SECTOR INVESTMENT PROGRAM REFORM", "status": "Implementation", "sectors": ["Transport"]}, "type": "Feature", "geometry": {"coordinates": [90.74279, 23.91642], "type": "Point"}}, {"id": 537, "properties": {"id": "46004-32234-023-LN2317", "locationName": "Khulna", "title": "MFF-BAN:RAILWAY SECTOR INVESTMENT PROGRAM REFORM", "status": "Implementation", "sectors": ["Transport"]}, "type": "Feature", "geometry": {"coordinates": [89.56439, 22.80978], "type": "Point"}}, {"id": 538, "properties": {"id": "46004-32234-023-LN2317", "locationName": "G\u0101zipur District", "title": "MFF-BAN:RAILWAY SECTOR INVESTMENT PROGRAM REFORM", "status": "Implementation", "sectors": ["Transport"]}, "type": "Feature", "geometry": {"coordinates": [89.5, 25.25], "type": "Point"}}, {"id": 539, "properties": {"id": "46004-32234-023-LN2317", "locationName": "Kishorganj District", "title": "MFF-BAN:RAILWAY SECTOR INVESTMENT PROGRAM REFORM", "status": "Implementation", "sectors": ["Transport"]}, "type": "Feature", "geometry": {"coordinates": [90.95, 24.41667], "type": "Point"}}, {"id": 540, "properties": {"id": "46004-32234-023-LN2317", "locationName": "Bogra", "title": "MFF-BAN:RAILWAY SECTOR INVESTMENT PROGRAM REFORM", "status": "Implementation", "sectors": ["Transport"]}, "type": "Feature", "geometry": {"coordinates": [89.37108, 24.85098], "type": "Point"}}, {"id": 541, "properties": {"id": "46004-32234-023-LN2317", "locationName": "Gazipur S.", "title": "MFF-BAN:RAILWAY SECTOR INVESTMENT PROGRAM REFORM", "status": "Implementation", "sectors": ["Transport"]}, "type": "Feature", "geometry": {"coordinates": [90.4, 24.02], "type": "Point"}}, {"id": 542, "properties": {"id": "46004-32234-023-LN2317", "locationName": "Amirganj Railway station", "title": "MFF-BAN:RAILWAY SECTOR INVESTMENT PROGRAM REFORM", "status": "Implementation", "sectors": ["Transport"]}, "type": "Feature", "geometry": {"coordinates": [90.76889, 23.93417], "type": "Point"}}, {"id": 543, "properties": {"id": "46004-36107-013-LN2332", "locationName": "Tongi", "title": "SUSTAINABLE POWER SECTOR DEVELOPMENT PROJECT", "status": "Implementation", "sectors": ["Energy"]}, "type": "Feature", "geometry": {"coordinates": [90.40232, 23.89154], "type": "Point"}}, {"id": 544, "properties": {"id": "46004-36107-013-LN2332", "locationName": "Sirajganj", "title": "SUSTAINABLE POWER SECTOR DEVELOPMENT PROJECT", "status": "Implementation", "sectors": ["Energy"]}, "type": "Feature", "geometry": {"coordinates": [89.70802, 24.45771], "type": "Point"}}, {"id": 545, "properties": {"id": "46004-36107-013-LN2332", "locationName": "Dhaka", "title": "SUSTAINABLE POWER SECTOR DEVELOPMENT PROJECT", "status": "Implementation", "sectors": ["Energy"]}, "type": "Feature", "geometry": {"coordinates": [90.40744, 23.7104], "type": "Point"}}, {"id": 546, "properties": {"id": "46004-36107-013-LN2332", "locationName": "Bangladesh", "title": "SUSTAINABLE POWER SECTOR DEVELOPMENT PROJECT", "status": "Implementation", "sectors": ["Energy"]}, "type": "Feature", "geometry": {"coordinates": [90.0, 24.0], "type": "Point"}}, {"id": 547, "properties": {"id": "46004-36107-013-LN2332", "locationName": "Khulna", "title": "SUSTAINABLE POWER SECTOR DEVELOPMENT PROJECT", "status": "Implementation", "sectors": ["Energy"]}, "type": "Feature", "geometry": {"coordinates": [89.56439, 22.80978], "type": "Point"}}, {"id": 548, "properties": {"id": "46004-36107-013-LN2332", "locationName": "Dhaka District", "title": "SUSTAINABLE POWER SECTOR DEVELOPMENT PROJECT", "status": "Implementation", "sectors": ["Energy"]}, "type": "Feature", "geometry": {"coordinates": [90.36542, 23.81093], "type": "Point"}}, {"id": 549, "properties": {"id": "46004-36107-013-LN2332", "locationName": "N\u0101r\u0101yanganj District", "title": "SUSTAINABLE POWER SECTOR DEVELOPMENT PROJECT", "status": "Implementation", "sectors": ["Energy"]}, "type": "Feature", "geometry": {"coordinates": [90.58333, 23.75], "type": "Point"}}, {"id": 550, "properties": {"id": "46004-36107-013-LN2332", "locationName": "Mirpur", "title": "SUSTAINABLE POWER SECTOR DEVELOPMENT PROJECT", "status": "Implementation", "sectors": ["Energy"]}, "type": "Feature", "geometry": {"coordinates": [90.366, 23.805], "type": "Point"}}, {"id": 551, "properties": {"id": "46004-36107-013-LN2332", "locationName": "Gulshan", "title": "SUSTAINABLE POWER SECTOR DEVELOPMENT PROJECT", "status": "Implementation", "sectors": ["Energy"]}, "type": "Feature", "geometry": {"coordinates": [90.4167, 23.7917], "type": "Point"}}, {"id": 552, "properties": {"id": "46004-36107-013-LN2332", "locationName": "Meghnaghat", "title": "SUSTAINABLE POWER SECTOR DEVELOPMENT PROJECT", "status": "Implementation", "sectors": ["Energy"]}, "type": "Feature", "geometry": {"coordinates": [90.60139, 23.60972], "type": "Point"}}, {"id": 553, "properties": {"id": "46004-36107-013-LN2332", "locationName": "Aminbazar", "title": "SUSTAINABLE POWER SECTOR DEVELOPMENT PROJECT", "status": "Implementation", "sectors": ["Energy"]}, "type": "Feature", "geometry": {"coordinates": [90.33013, 23.78457], "type": "Point"}}, {"id": 554, "properties": {"id": "46004-36107-013-LN2332", "locationName": "University of Dhaka", "title": "SUSTAINABLE POWER SECTOR DEVELOPMENT PROJECT", "status": "Implementation", "sectors": ["Energy"]}, "type": "Feature", "geometry": {"coordinates": [90.3925, 23.73155], "type": "Point"}}, {"id": 555, "properties": {"id": "46004-36107-013-LN2332", "locationName": "Dhaka Cantonment", "title": "SUSTAINABLE POWER SECTOR DEVELOPMENT PROJECT", "status": "Implementation", "sectors": ["Energy"]}, "type": "Feature", "geometry": {"coordinates": [90.40556, 23.82444], "type": "Point"}}, {"id": 556, "properties": {"id": "46004-36107-013-LN2333", "locationName": "Tongi", "title": "SUSTAINABLE POWER SECTOR DEVELOPMENT PROJECT", "status": "Completion", "sectors": ["Energy"]}, "type": "Feature", "geometry": {"coordinates": [90.40232, 23.89154], "type": "Point"}}, {"id": 557, "properties": {"id": "46004-36107-013-LN2333", "locationName": "Sirajganj", "title": "SUSTAINABLE POWER SECTOR DEVELOPMENT PROJECT", "status": "Completion", "sectors": ["Energy"]}, "type": "Feature", "geometry": {"coordinates": [89.70802, 24.45771], "type": "Point"}}, {"id": 558, "properties": {"id": "46004-36107-013-LN2333", "locationName": "Dhaka", "title": "SUSTAINABLE POWER SECTOR DEVELOPMENT PROJECT", "status": "Completion", "sectors": ["Energy"]}, "type": "Feature", "geometry": {"coordinates": [90.40744, 23.7104], "type": "Point"}}, {"id": 559, "properties": {"id": "46004-36107-013-LN2333", "locationName": "Bangladesh", "title": "SUSTAINABLE POWER SECTOR DEVELOPMENT PROJECT", "status": "Completion", "sectors": ["Energy"]}, "type": "Feature", "geometry": {"coordinates": [90.0, 24.0], "type": "Point"}}, {"id": 560, "properties": {"id": "46004-36107-013-LN2333", "locationName": "Khulna", "title": "SUSTAINABLE POWER SECTOR DEVELOPMENT PROJECT", "status": "Completion", "sectors": ["Energy"]}, "type": "Feature", "geometry": {"coordinates": [89.56439, 22.80978], "type": "Point"}}, {"id": 561, "properties": {"id": "46004-36107-013-LN2333", "locationName": "Dhaka District", "title": "SUSTAINABLE POWER SECTOR DEVELOPMENT PROJECT", "status": "Completion", "sectors": ["Energy"]}, "type": "Feature", "geometry": {"coordinates": [90.36542, 23.81093], "type": "Point"}}, {"id": 562, "properties": {"id": "46004-36107-013-LN2333", "locationName": "N\u0101r\u0101yanganj District", "title": "SUSTAINABLE POWER SECTOR DEVELOPMENT PROJECT", "status": "Completion", "sectors": ["Energy"]}, "type": "Feature", "geometry": {"coordinates": [90.58333, 23.75], "type": "Point"}}, {"id": 563, "properties": {"id": "46004-36107-013-LN2333", "locationName": "Mirpur", "title": "SUSTAINABLE POWER SECTOR DEVELOPMENT PROJECT", "status": "Completion", "sectors": ["Energy"]}, "type": "Feature", "geometry": {"coordinates": [90.366, 23.805], "type": "Point"}}, {"id": 564, "properties": {"id": "46004-36107-013-LN2333", "locationName": "Gulshan", "title": "SUSTAINABLE POWER SECTOR DEVELOPMENT PROJECT", "status": "Completion", "sectors": ["Energy"]}, "type": "Feature", "geometry": {"coordinates": [90.4167, 23.7917], "type": "Point"}}, {"id": 565, "properties": {"id": "46004-36107-013-LN2333", "locationName": "Meghnaghat", "title": "SUSTAINABLE POWER SECTOR DEVELOPMENT PROJECT", "status": "Completion", "sectors": ["Energy"]}, "type": "Feature", "geometry": {"coordinates": [90.60139, 23.60972], "type": "Point"}}, {"id": 566, "properties": {"id": "46004-36107-013-LN2333", "locationName": "Aminbazar", "title": "SUSTAINABLE POWER SECTOR DEVELOPMENT PROJECT", "status": "Completion", "sectors": ["Energy"]}, "type": "Feature", "geometry": {"coordinates": [90.33013, 23.78457], "type": "Point"}}, {"id": 567, "properties": {"id": "46004-36107-013-LN2333", "locationName": "University of Dhaka", "title": "SUSTAINABLE POWER SECTOR DEVELOPMENT PROJECT", "status": "Completion", "sectors": ["Energy"]}, "type": "Feature", "geometry": {"coordinates": [90.3925, 23.73155], "type": "Point"}}, {"id": 568, "properties": {"id": "46004-36107-013-LN2333", "locationName": "Dhaka Cantonment", "title": "SUSTAINABLE POWER SECTOR DEVELOPMENT PROJECT", "status": "Completion", "sectors": ["Energy"]}, "type": "Feature", "geometry": {"coordinates": [90.40556, 23.82444], "type": "Point"}}, {"id": 569, "properties": {"id": "46004-37017-013-LN2362", "locationName": "Bangladesh", "title": "GOOD GOVERNANCE PROGRAM", "status": "Implementation", "sectors": ["Public sector management"]}, "type": "Feature", "geometry": {"coordinates": [90.0, 24.0], "type": "Point"}}, {"id": 570, "properties": {"id": "46004-39405-013-LN2382", "locationName": "Dhaka", "title": "DHAKA WATER SUPPLY SECTOR DEVELOPMENT PROGRAM (PROJECT LOAN)", "status": "Implementation", "sectors": ["Water supply and other urban infrastructure and services"]}, "type": "Feature", "geometry": {"coordinates": [90.40744, 23.7104], "type": "Point"}}, {"id": 571, "properties": {"id": "46004-39405-013-LN2383", "locationName": "Dhaka", "title": "DHAKA WATER SUPPLY SECTOR DEVELOPMENT PROGRAM", "status": "Implementation", "sectors": ["Water supply and other urban infrastructure and services"]}, "type": "Feature", "geometry": {"coordinates": [90.40744, 23.7104], "type": "Point"}}, {"id": 572, "properties": {"id": "46004-40054-013-LN2397", "locationName": "Thimphu", "title": "SASEC INFORMATION HIGHWAY PROJECT (BAN,BHU,IND,NEP)", "status": "Implementation", "sectors": ["Information and communication technology"]}, "type": "Feature", "geometry": {"coordinates": [89.64191, 27.46609], "type": "Point"}}, {"id": 573, "properties": {"id": "46004-40054-013-LN2397", "locationName": "Bhutan", "title": "SASEC INFORMATION HIGHWAY PROJECT (BAN,BHU,IND,NEP)", "status": "Implementation", "sectors": ["Information and communication technology"]}, "type": "Feature", "geometry": {"coordinates": [90.5, 27.5], "type": "Point"}}, {"id": 574, "properties": {"id": "46004-40054-013-LN2397", "locationName": "Thimphu Dzongkhag", "title": "SASEC INFORMATION HIGHWAY PROJECT (BAN,BHU,IND,NEP)", "status": "Implementation", "sectors": ["Information and communication technology"]}, "type": "Feature", "geometry": {"coordinates": [89.58333, 27.6], "type": "Point"}}, {"id": 575, "properties": {"id": "46004-40054-013-LN2397", "locationName": "Phuentsholing", "title": "SASEC INFORMATION HIGHWAY PROJECT (BAN,BHU,IND,NEP)", "status": "Implementation", "sectors": ["Information and communication technology"]}, "type": "Feature", "geometry": {"coordinates": [89.42317, 26.91389], "type": "Point"}}, {"id": 576, "properties": {"id": "46004-40054-013-LN2397", "locationName": "Phuentsholing", "title": "SASEC INFORMATION HIGHWAY PROJECT (BAN,BHU,IND,NEP)", "status": "Implementation", "sectors": ["Information and communication technology"]}, "type": "Feature", "geometry": {"coordinates": [89.39048, 26.85892], "type": "Point"}}, {"id": 577, "properties": {"id": "46004-39408-013-LN2425", "locationName": "Bangladesh", "title": "SKILLS DEVELOPMENT PROJECT", "status": "Implementation", "sectors": ["Education"]}, "type": "Feature", "geometry": {"coordinates": [90.0, 24.0], "type": "Point"}}, {"id": 578, "properties": {"id": "46004-40517-013-LN2453", "locationName": "Bangladesh", "title": "PUBLIC-PRIVATE INFRASTRUCTURE DEVELOPMENT FACILITY", "status": "Completion", "sectors": ["Finance"]}, "type": "Feature", "geometry": {"coordinates": [90.0, 24.0], "type": "Point"}}, {"id": 579, "properties": {"id": "46004-40517-013-LN2454", "locationName": "Bangladesh", "title": "PUBLIC-PRIVATE INFRASTRUCTURE DEVELOPMENT FACILITY", "status": "Implementation", "sectors": ["Multisector"]}, "type": "Feature", "geometry": {"coordinates": [90.0, 24.0], "type": "Point"}}, {"id": 580, "properties": {"id": "46004-40559-013-LN2462", "locationName": "Th\u0101kurgaon", "title": "SECOND URBAN GOVERNANCE & INFRASTRUCTURE IMPROVEMENT(SECTOR)PROJ", "status": "Implementation", "sectors": ["Transport"]}, "type": "Feature", "geometry": {"coordinates": [88.46989, 26.03097], "type": "Point"}}, {"id": 581, "properties": {"id": "46004-40559-013-LN2462", "locationName": "Sun\u0101mganj", "title": "SECOND URBAN GOVERNANCE & INFRASTRUCTURE IMPROVEMENT(SECTOR)PROJ", "status": "Implementation", "sectors": ["Transport"]}, "type": "Feature", "geometry": {"coordinates": [91.40243, 25.06889], "type": "Point"}}, {"id": 582, "properties": {"id": "46004-40559-013-LN2462", "locationName": "Jam\u0101lpur", "title": "SECOND URBAN GOVERNANCE & INFRASTRUCTURE IMPROVEMENT(SECTOR)PROJ", "status": "Implementation", "sectors": ["Transport"]}, "type": "Feature", "geometry": {"coordinates": [89.94812, 24.91965], "type": "Point"}}, {"id": 583, "properties": {"id": "46004-40559-013-LN2462", "locationName": "S\u0101tkhira", "title": "SECOND URBAN GOVERNANCE & INFRASTRUCTURE IMPROVEMENT(SECTOR)PROJ", "status": "Implementation", "sectors": ["Transport"]}, "type": "Feature", "geometry": {"coordinates": [89.07185, 22.70817], "type": "Point"}}, {"id": 584, "properties": {"id": "46004-40559-013-LN2462", "locationName": "Sirajganj", "title": "SECOND URBAN GOVERNANCE & INFRASTRUCTURE IMPROVEMENT(SECTOR)PROJ", "status": "Implementation", "sectors": ["Transport"]}, "type": "Feature", "geometry": {"coordinates": [89.70802, 24.45771], "type": "Point"}}, {"id": 585, "properties": {"id": "46004-40559-013-LN2462", "locationName": "Mymensingh", "title": "SECOND URBAN GOVERNANCE & INFRASTRUCTURE IMPROVEMENT(SECTOR)PROJ", "status": "Implementation", "sectors": ["Transport"]}, "type": "Feature", "geometry": {"coordinates": [90.40646, 24.75636], "type": "Point"}}, {"id": 586, "properties": {"id": "46004-40559-013-LN2462", "locationName": "Mirz\u0101pur", "title": "SECOND URBAN GOVERNANCE & INFRASTRUCTURE IMPROVEMENT(SECTOR)PROJ", "status": "Implementation", "sectors": ["Transport"]}, "type": "Feature", "geometry": {"coordinates": [90.09841, 24.10287], "type": "Point"}}, {"id": 587, "properties": {"id": "46004-40559-013-LN2462", "locationName": "Comilla", "title": "SECOND URBAN GOVERNANCE & INFRASTRUCTURE IMPROVEMENT(SECTOR)PROJ", "status": "Implementation", "sectors": ["Transport"]}, "type": "Feature", "geometry": {"coordinates": [91.18504, 23.46186], "type": "Point"}}, {"id": 588, "properties": {"id": "46004-40559-013-LN2462", "locationName": "Rangpur", "title": "SECOND URBAN GOVERNANCE & INFRASTRUCTURE IMPROVEMENT(SECTOR)PROJ", "status": "Implementation", "sectors": ["Transport"]}, "type": "Feature", "geometry": {"coordinates": [89.25166, 25.74664], "type": "Point"}}, {"id": 589, "properties": {"id": "46004-40559-013-LN2462", "locationName": "B\u0101gherh\u0101t", "title": "SECOND URBAN GOVERNANCE & INFRASTRUCTURE IMPROVEMENT(SECTOR)PROJ", "status": "Implementation", "sectors": ["Transport"]}, "type": "Feature", "geometry": {"coordinates": [89.79123, 22.65657], "type": "Point"}}, {"id": 590, "properties": {"id": "46004-40559-013-LN2462", "locationName": "Narail", "title": "SECOND URBAN GOVERNANCE & INFRASTRUCTURE IMPROVEMENT(SECTOR)PROJ", "status": "Implementation", "sectors": ["Transport"]}, "type": "Feature", "geometry": {"coordinates": [89.49515, 23.15509], "type": "Point"}}, {"id": 591, "properties": {"id": "46004-40559-013-LN2462", "locationName": "No\u0101kh\u0101li", "title": "SECOND URBAN GOVERNANCE & INFRASTRUCTURE IMPROVEMENT(SECTOR)PROJ", "status": "Implementation", "sectors": ["Transport"]}, "type": "Feature", "geometry": {"coordinates": [90.66667, 22.83333], "type": "Point"}}, {"id": 592, "properties": {"id": "46004-40559-013-LN2462", "locationName": "Kol\u0101p\u0101ra", "title": "SECOND URBAN GOVERNANCE & INFRASTRUCTURE IMPROVEMENT(SECTOR)PROJ", "status": "Implementation", "sectors": ["Transport"]}, "type": "Feature", "geometry": {"coordinates": [90.25708, 23.49879], "type": "Point"}}, {"id": 593, "properties": {"id": "46004-40559-013-LN2462", "locationName": "Ghor\u0101s\u0101l", "title": "SECOND URBAN GOVERNANCE & INFRASTRUCTURE IMPROVEMENT(SECTOR)PROJ", "status": "Implementation", "sectors": ["Transport"]}, "type": "Feature", "geometry": {"coordinates": [90.63035, 23.94129], "type": "Point"}}, {"id": 594, "properties": {"id": "46004-40559-013-LN2462", "locationName": "Far\u012bdpur", "title": "SECOND URBAN GOVERNANCE & INFRASTRUCTURE IMPROVEMENT(SECTOR)PROJ", "status": "Implementation", "sectors": ["Transport"]}, "type": "Feature", "geometry": {"coordinates": [89.84064, 23.60612], "type": "Point"}}, {"id": 595, "properties": {"id": "46004-40559-013-LN2462", "locationName": "Din\u0101jpur", "title": "SECOND URBAN GOVERNANCE & INFRASTRUCTURE IMPROVEMENT(SECTOR)PROJ", "status": "Implementation", "sectors": ["Transport"]}, "type": "Feature", "geometry": {"coordinates": [88.63779, 25.62745], "type": "Point"}}, {"id": 596, "properties": {"id": "46004-40559-013-LN2462", "locationName": "Chaumuh\u0101ni", "title": "SECOND URBAN GOVERNANCE & INFRASTRUCTURE IMPROVEMENT(SECTOR)PROJ", "status": "Implementation", "sectors": ["Transport"]}, "type": "Feature", "geometry": {"coordinates": [91.11667, 22.93333], "type": "Point"}}, {"id": 597, "properties": {"id": "46004-40559-013-LN2462", "locationName": "Ch\u0101ndpur", "title": "SECOND URBAN GOVERNANCE & INFRASTRUCTURE IMPROVEMENT(SECTOR)PROJ", "status": "Implementation", "sectors": ["Transport"]}, "type": "Feature", "geometry": {"coordinates": [90.94317, 23.19905], "type": "Point"}}, {"id": 598, "properties": {"id": "46004-40559-013-LN2462", "locationName": "Ben\u0101pol", "title": "SECOND URBAN GOVERNANCE & INFRASTRUCTURE IMPROVEMENT(SECTOR)PROJ", "status": "Implementation", "sectors": ["Transport"]}, "type": "Feature", "geometry": {"coordinates": [88.9059, 23.04697], "type": "Point"}}, {"id": 599, "properties": {"id": "46004-40559-013-LN2462", "locationName": "Cox\u2019s B\u0101z\u0101r", "title": "SECOND URBAN GOVERNANCE & INFRASTRUCTURE IMPROVEMENT(SECTOR)PROJ", "status": "Implementation", "sectors": ["Transport"]}, "type": "Feature", "geometry": {"coordinates": [91.96765, 21.45388], "type": "Point"}}, {"id": 600, "properties": {"id": "46004-40559-013-LN2462", "locationName": "Bhola", "title": "SECOND URBAN GOVERNANCE & INFRASTRUCTURE IMPROVEMENT(SECTOR)PROJ", "status": "Implementation", "sectors": ["Transport"]}, "type": "Feature", "geometry": {"coordinates": [90.64403, 22.68759], "type": "Point"}}, {"id": 601, "properties": {"id": "46004-40559-013-LN2462", "locationName": "Munshiganj", "title": "SECOND URBAN GOVERNANCE & INFRASTRUCTURE IMPROVEMENT(SECTOR)PROJ", "status": "Implementation", "sectors": ["Transport"]}, "type": "Feature", "geometry": {"coordinates": [90.53459, 23.5517], "type": "Point"}}, {"id": 602, "properties": {"id": "46004-40559-013-LN2462", "locationName": "Br\u0101hmanb\u0101ria", "title": "SECOND URBAN GOVERNANCE & INFRASTRUCTURE IMPROVEMENT(SECTOR)PROJ", "status": "Implementation", "sectors": ["Transport"]}, "type": "Feature", "geometry": {"coordinates": [91.11228, 23.97464], "type": "Point"}}, {"id": 603, "properties": {"id": "46004-40559-013-LN2462", "locationName": "Nachole", "title": "SECOND URBAN GOVERNANCE & INFRASTRUCTURE IMPROVEMENT(SECTOR)PROJ", "status": "Implementation", "sectors": ["Transport"]}, "type": "Feature", "geometry": {"coordinates": [88.39, 24.73], "type": "Point"}}, {"id": 604, "properties": {"id": "46004-40559-013-LN2462", "locationName": "Sreemangal", "title": "SECOND URBAN GOVERNANCE & INFRASTRUCTURE IMPROVEMENT(SECTOR)PROJ", "status": "Implementation", "sectors": ["Transport"]}, "type": "Feature", "geometry": {"coordinates": [91.68, 24.3], "type": "Point"}}, {"id": 605, "properties": {"id": "46004-40559-013-LN2462", "locationName": "Natore S.", "title": "SECOND URBAN GOVERNANCE & INFRASTRUCTURE IMPROVEMENT(SECTOR)PROJ", "status": "Implementation", "sectors": ["Transport"]}, "type": "Feature", "geometry": {"coordinates": [88.98, 24.45], "type": "Point"}}, {"id": 606, "properties": {"id": "46004-40559-013-LN2462", "locationName": "Kurigram", "title": "SECOND URBAN GOVERNANCE & INFRASTRUCTURE IMPROVEMENT(SECTOR)PROJ", "status": "Implementation", "sectors": ["Transport"]}, "type": "Feature", "geometry": {"coordinates": [89.64284, 25.81158], "type": "Point"}}, {"id": 607, "properties": {"id": "46004-40559-013-LN2462", "locationName": "Parshuram", "title": "SECOND URBAN GOVERNANCE & INFRASTRUCTURE IMPROVEMENT(SECTOR)PROJ", "status": "Implementation", "sectors": ["Transport"]}, "type": "Feature", "geometry": {"coordinates": [91.43, 23.21], "type": "Point"}}, {"id": 608, "properties": {"id": "46004-40559-013-LN2462", "locationName": "Sreepur", "title": "SECOND URBAN GOVERNANCE & INFRASTRUCTURE IMPROVEMENT(SECTOR)PROJ", "status": "Implementation", "sectors": ["Transport"]}, "type": "Feature", "geometry": {"coordinates": [90.45, 24.24], "type": "Point"}}, {"id": 609, "properties": {"id": "46004-40559-013-LN2462", "locationName": "Jhenaidah Sardar UZ", "title": "SECOND URBAN GOVERNANCE & INFRASTRUCTURE IMPROVEMENT(SECTOR)PROJ", "status": "Implementation", "sectors": ["Transport"]}, "type": "Feature", "geometry": {"coordinates": [89.183, 23.542], "type": "Point"}}, {"id": 610, "properties": {"id": "46004-40559-013-LN2462", "locationName": "Gaibandha", "title": "SECOND URBAN GOVERNANCE & INFRASTRUCTURE IMPROVEMENT(SECTOR)PROJ", "status": "Implementation", "sectors": ["Transport"]}, "type": "Feature", "geometry": {"coordinates": [89.5438, 25.3293], "type": "Point"}}, {"id": 611, "properties": {"id": "46004-40559-013-LN2462", "locationName": "Barguna", "title": "SECOND URBAN GOVERNANCE & INFRASTRUCTURE IMPROVEMENT(SECTOR)PROJ", "status": "Implementation", "sectors": ["Transport"]}, "type": "Feature", "geometry": {"coordinates": [90.11758, 22.15672], "type": "Point"}}, {"id": 612, "properties": {"id": "46004-40559-013-LN2462", "locationName": "Jh\u0101lak\u0101ti", "title": "SECOND URBAN GOVERNANCE & INFRASTRUCTURE IMPROVEMENT(SECTOR)PROJ", "status": "Implementation", "sectors": ["Transport"]}, "type": "Feature", "geometry": {"coordinates": [90.20109, 22.64265], "type": "Point"}}, {"id": 613, "properties": {"id": "46004-40559-013-LN2462", "locationName": "Bhanga", "title": "SECOND URBAN GOVERNANCE & INFRASTRUCTURE IMPROVEMENT(SECTOR)PROJ", "status": "Implementation", "sectors": ["Transport"]}, "type": "Feature", "geometry": {"coordinates": [89.98389, 23.39194], "type": "Point"}}, {"id": 614, "properties": {"id": "46004-40559-013-LN2462", "locationName": "Golapganj", "title": "SECOND URBAN GOVERNANCE & INFRASTRUCTURE IMPROVEMENT(SECTOR)PROJ", "status": "Implementation", "sectors": ["Transport"]}, "type": "Feature", "geometry": {"coordinates": [92.01388, 24.85722], "type": "Point"}}, {"id": 615, "properties": {"id": "46004-39432-013-LN2542", "locationName": "Kanakdia", "title": "PARTICIPATORY SMALL SCALE WATER RESOURCES SECTOR PROJECT", "status": "Implementation", "sectors": ["Agriculture, natural resources and rural development"]}, "type": "Feature", "geometry": {"coordinates": [90.51236, 22.46074], "type": "Point"}}, {"id": 616, "properties": {"id": "46004-39432-013-LN2542", "locationName": "Gosinga", "title": "PARTICIPATORY SMALL SCALE WATER RESOURCES SECTOR PROJECT", "status": "Implementation", "sectors": ["Agriculture, natural resources and rural development"]}, "type": "Feature", "geometry": {"coordinates": [90.53826, 24.18058], "type": "Point"}}, {"id": 617, "properties": {"id": "46004-39432-013-LN2542", "locationName": "Bangladesh", "title": "PARTICIPATORY SMALL SCALE WATER RESOURCES SECTOR PROJECT", "status": "Implementation", "sectors": ["Agriculture, natural resources and rural development"]}, "type": "Feature", "geometry": {"coordinates": [90.0, 24.0], "type": "Point"}}, {"id": 618, "properties": {"id": "46004-39432-013-LN2542", "locationName": "Cox\u2019s B\u0101z\u0101r", "title": "PARTICIPATORY SMALL SCALE WATER RESOURCES SECTOR PROJECT", "status": "Implementation", "sectors": ["Agriculture, natural resources and rural development"]}, "type": "Feature", "geometry": {"coordinates": [91.96765, 21.45388], "type": "Point"}}, {"id": 619, "properties": {"id": "46004-39432-013-LN2542", "locationName": "Bauphal", "title": "PARTICIPATORY SMALL SCALE WATER RESOURCES SECTOR PROJECT", "status": "Implementation", "sectors": ["Agriculture, natural resources and rural development"]}, "type": "Feature", "geometry": {"coordinates": [90.53, 22.45], "type": "Point"}}, {"id": 620, "properties": {"id": "46004-39432-013-LN2542", "locationName": "Purba Sar\u0101il", "title": "PARTICIPATORY SMALL SCALE WATER RESOURCES SECTOR PROJECT", "status": "Implementation", "sectors": ["Agriculture, natural resources and rural development"]}, "type": "Feature", "geometry": {"coordinates": [89.1998, 25.05872], "type": "Point"}}, {"id": 621, "properties": {"id": "46004-36200-013-LN2549", "locationName": "Bangladesh", "title": "SMALL & MEDIUM SIZED ENTERPRISE DEVELOPMENT PROJECT", "status": "Completion", "sectors": ["Finance"]}, "type": "Feature", "geometry": {"coordinates": [90.0, 24.0], "type": "Point"}}, {"id": 622, "properties": {"id": "46004-39305-013-LN2554", "locationName": "Sylhet", "title": "URBAN PUBLIC & ENVIRONMENTAL HEALTH SECTOR DEVT PROGRAM", "status": "Implementation", "sectors": ["Water supply and other urban infrastructure and services"]}, "type": "Feature", "geometry": {"coordinates": [91.87198, 24.89904], "type": "Point"}}, {"id": 623, "properties": {"id": "46004-39305-013-LN2554", "locationName": "Rajshahi", "title": "URBAN PUBLIC & ENVIRONMENTAL HEALTH SECTOR DEVT PROGRAM", "status": "Implementation", "sectors": ["Water supply and other urban infrastructure and services"]}, "type": "Feature", "geometry": {"coordinates": [88.60114, 24.374], "type": "Point"}}, {"id": 624, "properties": {"id": "46004-39305-013-LN2554", "locationName": "Dhaka", "title": "URBAN PUBLIC & ENVIRONMENTAL HEALTH SECTOR DEVT PROGRAM", "status": "Implementation", "sectors": ["Water supply and other urban infrastructure and services"]}, "type": "Feature", "geometry": {"coordinates": [90.40744, 23.7104], "type": "Point"}}, {"id": 625, "properties": {"id": "46004-39305-013-LN2554", "locationName": "Chittagong", "title": "URBAN PUBLIC & ENVIRONMENTAL HEALTH SECTOR DEVT PROGRAM", "status": "Implementation", "sectors": ["Water supply and other urban infrastructure and services"]}, "type": "Feature", "geometry": {"coordinates": [91.83168, 22.3384], "type": "Point"}}, {"id": 626, "properties": {"id": "46004-39305-013-LN2554", "locationName": "Khulna", "title": "URBAN PUBLIC & ENVIRONMENTAL HEALTH SECTOR DEVT PROGRAM", "status": "Implementation", "sectors": ["Water supply and other urban infrastructure and services"]}, "type": "Feature", "geometry": {"coordinates": [89.56439, 22.80978], "type": "Point"}}, {"id": 627, "properties": {"id": "46004-39305-013-LN2554", "locationName": "Baris\u0101l", "title": "URBAN PUBLIC & ENVIRONMENTAL HEALTH SECTOR DEVT PROGRAM", "status": "Implementation", "sectors": ["Water supply and other urban infrastructure and services"]}, "type": "Feature", "geometry": {"coordinates": [90.37013, 22.70497], "type": "Point"}}, {"id": 628, "properties": {"id": "46004-39305-013-LN2554", "locationName": "Aminbazar", "title": "URBAN PUBLIC & ENVIRONMENTAL HEALTH SECTOR DEVT PROGRAM", "status": "Implementation", "sectors": ["Water supply and other urban infrastructure and services"]}, "type": "Feature", "geometry": {"coordinates": [90.33013, 23.78457], "type": "Point"}}, {"id": 629, "properties": {"id": "46004-39305-013-LN2555", "locationName": "Sylhet", "title": "URBAN PUBLIC & ENVMTL HEALTH SECTOR DEVT PROGRAM-PROJECT LOAN", "status": "Implementation", "sectors": ["Water supply and other urban infrastructure and services"]}, "type": "Feature", "geometry": {"coordinates": [91.87198, 24.89904], "type": "Point"}}, {"id": 630, "properties": {"id": "46004-39305-013-LN2555", "locationName": "Rajshahi", "title": "URBAN PUBLIC & ENVMTL HEALTH SECTOR DEVT PROGRAM-PROJECT LOAN", "status": "Implementation", "sectors": ["Water supply and other urban infrastructure and services"]}, "type": "Feature", "geometry": {"coordinates": [88.60114, 24.374], "type": "Point"}}, {"id": 631, "properties": {"id": "46004-39305-013-LN2555", "locationName": "Dhaka", "title": "URBAN PUBLIC & ENVMTL HEALTH SECTOR DEVT PROGRAM-PROJECT LOAN", "status": "Implementation", "sectors": ["Water supply and other urban infrastructure and services"]}, "type": "Feature", "geometry": {"coordinates": [90.40744, 23.7104], "type": "Point"}}, {"id": 632, "properties": {"id": "46004-39305-013-LN2555", "locationName": "Chittagong", "title": "URBAN PUBLIC & ENVMTL HEALTH SECTOR DEVT PROGRAM-PROJECT LOAN", "status": "Implementation", "sectors": ["Water supply and other urban infrastructure and services"]}, "type": "Feature", "geometry": {"coordinates": [91.83168, 22.3384], "type": "Point"}}, {"id": 633, "properties": {"id": "46004-39305-013-LN2555", "locationName": "Khulna", "title": "URBAN PUBLIC & ENVMTL HEALTH SECTOR DEVT PROGRAM-PROJECT LOAN", "status": "Implementation", "sectors": ["Water supply and other urban infrastructure and services"]}, "type": "Feature", "geometry": {"coordinates": [89.56439, 22.80978], "type": "Point"}}, {"id": 634, "properties": {"id": "46004-39305-013-LN2555", "locationName": "Baris\u0101l", "title": "URBAN PUBLIC & ENVMTL HEALTH SECTOR DEVT PROGRAM-PROJECT LOAN", "status": "Implementation", "sectors": ["Water supply and other urban infrastructure and services"]}, "type": "Feature", "geometry": {"coordinates": [90.37013, 22.70497], "type": "Point"}}, {"id": 635, "properties": {"id": "46004-39305-013-LN2555", "locationName": "Aminbazar", "title": "URBAN PUBLIC & ENVMTL HEALTH SECTOR DEVT PROGRAM-PROJECT LOAN", "status": "Implementation", "sectors": ["Water supply and other urban infrastructure and services"]}, "type": "Feature", "geometry": {"coordinates": [90.33013, 23.78457], "type": "Point"}}, {"id": 636, "properties": {"id": "46004-39399-013-LN2580", "locationName": "Lumbini", "title": "SOUTH ASIA TOURISM INFRASTRUCTURE DEVT PROJ(BAN/NEP/IND)-BAN", "status": "Implementation", "sectors": ["Transport"]}, "type": "Feature", "geometry": {"coordinates": [83.27714, 27.48619], "type": "Point"}}, {"id": 637, "properties": {"id": "46004-39399-013-LN2580", "locationName": "Bhairahaw\u0101", "title": "SOUTH ASIA TOURISM INFRASTRUCTURE DEVT PROJ(BAN/NEP/IND)-BAN", "status": "Implementation", "sectors": ["Transport"]}, "type": "Feature", "geometry": {"coordinates": [83.41625, 27.5057], "type": "Point"}}, {"id": 638, "properties": {"id": "46004-38164-013-LN2622", "locationName": "Kushtia District", "title": "NATURAL GAS ACCESS IMPROVEMENT PROJECT", "status": "Implementation", "sectors": ["Energy"]}, "type": "Feature", "geometry": {"coordinates": [88.91667, 23.83333], "type": "Point"}}, {"id": 639, "properties": {"id": "46004-38164-013-LN2622", "locationName": "Feni", "title": "NATURAL GAS ACCESS IMPROVEMENT PROJECT", "status": "Implementation", "sectors": ["Energy"]}, "type": "Feature", "geometry": {"coordinates": [91.4013, 23.01134], "type": "Point"}}, {"id": 640, "properties": {"id": "46004-38164-013-LN2622", "locationName": "Mongla", "title": "NATURAL GAS ACCESS IMPROVEMENT PROJECT", "status": "Implementation", "sectors": ["Energy"]}, "type": "Feature", "geometry": {"coordinates": [89.59197, 22.49015], "type": "Point"}}, {"id": 641, "properties": {"id": "46004-38164-013-LN2622", "locationName": "Kutumbapur", "title": "NATURAL GAS ACCESS IMPROVEMENT PROJECT", "status": "Implementation", "sectors": ["Energy"]}, "type": "Feature", "geometry": {"coordinates": [90.90532, 23.50092], "type": "Point"}}, {"id": 642, "properties": {"id": "46004-38164-013-LN2622", "locationName": "Elenga", "title": "NATURAL GAS ACCESS IMPROVEMENT PROJECT", "status": "Implementation", "sectors": ["Energy"]}, "type": "Feature", "geometry": {"coordinates": [89.91274, 24.33682], "type": "Point"}}, {"id": 643, "properties": {"id": "46004-38164-013-LN2622", "locationName": "Dew\u0101nb\u0101ri", "title": "NATURAL GAS ACCESS IMPROVEMENT PROJECT", "status": "Implementation", "sectors": ["Energy"]}, "type": "Feature", "geometry": {"coordinates": [90.3233, 23.84886], "type": "Point"}}, {"id": 644, "properties": {"id": "46004-38164-013-LN2622", "locationName": "B\u0101khr\u0101b\u0101d", "title": "NATURAL GAS ACCESS IMPROVEMENT PROJECT", "status": "Implementation", "sectors": ["Energy"]}, "type": "Feature", "geometry": {"coordinates": [90.88068, 23.70538], "type": "Point"}}, {"id": 645, "properties": {"id": "46004-38164-013-LN2622", "locationName": "\u0100shuganj", "title": "NATURAL GAS ACCESS IMPROVEMENT PROJECT", "status": "Implementation", "sectors": ["Energy"]}, "type": "Feature", "geometry": {"coordinates": [91.0117, 24.04016], "type": "Point"}}, {"id": 646, "properties": {"id": "46004-38164-013-LN2622", "locationName": "Br\u0101hmanb\u0101ria", "title": "NATURAL GAS ACCESS IMPROVEMENT PROJECT", "status": "Implementation", "sectors": ["Energy"]}, "type": "Feature", "geometry": {"coordinates": [91.11228, 23.97464], "type": "Point"}}, {"id": 647, "properties": {"id": "46004-38164-013-LN2622", "locationName": "Br\u0101hmanb\u0101ria District", "title": "NATURAL GAS ACCESS IMPROVEMENT PROJECT", "status": "Implementation", "sectors": ["Energy"]}, "type": "Feature", "geometry": {"coordinates": [91.16667, 23.98333], "type": "Point"}}, {"id": 648, "properties": {"id": "46004-38164-013-LN2622", "locationName": "Comilla District", "title": "NATURAL GAS ACCESS IMPROVEMENT PROJECT", "status": "Implementation", "sectors": ["Energy"]}, "type": "Feature", "geometry": {"coordinates": [91.00987, 23.4417], "type": "Point"}}, {"id": 649, "properties": {"id": "46004-38164-013-LN2622", "locationName": "Jhenaidah District", "title": "NATURAL GAS ACCESS IMPROVEMENT PROJECT", "status": "Implementation", "sectors": ["Energy"]}, "type": "Feature", "geometry": {"coordinates": [89.16667, 23.5], "type": "Point"}}, {"id": 650, "properties": {"id": "46004-38164-013-LN2622", "locationName": "Jessore District", "title": "NATURAL GAS ACCESS IMPROVEMENT PROJECT", "status": "Implementation", "sectors": ["Energy"]}, "type": "Feature", "geometry": {"coordinates": [89.16667, 23.08333], "type": "Point"}}, {"id": 651, "properties": {"id": "46004-38164-013-LN2622", "locationName": "B\u0101gerh\u0101t District", "title": "NATURAL GAS ACCESS IMPROVEMENT PROJECT", "status": "Implementation", "sectors": ["Energy"]}, "type": "Feature", "geometry": {"coordinates": [89.75, 22.4], "type": "Point"}}, {"id": 652, "properties": {"id": "46004-38164-013-LN2622", "locationName": "Khulna District", "title": "NATURAL GAS ACCESS IMPROVEMENT PROJECT", "status": "Implementation", "sectors": ["Energy"]}, "type": "Feature", "geometry": {"coordinates": [89.33333, 22.5], "type": "Point"}}, {"id": 653, "properties": {"id": "46004-38164-013-LN2622", "locationName": "Barabkunda", "title": "NATURAL GAS ACCESS IMPROVEMENT PROJECT", "status": "Implementation", "sectors": ["Energy"]}, "type": "Feature", "geometry": {"coordinates": [91.65944, 22.60333], "type": "Point"}}, {"id": 654, "properties": {"id": "46004-38164-013-LN2622", "locationName": "Monohordi", "title": "NATURAL GAS ACCESS IMPROVEMENT PROJECT", "status": "Implementation", "sectors": ["Energy"]}, "type": "Feature", "geometry": {"coordinates": [90.72715, 24.11546], "type": "Point"}}, {"id": 655, "properties": {"id": "46004-38164-013-LN2623", "locationName": "Kushtia District", "title": "NATURAL GAS ACCESS IMPROVEMENT PROJECT (SF)", "status": "Implementation", "sectors": ["Energy"]}, "type": "Feature", "geometry": {"coordinates": [88.91667, 23.83333], "type": "Point"}}, {"id": 656, "properties": {"id": "46004-38164-013-LN2623", "locationName": "Feni", "title": "NATURAL GAS ACCESS IMPROVEMENT PROJECT (SF)", "status": "Implementation", "sectors": ["Energy"]}, "type": "Feature", "geometry": {"coordinates": [91.4013, 23.01134], "type": "Point"}}, {"id": 657, "properties": {"id": "46004-38164-013-LN2623", "locationName": "Mongla", "title": "NATURAL GAS ACCESS IMPROVEMENT PROJECT (SF)", "status": "Implementation", "sectors": ["Energy"]}, "type": "Feature", "geometry": {"coordinates": [89.59197, 22.49015], "type": "Point"}}, {"id": 658, "properties": {"id": "46004-38164-013-LN2623", "locationName": "Kutumbapur", "title": "NATURAL GAS ACCESS IMPROVEMENT PROJECT (SF)", "status": "Implementation", "sectors": ["Energy"]}, "type": "Feature", "geometry": {"coordinates": [90.90532, 23.50092], "type": "Point"}}, {"id": 659, "properties": {"id": "46004-38164-013-LN2623", "locationName": "Elenga", "title": "NATURAL GAS ACCESS IMPROVEMENT PROJECT (SF)", "status": "Implementation", "sectors": ["Energy"]}, "type": "Feature", "geometry": {"coordinates": [89.91274, 24.33682], "type": "Point"}}, {"id": 660, "properties": {"id": "46004-38164-013-LN2623", "locationName": "Dew\u0101nb\u0101ri", "title": "NATURAL GAS ACCESS IMPROVEMENT PROJECT (SF)", "status": "Implementation", "sectors": ["Energy"]}, "type": "Feature", "geometry": {"coordinates": [90.3233, 23.84886], "type": "Point"}}, {"id": 661, "properties": {"id": "46004-38164-013-LN2623", "locationName": "B\u0101khr\u0101b\u0101d", "title": "NATURAL GAS ACCESS IMPROVEMENT PROJECT (SF)", "status": "Implementation", "sectors": ["Energy"]}, "type": "Feature", "geometry": {"coordinates": [90.88068, 23.70538], "type": "Point"}}, {"id": 662, "properties": {"id": "46004-38164-013-LN2623", "locationName": "\u0100shuganj", "title": "NATURAL GAS ACCESS IMPROVEMENT PROJECT (SF)", "status": "Implementation", "sectors": ["Energy"]}, "type": "Feature", "geometry": {"coordinates": [91.0117, 24.04016], "type": "Point"}}, {"id": 663, "properties": {"id": "46004-38164-013-LN2623", "locationName": "Br\u0101hmanb\u0101ria", "title": "NATURAL GAS ACCESS IMPROVEMENT PROJECT (SF)", "status": "Implementation", "sectors": ["Energy"]}, "type": "Feature", "geometry": {"coordinates": [91.11228, 23.97464], "type": "Point"}}, {"id": 664, "properties": {"id": "46004-38164-013-LN2623", "locationName": "Br\u0101hmanb\u0101ria District", "title": "NATURAL GAS ACCESS IMPROVEMENT PROJECT (SF)", "status": "Implementation", "sectors": ["Energy"]}, "type": "Feature", "geometry": {"coordinates": [91.16667, 23.98333], "type": "Point"}}, {"id": 665, "properties": {"id": "46004-38164-013-LN2623", "locationName": "Comilla District", "title": "NATURAL GAS ACCESS IMPROVEMENT PROJECT (SF)", "status": "Implementation", "sectors": ["Energy"]}, "type": "Feature", "geometry": {"coordinates": [91.00987, 23.4417], "type": "Point"}}, {"id": 666, "properties": {"id": "46004-38164-013-LN2623", "locationName": "Jhenaidah District", "title": "NATURAL GAS ACCESS IMPROVEMENT PROJECT (SF)", "status": "Implementation", "sectors": ["Energy"]}, "type": "Feature", "geometry": {"coordinates": [89.16667, 23.5], "type": "Point"}}, {"id": 667, "properties": {"id": "46004-38164-013-LN2623", "locationName": "Jessore District", "title": "NATURAL GAS ACCESS IMPROVEMENT PROJECT (SF)", "status": "Implementation", "sectors": ["Energy"]}, "type": "Feature", "geometry": {"coordinates": [89.16667, 23.08333], "type": "Point"}}, {"id": 668, "properties": {"id": "46004-38164-013-LN2623", "locationName": "B\u0101gerh\u0101t District", "title": "NATURAL GAS ACCESS IMPROVEMENT PROJECT (SF)", "status": "Implementation", "sectors": ["Energy"]}, "type": "Feature", "geometry": {"coordinates": [89.75, 22.4], "type": "Point"}}, {"id": 669, "properties": {"id": "46004-38164-013-LN2623", "locationName": "Khulna District", "title": "NATURAL GAS ACCESS IMPROVEMENT PROJECT (SF)", "status": "Implementation", "sectors": ["Energy"]}, "type": "Feature", "geometry": {"coordinates": [89.33333, 22.5], "type": "Point"}}, {"id": 670, "properties": {"id": "46004-38164-013-LN2623", "locationName": "Barabkunda", "title": "NATURAL GAS ACCESS IMPROVEMENT PROJECT (SF)", "status": "Implementation", "sectors": ["Energy"]}, "type": "Feature", "geometry": {"coordinates": [91.65944, 22.60333], "type": "Point"}}, {"id": 671, "properties": {"id": "46004-38164-013-LN2623", "locationName": "Monohordi", "title": "NATURAL GAS ACCESS IMPROVEMENT PROJECT (SF)", "status": "Implementation", "sectors": ["Energy"]}, "type": "Feature", "geometry": {"coordinates": [90.72715, 24.11546], "type": "Point"}}, {"id": 672, "properties": {"id": "46004-40534-013-LN2649", "locationName": "S\u0101rsha", "title": "SECOND CROP DIVERSIFICATION PROJECT", "status": "Implementation", "sectors": ["Finance"]}, "type": "Feature", "geometry": {"coordinates": [88.95255, 23.05724], "type": "Point"}}, {"id": 673, "properties": {"id": "46004-40534-013-LN2649", "locationName": "Nageswari", "title": "SECOND CROP DIVERSIFICATION PROJECT", "status": "Implementation", "sectors": ["Finance"]}, "type": "Feature", "geometry": {"coordinates": [89.69153, 25.96817], "type": "Point"}}, {"id": 674, "properties": {"id": "46004-40534-013-LN2649", "locationName": "Manir\u0101mpur", "title": "SECOND CROP DIVERSIFICATION PROJECT", "status": "Implementation", "sectors": ["Finance"]}, "type": "Feature", "geometry": {"coordinates": [89.23397, 23.0263], "type": "Point"}}, {"id": 675, "properties": {"id": "46004-40534-013-LN2649", "locationName": "Jhingerg\u0101cha", "title": "SECOND CROP DIVERSIFICATION PROJECT", "status": "Implementation", "sectors": ["Finance"]}, "type": "Feature", "geometry": {"coordinates": [89.09061, 23.11134], "type": "Point"}}, {"id": 676, "properties": {"id": "46004-40534-013-LN2649", "locationName": "Gaurnadi", "title": "SECOND CROP DIVERSIFICATION PROJECT", "status": "Implementation", "sectors": ["Finance"]}, "type": "Feature", "geometry": {"coordinates": [90.22376, 22.97372], "type": "Point"}}, {"id": 677, "properties": {"id": "46004-40534-013-LN2649", "locationName": "B\u0101buganj", "title": "SECOND CROP DIVERSIFICATION PROJECT", "status": "Implementation", "sectors": ["Finance"]}, "type": "Feature", "geometry": {"coordinates": [90.32213, 22.82018], "type": "Point"}}, {"id": 678, "properties": {"id": "46004-40534-013-LN2649", "locationName": "Muks\u016bdpur", "title": "SECOND CROP DIVERSIFICATION PROJECT", "status": "Implementation", "sectors": ["Finance"]}, "type": "Feature", "geometry": {"coordinates": [89.83812, 23.3034], "type": "Point"}}, {"id": 679, "properties": {"id": "46004-40534-013-LN2649", "locationName": "Dumuria", "title": "SECOND CROP DIVERSIFICATION PROJECT", "status": "Implementation", "sectors": ["Finance"]}, "type": "Feature", "geometry": {"coordinates": [89.41983, 22.79495], "type": "Point"}}, {"id": 680, "properties": {"id": "46004-40534-013-LN2649", "locationName": "Baris\u0101l", "title": "SECOND CROP DIVERSIFICATION PROJECT", "status": "Implementation", "sectors": ["Finance"]}, "type": "Feature", "geometry": {"coordinates": [90.37013, 22.70497], "type": "Point"}}, {"id": 681, "properties": {"id": "46004-40534-013-LN2649", "locationName": "Din\u0101jpur District", "title": "SECOND CROP DIVERSIFICATION PROJECT", "status": "Implementation", "sectors": ["Finance"]}, "type": "Feature", "geometry": {"coordinates": [88.75, 25.61667], "type": "Point"}}, {"id": 682, "properties": {"id": "46004-40534-013-LN2649", "locationName": "L\u0101lmonirh\u0101t District", "title": "SECOND CROP DIVERSIFICATION PROJECT", "status": "Implementation", "sectors": ["Finance"]}, "type": "Feature", "geometry": {"coordinates": [89.25, 26.0], "type": "Point"}}, {"id": 683, "properties": {"id": "46004-40534-013-LN2649", "locationName": "Kur\u012bgr\u0101m District", "title": "SECOND CROP DIVERSIFICATION PROJECT", "status": "Implementation", "sectors": ["Finance"]}, "type": "Feature", "geometry": {"coordinates": [89.66667, 25.75], "type": "Point"}}, {"id": 684, "properties": {"id": "46004-40534-013-LN2649", "locationName": "Gaibandha District", "title": "SECOND CROP DIVERSIFICATION PROJECT", "status": "Implementation", "sectors": ["Finance"]}, "type": "Feature", "geometry": {"coordinates": [89.5, 25.25], "type": "Point"}}, {"id": 685, "properties": {"id": "46004-40534-013-LN2649", "locationName": "Bogra District", "title": "SECOND CROP DIVERSIFICATION PROJECT", "status": "Implementation", "sectors": ["Finance"]}, "type": "Feature", "geometry": {"coordinates": [89.35, 24.78333], "type": "Point"}}, {"id": 686, "properties": {"id": "46004-40534-013-LN2649", "locationName": "Nator District", "title": "SECOND CROP DIVERSIFICATION PROJECT", "status": "Implementation", "sectors": ["Finance"]}, "type": "Feature", "geometry": {"coordinates": [89.08333, 24.35], "type": "Point"}}, {"id": 687, "properties": {"id": "46004-40534-013-LN2649", "locationName": "P\u0101bna District", "title": "SECOND CROP DIVERSIFICATION PROJECT", "status": "Implementation", "sectors": ["Finance"]}, "type": "Feature", "geometry": {"coordinates": [89.33533, 24.00633], "type": "Point"}}, {"id": 688, "properties": {"id": "46004-40534-013-LN2649", "locationName": "R\u0101jb\u0101ri District", "title": "SECOND CROP DIVERSIFICATION PROJECT", "status": "Implementation", "sectors": ["Finance"]}, "type": "Feature", "geometry": {"coordinates": [89.55, 23.66667], "type": "Point"}}, {"id": 689, "properties": {"id": "46004-40534-013-LN2649", "locationName": "Meherpur District", "title": "SECOND CROP DIVERSIFICATION PROJECT", "status": "Implementation", "sectors": ["Finance"]}, "type": "Feature", "geometry": {"coordinates": [88.7, 23.75], "type": "Point"}}, {"id": 690, "properties": {"id": "46004-40534-013-LN2649", "locationName": "Jhenaidah District", "title": "SECOND CROP DIVERSIFICATION PROJECT", "status": "Implementation", "sectors": ["Finance"]}, "type": "Feature", "geometry": {"coordinates": [89.16667, 23.5], "type": "Point"}}, {"id": 691, "properties": {"id": "46004-40534-013-LN2649", "locationName": "Chu\u0101d\u0101nga District", "title": "SECOND CROP DIVERSIFICATION PROJECT", "status": "Implementation", "sectors": ["Finance"]}, "type": "Feature", "geometry": {"coordinates": [88.85, 23.63333], "type": "Point"}}, {"id": 692, "properties": {"id": "46004-40534-013-LN2649", "locationName": "M\u0101gura District", "title": "SECOND CROP DIVERSIFICATION PROJECT", "status": "Implementation", "sectors": ["Finance"]}, "type": "Feature", "geometry": {"coordinates": [89.43333, 23.43333], "type": "Point"}}, {"id": 693, "properties": {"id": "46004-40534-013-LN2649", "locationName": "Narail District", "title": "SECOND CROP DIVERSIFICATION PROJECT", "status": "Implementation", "sectors": ["Finance"]}, "type": "Feature", "geometry": {"coordinates": [89.6, 23.13333], "type": "Point"}}, {"id": 694, "properties": {"id": "46004-40534-013-LN2649", "locationName": "B\u0101gerh\u0101t District", "title": "SECOND CROP DIVERSIFICATION PROJECT", "status": "Implementation", "sectors": ["Finance"]}, "type": "Feature", "geometry": {"coordinates": [89.75, 22.4], "type": "Point"}}, {"id": 695, "properties": {"id": "46004-40534-013-LN2649", "locationName": "S\u0101tkhira District", "title": "SECOND CROP DIVERSIFICATION PROJECT", "status": "Implementation", "sectors": ["Finance"]}, "type": "Feature", "geometry": {"coordinates": [89.15, 22.35], "type": "Point"}}, {"id": 696, "properties": {"id": "46004-40534-013-LN2649", "locationName": "Swarupk\u0101ti", "title": "SECOND CROP DIVERSIFICATION PROJECT", "status": "Implementation", "sectors": ["Finance"]}, "type": "Feature", "geometry": {"coordinates": [90.10142, 22.74535], "type": "Point"}}, {"id": 697, "properties": {"id": "46004-40534-013-LN2649", "locationName": "Bir\u0101mpur", "title": "SECOND CROP DIVERSIFICATION PROJECT", "status": "Implementation", "sectors": ["Finance"]}, "type": "Feature", "geometry": {"coordinates": [88.99331, 25.38908], "type": "Point"}}, {"id": 698, "properties": {"id": "46004-40534-013-LN2649", "locationName": "B\u0101g\u0101tip\u0101ra", "title": "SECOND CROP DIVERSIFICATION PROJECT", "status": "Implementation", "sectors": ["Finance"]}, "type": "Feature", "geometry": {"coordinates": [88.95196, 24.3166], "type": "Point"}}, {"id": 699, "properties": {"id": "46004-40534-013-LN2649", "locationName": "Mujib Nagar", "title": "SECOND CROP DIVERSIFICATION PROJECT", "status": "Implementation", "sectors": ["Finance"]}, "type": "Feature", "geometry": {"coordinates": [88.59411, 23.64944], "type": "Point"}}, {"id": 700, "properties": {"id": "46004-40534-013-LN2649", "locationName": "D\u0101murhuda", "title": "SECOND CROP DIVERSIFICATION PROJECT", "status": "Implementation", "sectors": ["Finance"]}, "type": "Feature", "geometry": {"coordinates": [88.77983, 23.61005], "type": "Point"}}, {"id": 701, "properties": {"id": "46004-40534-013-LN2649", "locationName": "Debh\u0101ta", "title": "SECOND CROP DIVERSIFICATION PROJECT", "status": "Implementation", "sectors": ["Finance"]}, "type": "Feature", "geometry": {"coordinates": [88.96242, 22.55546], "type": "Point"}}, {"id": 702, "properties": {"id": "46004-40534-013-LN2649", "locationName": "Daulatpur", "title": "SECOND CROP DIVERSIFICATION PROJECT", "status": "Implementation", "sectors": ["Finance"]}, "type": "Feature", "geometry": {"coordinates": [89.52424, 22.8705], "type": "Point"}}, {"id": 703, "properties": {"id": "46004-40534-013-LN2649", "locationName": "Kotch\u0101ndpur", "title": "SECOND CROP DIVERSIFICATION PROJECT", "status": "Implementation", "sectors": ["Finance"]}, "type": "Feature", "geometry": {"coordinates": [89.01374, 23.40232], "type": "Point"}}, {"id": 704, "properties": {"id": "46004-40534-013-LN2649", "locationName": "Sonatala", "title": "SECOND CROP DIVERSIFICATION PROJECT", "status": "Implementation", "sectors": ["Finance"]}, "type": "Feature", "geometry": {"coordinates": [89.49, 25.02], "type": "Point"}}, {"id": 705, "properties": {"id": "46004-40534-013-LN2649", "locationName": "Pabna S.", "title": "SECOND CROP DIVERSIFICATION PROJECT", "status": "Implementation", "sectors": ["Finance"]}, "type": "Feature", "geometry": {"coordinates": [89.29, 24.02], "type": "Point"}}, {"id": 706, "properties": {"id": "46004-40534-013-LN2649", "locationName": "Mirpur", "title": "SECOND CROP DIVERSIFICATION PROJECT", "status": "Implementation", "sectors": ["Finance"]}, "type": "Feature", "geometry": {"coordinates": [88.99, 23.89], "type": "Point"}}, {"id": 707, "properties": {"id": "46004-40534-013-LN2649", "locationName": "Hatibandha", "title": "SECOND CROP DIVERSIFICATION PROJECT", "status": "Implementation", "sectors": ["Finance"]}, "type": "Feature", "geometry": {"coordinates": [89.14, 26.12], "type": "Point"}}, {"id": 708, "properties": {"id": "46004-40534-013-LN2649", "locationName": "Nagarkanda", "title": "SECOND CROP DIVERSIFICATION PROJECT", "status": "Implementation", "sectors": ["Finance"]}, "type": "Feature", "geometry": {"coordinates": [89.85, 23.42], "type": "Point"}}, {"id": 709, "properties": {"id": "46004-40534-013-LN2649", "locationName": "Agailjhara", "title": "SECOND CROP DIVERSIFICATION PROJECT", "status": "Implementation", "sectors": ["Finance"]}, "type": "Feature", "geometry": {"coordinates": [90.14, 22.97], "type": "Point"}}, {"id": 710, "properties": {"id": "46004-40534-013-LN2649", "locationName": "Bhedarganj", "title": "SECOND CROP DIVERSIFICATION PROJECT", "status": "Implementation", "sectors": ["Finance"]}, "type": "Feature", "geometry": {"coordinates": [90.55, 23.23], "type": "Point"}}, {"id": 711, "properties": {"id": "46004-40534-013-LN2649", "locationName": "Fakirhat", "title": "SECOND CROP DIVERSIFICATION PROJECT", "status": "Implementation", "sectors": ["Finance"]}, "type": "Feature", "geometry": {"coordinates": [89.68, 22.75], "type": "Point"}}, {"id": 712, "properties": {"id": "46004-40534-013-LN2649", "locationName": "Godagari", "title": "SECOND CROP DIVERSIFICATION PROJECT", "status": "Implementation", "sectors": ["Finance"]}, "type": "Feature", "geometry": {"coordinates": [88.43, 24.5], "type": "Point"}}, {"id": 713, "properties": {"id": "46004-40534-013-LN2649", "locationName": "Harinakunda", "title": "SECOND CROP DIVERSIFICATION PROJECT", "status": "Implementation", "sectors": ["Finance"]}, "type": "Feature", "geometry": {"coordinates": [89.08, 23.65], "type": "Point"}}, {"id": 714, "properties": {"id": "46004-40534-013-LN2649", "locationName": "Jibannagar", "title": "SECOND CROP DIVERSIFICATION PROJECT", "status": "Implementation", "sectors": ["Finance"]}, "type": "Feature", "geometry": {"coordinates": [88.85, 23.44], "type": "Point"}}, {"id": 715, "properties": {"id": "46004-40534-013-LN2649", "locationName": "Kalkini", "title": "SECOND CROP DIVERSIFICATION PROJECT", "status": "Implementation", "sectors": ["Finance"]}, "type": "Feature", "geometry": {"coordinates": [90.27, 23.08], "type": "Point"}}, {"id": 716, "properties": {"id": "46004-40534-013-LN2649", "locationName": "Maheshpur", "title": "SECOND CROP DIVERSIFICATION PROJECT", "status": "Implementation", "sectors": ["Finance"]}, "type": "Feature", "geometry": {"coordinates": [88.86, 23.33], "type": "Point"}}, {"id": 717, "properties": {"id": "46004-40534-013-LN2649", "locationName": "Mollahat", "title": "SECOND CROP DIVERSIFICATION PROJECT", "status": "Implementation", "sectors": ["Finance"]}, "type": "Feature", "geometry": {"coordinates": [89.78, 22.88], "type": "Point"}}, {"id": 718, "properties": {"id": "46004-40534-013-LN2649", "locationName": "Nazirpur", "title": "SECOND CROP DIVERSIFICATION PROJECT", "status": "Implementation", "sectors": ["Finance"]}, "type": "Feature", "geometry": {"coordinates": [89.98, 22.77], "type": "Point"}}, {"id": 719, "properties": {"id": "46004-40534-013-LN2649", "locationName": "Pirojpur S.", "title": "SECOND CROP DIVERSIFICATION PROJECT", "status": "Implementation", "sectors": ["Finance"]}, "type": "Feature", "geometry": {"coordinates": [89.99, 22.6], "type": "Point"}}, {"id": 720, "properties": {"id": "46004-40534-013-LN2649", "locationName": "Rajoir", "title": "SECOND CROP DIVERSIFICATION PROJECT", "status": "Implementation", "sectors": ["Finance"]}, "type": "Feature", "geometry": {"coordinates": [90.04, 23.19], "type": "Point"}}, {"id": 721, "properties": {"id": "46004-40534-013-LN2649", "locationName": "Sadullapur", "title": "SECOND CROP DIVERSIFICATION PROJECT", "status": "Implementation", "sectors": ["Finance"]}, "type": "Feature", "geometry": {"coordinates": [89.43, 25.4], "type": "Point"}}, {"id": 722, "properties": {"id": "46004-40534-013-LN2649", "locationName": "Sreepur", "title": "SECOND CROP DIVERSIFICATION PROJECT", "status": "Implementation", "sectors": ["Finance"]}, "type": "Feature", "geometry": {"coordinates": [89.43, 23.59], "type": "Point"}}, {"id": 723, "properties": {"id": "46004-40534-013-LN2649", "locationName": "Tungipara", "title": "SECOND CROP DIVERSIFICATION PROJECT", "status": "Implementation", "sectors": ["Finance"]}, "type": "Feature", "geometry": {"coordinates": [89.91, 22.9], "type": "Point"}}, {"id": 724, "properties": {"id": "46004-40534-013-LN2649", "locationName": "Madhukhali", "title": "SECOND CROP DIVERSIFICATION PROJECT", "status": "Implementation", "sectors": ["Finance"]}, "type": "Feature", "geometry": {"coordinates": [89.62, 23.54], "type": "Point"}}, {"id": 725, "properties": {"id": "46004-40534-013-LN2649", "locationName": "Jessore Sadar", "title": "SECOND CROP DIVERSIFICATION PROJECT", "status": "Implementation", "sectors": ["Finance"]}, "type": "Feature", "geometry": {"coordinates": [89.2042, 23.1681], "type": "Point"}}, {"id": 726, "properties": {"id": "46004-44192-013-LN2661", "locationName": "Baharampur", "title": "BANGLADESH-INDIA ELECTRICAL GRID INTERCONNECTION PROJECT", "status": "Implementation", "sectors": ["Energy"]}, "type": "Feature", "geometry": {"coordinates": [88.25155, 24.10473], "type": "Point"}},