{"id": "KH", "properties": {"name": "Cambodia", "bounds": [102.31342370600012, 10.415773620000081, 107.61051639900009, 14.704581605000087]}, "type": "FeatureCollection", "features": [{"id": 5356, "properties": {"id": "46004-42186-013-GRNT0116", "locationName": "Pursat", "title": "EMERGENCY FOOD ASSISTANCE PROJECT", "status": "Implementation", "sectors": ["Agriculture, natural resources and rural development"]}, "type": "Feature", "geometry": {"coordinates": [103.66667, 12.33333], "type": "Point"}}, {"id": 5357, "properties": {"id": "46004-42186-013-GRNT0116", "locationName": "Battambang", "title": "EMERGENCY FOOD ASSISTANCE PROJECT", "status": "Implementation", "sectors": ["Agriculture, natural resources and rural development"]}, "type": "Feature", "geometry": {"coordinates": [103.08333, 12.91667], "type": "Point"}}, {"id": 5358, "properties": {"id": "46004-42186-013-GRNT0116", "locationName": "\u014et\u00e2r M\u00e9anchey", "title": "EMERGENCY FOOD ASSISTANCE PROJECT", "status": "Implementation", "sectors": ["Agriculture, natural resources and rural development"]}, "type": "Feature", "geometry": {"coordinates": [103.5, 14.16667], "type": "Point"}}, {"id": 5359, "properties": {"id": "46004-42186-013-GRNT0116", "locationName": "Siem Reap", "title": "EMERGENCY FOOD ASSISTANCE PROJECT", "status": "Implementation", "sectors": ["Agriculture, natural resources and rural development"]}, "type": "Feature", "geometry": {"coordinates": [104.0, 13.5], "type": "Point"}}, {"id": 5360, "properties": {"id": "46004-42186-013-GRNT0116", "locationName": "Kampong Thom", "title": "EMERGENCY FOOD ASSISTANCE PROJECT", "status": "Implementation", "sectors": ["Agriculture, natural resources and rural development"]}, "type": "Feature", "geometry": {"coordinates": [105.0, 12.83333], "type": "Point"}}, {"id": 5361, "properties": {"id": "46004-42186-013-GRNT0116", "locationName": "Kampong Chhnang", "title": "EMERGENCY FOOD ASSISTANCE PROJECT", "status": "Implementation", "sectors": ["Agriculture, natural resources and rural development"]}, "type": "Feature", "geometry": {"coordinates": [104.55, 12.16667], "type": "Point"}}, {"id": 5362, "properties": {"id": "46004-42186-013-GRNT0116", "locationName": "Banteay Meanchey", "title": "EMERGENCY FOOD ASSISTANCE PROJECT", "status": "Implementation", "sectors": ["Agriculture, natural resources and rural development"]}, "type": "Feature", "geometry": {"coordinates": [103.0, 13.75], "type": "Point"}}, {"id": 5363, "properties": {"id": "46004-41373-012-GRNT0132", "locationName": "Cambodia", "title": "PUBLIC FINANCIAL MANAGEMENT FOR RURAL DEVELOPMENT", "status": "Completion", "sectors": ["Public sector management"]}, "type": "Feature", "geometry": {"coordinates": [105.0, 13.0], "type": "Point"}}, {"id": 5364, "properties": {"id": "46004-41373-012-GRNT0133", "locationName": "Cambodia", "title": "PUBLIC FINANCIAL MANAGEMENT FOR RURAL DEVELOPMENT", "status": "Completion", "sectors": ["Public sector management"]}, "type": "Feature", "geometry": {"coordinates": [105.0, 13.0], "type": "Point"}}, {"id": 5365, "properties": {"id": "46004-38421-013-GRNT0136", "locationName": "Cambodia", "title": "SANITARY & PHYTOSANITARY STANDARDS MANAGEMENT SYST", "status": "Completion", "sectors": ["Public sector management"]}, "type": "Feature", "geometry": {"coordinates": [105.0, 13.0], "type": "Point"}}, {"id": 5366, "properties": {"id": "46004-38560-022-GRNT0156", "locationName": "Pursat", "title": "SECOND RURAL WATER SUPPLY AND SANITATION PROJECT", "status": "Implementation", "sectors": ["Water supply and other urban infrastructure and services"]}, "type": "Feature", "geometry": {"coordinates": [103.66667, 12.33333], "type": "Point"}}, {"id": 5367, "properties": {"id": "46004-38560-022-GRNT0156", "locationName": "Battambang", "title": "SECOND RURAL WATER SUPPLY AND SANITATION PROJECT", "status": "Implementation", "sectors": ["Water supply and other urban infrastructure and services"]}, "type": "Feature", "geometry": {"coordinates": [103.08333, 12.91667], "type": "Point"}}, {"id": 5368, "properties": {"id": "46004-38560-022-GRNT0156", "locationName": "Ta Lo\u016d", "title": "SECOND RURAL WATER SUPPLY AND SANITATION PROJECT", "status": "Implementation", "sectors": ["Water supply and other urban infrastructure and services"]}, "type": "Feature", "geometry": {"coordinates": [103.65238, 12.49167], "type": "Point"}}, {"id": 5369, "properties": {"id": "46004-38560-022-GRNT0156", "locationName": "Svay Ch\u00e9k", "title": "SECOND RURAL WATER SUPPLY AND SANITATION PROJECT", "status": "Implementation", "sectors": ["Water supply and other urban infrastructure and services"]}, "type": "Feature", "geometry": {"coordinates": [102.96232, 13.80208], "type": "Point"}}, {"id": 5370, "properties": {"id": "46004-38560-022-GRNT0156", "locationName": "Siem Reap", "title": "SECOND RURAL WATER SUPPLY AND SANITATION PROJECT", "status": "Implementation", "sectors": ["Water supply and other urban infrastructure and services"]}, "type": "Feature", "geometry": {"coordinates": [104.0, 13.5], "type": "Point"}}, {"id": 5371, "properties": {"id": "46004-38560-022-GRNT0156", "locationName": "Sr\u014fk S\u00e2nd\u0103n", "title": "SECOND RURAL WATER SUPPLY AND SANITATION PROJECT", "status": "Implementation", "sectors": ["Water supply and other urban infrastructure and services"]}, "type": "Feature", "geometry": {"coordinates": [105.28333, 13.08333], "type": "Point"}}, {"id": 5372, "properties": {"id": "46004-38560-022-GRNT0156", "locationName": "Pr\u00e2lay M\u00e9as", "title": "SECOND RURAL WATER SUPPLY AND SANITATION PROJECT", "status": "Implementation", "sectors": ["Water supply and other urban infrastructure and services"]}, "type": "Feature", "geometry": {"coordinates": [104.62549, 12.39014], "type": "Point"}}, {"id": 5373, "properties": {"id": "46004-38560-022-GRNT0156", "locationName": "Phum\u012d Ta Pho", "title": "SECOND RURAL WATER SUPPLY AND SANITATION PROJECT", "status": "Implementation", "sectors": ["Water supply and other urban infrastructure and services"]}, "type": "Feature", "geometry": {"coordinates": [103.04799, 13.77239], "type": "Point"}}, {"id": 5374, "properties": {"id": "46004-38560-022-GRNT0156", "locationName": "Phum\u012d Ta Kr\u00e9am", "title": "SECOND RURAL WATER SUPPLY AND SANITATION PROJECT", "status": "Implementation", "sectors": ["Water supply and other urban infrastructure and services"]}, "type": "Feature", "geometry": {"coordinates": [103.06146, 13.06003], "type": "Point"}}, {"id": 5375, "properties": {"id": "46004-38560-022-GRNT0156", "locationName": "Phum\u012d Sn\u0153\u0306ng", "title": "SECOND RURAL WATER SUPPLY AND SANITATION PROJECT", "status": "Implementation", "sectors": ["Water supply and other urban infrastructure and services"]}, "type": "Feature", "geometry": {"coordinates": [103.05094, 12.96835], "type": "Point"}}, {"id": 5376, "properties": {"id": "46004-38560-022-GRNT0156", "locationName": "Phum\u012d Sala Kra\u00f4m", "title": "SECOND RURAL WATER SUPPLY AND SANITATION PROJECT", "status": "Implementation", "sectors": ["Water supply and other urban infrastructure and services"]}, "type": "Feature", "geometry": {"coordinates": [102.94157, 13.7536], "type": "Point"}}, {"id": 5377, "properties": {"id": "46004-38560-022-GRNT0156", "locationName": "Phum\u012d P\u00f4p\u00e9l", "title": "SECOND RURAL WATER SUPPLY AND SANITATION PROJECT", "status": "Implementation", "sectors": ["Water supply and other urban infrastructure and services"]}, "type": "Feature", "geometry": {"coordinates": [104.04207, 13.40432], "type": "Point"}}, {"id": 5378, "properties": {"id": "46004-38560-022-GRNT0156", "locationName": "Phum\u012d Phnum S\u00e2mp\u014fu", "title": "SECOND RURAL WATER SUPPLY AND SANITATION PROJECT", "status": "Implementation", "sectors": ["Water supply and other urban infrastructure and services"]}, "type": "Feature", "geometry": {"coordinates": [103.10066, 13.02956], "type": "Point"}}, {"id": 5379, "properties": {"id": "46004-38560-022-GRNT0156", "locationName": "Phum\u012d Phk\u014f\u00e2m", "title": "SECOND RURAL WATER SUPPLY AND SANITATION PROJECT", "status": "Implementation", "sectors": ["Water supply and other urban infrastructure and services"]}, "type": "Feature", "geometry": {"coordinates": [103.12646, 13.83298], "type": "Point"}}, {"id": 5380, "properties": {"id": "46004-38560-022-GRNT0156", "locationName": "Phum\u012d O Ta Pa\u00f4ng", "title": "SECOND RURAL WATER SUPPLY AND SANITATION PROJECT", "status": "Implementation", "sectors": ["Water supply and other urban infrastructure and services"]}, "type": "Feature", "geometry": {"coordinates": [103.67077, 12.66138], "type": "Point"}}, {"id": 5381, "properties": {"id": "46004-38560-022-GRNT0156", "locationName": "Phum\u012d Ng\u00f4n", "title": "SECOND RURAL WATER SUPPLY AND SANITATION PROJECT", "status": "Implementation", "sectors": ["Water supply and other urban infrastructure and services"]}, "type": "Feature", "geometry": {"coordinates": [105.19357, 13.06685], "type": "Point"}}, {"id": 5382, "properties": {"id": "46004-38560-022-GRNT0156", "locationName": "Phum\u012d N\u0103m Tau", "title": "SECOND RURAL WATER SUPPLY AND SANITATION PROJECT", "status": "Implementation", "sectors": ["Water supply and other urban infrastructure and services"]}, "type": "Feature", "geometry": {"coordinates": [103.39833, 13.84706], "type": "Point"}}, {"id": 5383, "properties": {"id": "46004-38560-022-GRNT0156", "locationName": "Phum\u012d Kr\u00e2va", "title": "SECOND RURAL WATER SUPPLY AND SANITATION PROJECT", "status": "Implementation", "sectors": ["Water supply and other urban infrastructure and services"]}, "type": "Feature", "geometry": {"coordinates": [105.24463, 12.47562], "type": "Point"}}, {"id": 5384, "properties": {"id": "46004-38560-022-GRNT0156", "locationName": "Phum\u012d Ko\u016dk R\u00f4mi\u0115t", "title": "SECOND RURAL WATER SUPPLY AND SANITATION PROJECT", "status": "Implementation", "sectors": ["Water supply and other urban infrastructure and services"]}, "type": "Feature", "geometry": {"coordinates": [102.94465, 13.99766], "type": "Point"}}, {"id": 5385, "properties": {"id": "46004-38560-022-GRNT0156", "locationName": "Phum\u012d K\u00f4kir Thum", "title": "SECOND RURAL WATER SUPPLY AND SANITATION PROJECT", "status": "Implementation", "sectors": ["Water supply and other urban infrastructure and services"]}, "type": "Feature", "geometry": {"coordinates": [105.4, 12.46667], "type": "Point"}}, {"id": 5386, "properties": {"id": "46004-38560-022-GRNT0156", "locationName": "Phum\u012d Khvav", "title": "SECOND RURAL WATER SUPPLY AND SANITATION PROJECT", "status": "Implementation", "sectors": ["Water supply and other urban infrastructure and services"]}, "type": "Feature", "geometry": {"coordinates": [104.48213, 13.41418], "type": "Point"}}, {"id": 5387, "properties": {"id": "46004-38560-022-GRNT0156", "locationName": "Phum\u012d Kbal Trach", "title": "SECOND RURAL WATER SUPPLY AND SANITATION PROJECT", "status": "Implementation", "sectors": ["Water supply and other urban infrastructure and services"]}, "type": "Feature", "geometry": {"coordinates": [104.22309, 12.52515], "type": "Point"}}, {"id": 5388, "properties": {"id": "46004-38560-022-GRNT0156", "locationName": "Phum\u012d Don P\u00e9nh", "title": "SECOND RURAL WATER SUPPLY AND SANITATION PROJECT", "status": "Implementation", "sectors": ["Water supply and other urban infrastructure and services"]}, "type": "Feature", "geometry": {"coordinates": [103.68968, 13.75427], "type": "Point"}}, {"id": 5389, "properties": {"id": "46004-38560-022-GRNT0156", "locationName": "Phum\u012d Chikr\u00eang", "title": "SECOND RURAL WATER SUPPLY AND SANITATION PROJECT", "status": "Implementation", "sectors": ["Water supply and other urban infrastructure and services"]}, "type": "Feature", "geometry": {"coordinates": [104.30206, 13.10137], "type": "Point"}}, {"id": 5390, "properties": {"id": "46004-38560-022-GRNT0156", "locationName": "Phum\u012d Ch\u0103nt S\u00e2r Khang Cheung", "title": "SECOND RURAL WATER SUPPLY AND SANITATION PROJECT", "status": "Implementation", "sectors": ["Water supply and other urban infrastructure and services"]}, "type": "Feature", "geometry": {"coordinates": [104.08266, 13.37307], "type": "Point"}}, {"id": 5391, "properties": {"id": "46004-38560-022-GRNT0156", "locationName": "Phum\u012d B\u0153\u0306ng (1)", "title": "SECOND RURAL WATER SUPPLY AND SANITATION PROJECT", "status": "Implementation", "sectors": ["Water supply and other urban infrastructure and services"]}, "type": "Feature", "geometry": {"coordinates": [105.11928, 12.42872], "type": "Point"}}, {"id": 5392, "properties": {"id": "46004-38560-022-GRNT0156", "locationName": "Phum\u012d Bay D\u00e2mr\u0103m", "title": "SECOND RURAL WATER SUPPLY AND SANITATION PROJECT", "status": "Implementation", "sectors": ["Water supply and other urban infrastructure and services"]}, "type": "Feature", "geometry": {"coordinates": [103.16148, 12.99191], "type": "Point"}}, {"id": 5393, "properties": {"id": "46004-38560-022-GRNT0156", "locationName": "Phum\u012d Ba\u00f4s Sbov", "title": "SECOND RURAL WATER SUPPLY AND SANITATION PROJECT", "status": "Implementation", "sectors": ["Water supply and other urban infrastructure and services"]}, "type": "Feature", "geometry": {"coordinates": [103.04724, 13.67197], "type": "Point"}}, {"id": 5394, "properties": {"id": "46004-38560-022-GRNT0156", "locationName": "Phum\u012d B\u00e2nt\u00e9ay Chhmar", "title": "SECOND RURAL WATER SUPPLY AND SANITATION PROJECT", "status": "Implementation", "sectors": ["Water supply and other urban infrastructure and services"]}, "type": "Feature", "geometry": {"coordinates": [103.1062, 14.07087], "type": "Point"}}, {"id": 5395, "properties": {"id": "46004-38560-022-GRNT0156", "locationName": "Phum\u012d B\u0103k Sna Khang Kaeut", "title": "SECOND RURAL WATER SUPPLY AND SANITATION PROJECT", "status": "Implementation", "sectors": ["Water supply and other urban infrastructure and services"]}, "type": "Feature", "geometry": {"coordinates": [105.28856, 12.51729], "type": "Point"}}, {"id": 5396, "properties": {"id": "46004-38560-022-GRNT0156", "locationName": "Phum\u012d \u00c2mp\u012dl T\u0153\u0306k", "title": "SECOND RURAL WATER SUPPLY AND SANITATION PROJECT", "status": "Implementation", "sectors": ["Water supply and other urban infrastructure and services"]}, "type": "Feature", "geometry": {"coordinates": [104.82202, 11.99136], "type": "Point"}}, {"id": 5397, "properties": {"id": "46004-38560-022-GRNT0156", "locationName": "P\u00e9am Bang", "title": "SECOND RURAL WATER SUPPLY AND SANITATION PROJECT", "status": "Implementation", "sectors": ["Water supply and other urban infrastructure and services"]}, "type": "Feature", "geometry": {"coordinates": [104.25348, 12.73792], "type": "Point"}}, {"id": 5398, "properties": {"id": "46004-38560-022-GRNT0156", "locationName": "Kampong Thom", "title": "SECOND RURAL WATER SUPPLY AND SANITATION PROJECT", "status": "Implementation", "sectors": ["Water supply and other urban infrastructure and services"]}, "type": "Feature", "geometry": {"coordinates": [105.0, 12.83333], "type": "Point"}}, {"id": 5399, "properties": {"id": "46004-38560-022-GRNT0156", "locationName": "Kampong Chhnang", "title": "SECOND RURAL WATER SUPPLY AND SANITATION PROJECT", "status": "Implementation", "sectors": ["Water supply and other urban infrastructure and services"]}, "type": "Feature", "geometry": {"coordinates": [104.55, 12.16667], "type": "Point"}}, {"id": 5400, "properties": {"id": "46004-38560-022-GRNT0156", "locationName": "Banteay Meanchey", "title": "SECOND RURAL WATER SUPPLY AND SANITATION PROJECT", "status": "Implementation", "sectors": ["Water supply and other urban infrastructure and services"]}, "type": "Feature", "geometry": {"coordinates": [103.0, 13.75], "type": "Point"}}, {"id": 5401, "properties": {"id": "46004-38560-022-GRNT0156", "locationName": "Sr\u014fk Sameakki Mean Chey", "title": "SECOND RURAL WATER SUPPLY AND SANITATION PROJECT", "status": "Implementation", "sectors": ["Water supply and other urban infrastructure and services"]}, "type": "Feature", "geometry": {"coordinates": [104.55549, 11.86788], "type": "Point"}}, {"id": 5402, "properties": {"id": "46004-40555-012-GRNT0178", "locationName": "Battambang", "title": "STRENGTHENING TECHNICAL & VOCATIONAL EDUCATION & T", "status": "Implementation", "sectors": ["Education"]}, "type": "Feature", "geometry": {"coordinates": [103.08333, 12.91667], "type": "Point"}}, {"id": 5403, "properties": {"id": "46004-40555-012-GRNT0178", "locationName": "Takeo", "title": "STRENGTHENING TECHNICAL & VOCATIONAL EDUCATION & T", "status": "Implementation", "sectors": ["Education"]}, "type": "Feature", "geometry": {"coordinates": [104.83333, 10.91667], "type": "Point"}}, {"id": 5404, "properties": {"id": "46004-40555-012-GRNT0178", "locationName": "Svay Rieng", "title": "STRENGTHENING TECHNICAL & VOCATIONAL EDUCATION & T", "status": "Implementation", "sectors": ["Education"]}, "type": "Feature", "geometry": {"coordinates": [105.83333, 11.16667], "type": "Point"}}, {"id": 5405, "properties": {"id": "46004-40555-012-GRNT0178", "locationName": "Siem Reap", "title": "STRENGTHENING TECHNICAL & VOCATIONAL EDUCATION & T", "status": "Implementation", "sectors": ["Education"]}, "type": "Feature", "geometry": {"coordinates": [104.0, 13.5], "type": "Point"}}, {"id": 5406, "properties": {"id": "46004-40555-012-GRNT0178", "locationName": "Preah Vihear", "title": "STRENGTHENING TECHNICAL & VOCATIONAL EDUCATION & T", "status": "Implementation", "sectors": ["Education"]}, "type": "Feature", "geometry": {"coordinates": [105.0, 13.75], "type": "Point"}}, {"id": 5407, "properties": {"id": "46004-40555-012-GRNT0178", "locationName": "Mondolkiri", "title": "STRENGTHENING TECHNICAL & VOCATIONAL EDUCATION & T", "status": "Implementation", "sectors": ["Education"]}, "type": "Feature", "geometry": {"coordinates": [107.0, 12.75], "type": "Point"}}, {"id": 5408, "properties": {"id": "46004-40555-012-GRNT0178", "locationName": "Kampot", "title": "STRENGTHENING TECHNICAL & VOCATIONAL EDUCATION & T", "status": "Implementation", "sectors": ["Education"]}, "type": "Feature", "geometry": {"coordinates": [104.33333, 10.83333], "type": "Point"}}, {"id": 5409, "properties": {"id": "46004-40555-012-GRNT0178", "locationName": "Cambodia", "title": "STRENGTHENING TECHNICAL & VOCATIONAL EDUCATION & T", "status": "Implementation", "sectors": ["Education"]}, "type": "Feature", "geometry": {"coordinates": [105.0, 13.0], "type": "Point"}}, {"id": 5410, "properties": {"id": "46004-41435-013-GRNT0186", "locationName": "Sis\u014fph\u014fn", "title": "TONLE SAP POVERTY REDUCTION AND SMALLHOLDER DEVT P", "status": "Implementation", "sectors": ["Agriculture, natural resources and rural development"]}, "type": "Feature", "geometry": {"coordinates": [102.97369, 13.58588], "type": "Point"}}, {"id": 5411, "properties": {"id": "46004-41435-013-GRNT0186", "locationName": "Siem Reap", "title": "TONLE SAP POVERTY REDUCTION AND SMALLHOLDER DEVT P", "status": "Implementation", "sectors": ["Agriculture, natural resources and rural development"]}, "type": "Feature", "geometry": {"coordinates": [103.86056, 13.36179], "type": "Point"}}, {"id": 5412, "properties": {"id": "46004-41435-013-GRNT0186", "locationName": "Kampong Cham", "title": "TONLE SAP POVERTY REDUCTION AND SMALLHOLDER DEVT P", "status": "Implementation", "sectors": ["Agriculture, natural resources and rural development"]}, "type": "Feature", "geometry": {"coordinates": [105.4635, 11.99339], "type": "Point"}}, {"id": 5413, "properties": {"id": "46004-41435-013-GRNT0186", "locationName": "Stueng Saen", "title": "TONLE SAP POVERTY REDUCTION AND SMALLHOLDER DEVT P", "status": "Implementation", "sectors": ["Agriculture, natural resources and rural development"]}, "type": "Feature", "geometry": {"coordinates": [104.87, 12.63], "type": "Point"}}, {"id": 5414, "properties": {"id": "46004-38558-013-GRNT0220", "locationName": "O Tuk", "title": "WATER RESOURCES MANAGEMENT SECTOR DEVELOPMENT PROG", "status": "Implementation", "sectors": ["Agriculture, natural resources and rural development"]}, "type": "Feature", "geometry": {"coordinates": [103.68262, 13.28709], "type": "Point"}}, {"id": 5415, "properties": {"id": "46004-38558-013-GRNT0220", "locationName": "Siem Reap", "title": "WATER RESOURCES MANAGEMENT SECTOR DEVELOPMENT PROG", "status": "Implementation", "sectors": ["Agriculture, natural resources and rural development"]}, "type": "Feature", "geometry": {"coordinates": [104.0, 13.5], "type": "Point"}}, {"id": 5416, "properties": {"id": "46004-38558-013-GRNT0220", "locationName": "Phum\u012d Sl\u00eang Sp\u00e9an", "title": "WATER RESOURCES MANAGEMENT SECTOR DEVELOPMENT PROG", "status": "Implementation", "sectors": ["Agriculture, natural resources and rural development"]}, "type": "Feature", "geometry": {"coordinates": [103.54779, 13.86566], "type": "Point"}}, {"id": 5417, "properties": {"id": "46004-38558-013-GRNT0220", "locationName": "Phum\u012d \u00c2ngk Khmau", "title": "WATER RESOURCES MANAGEMENT SECTOR DEVELOPMENT PROG", "status": "Implementation", "sectors": ["Agriculture, natural resources and rural development"]}, "type": "Feature", "geometry": {"coordinates": [104.6443, 11.52161], "type": "Point"}}, {"id": 5418, "properties": {"id": "46004-38558-013-GRNT0220", "locationName": "O M\u00e9an", "title": "WATER RESOURCES MANAGEMENT SECTOR DEVELOPMENT PROG", "status": "Implementation", "sectors": ["Agriculture, natural resources and rural development"]}, "type": "Feature", "geometry": {"coordinates": [105.19353, 13.00808], "type": "Point"}}, {"id": 5419, "properties": {"id": "46004-38558-013-GRNT0220", "locationName": "Kampong Thom", "title": "WATER RESOURCES MANAGEMENT SECTOR DEVELOPMENT PROG", "status": "Implementation", "sectors": ["Agriculture, natural resources and rural development"]}, "type": "Feature", "geometry": {"coordinates": [105.0, 12.83333], "type": "Point"}}, {"id": 5420, "properties": {"id": "46004-38558-013-GRNT0220", "locationName": "Banteay Meanchey", "title": "WATER RESOURCES MANAGEMENT SECTOR DEVELOPMENT PROG", "status": "Implementation", "sectors": ["Agriculture, natural resources and rural development"]}, "type": "Feature", "geometry": {"coordinates": [103.0, 13.75], "type": "Point"}}, {"id": 5421, "properties": {"id": "46004-38558-013-GRNT0220", "locationName": "Prasat Pram", "title": "WATER RESOURCES MANAGEMENT SECTOR DEVELOPMENT PROG", "status": "Implementation", "sectors": ["Agriculture, natural resources and rural development"]}, "type": "Feature", "geometry": {"coordinates": [104.54493, 13.74992], "type": "Point"}}, {"id": 5422, "properties": {"id": "46004-41373-013-GRNT0221", "locationName": "Cambodia", "title": "PUBLIC FINANCIAL MANAGEMENT FOR RURAL DEVT PROGRAM", "status": "Completion", "sectors": ["Public sector management"]}, "type": "Feature", "geometry": {"coordinates": [105.0, 13.0], "type": "Point"}}, {"id": 5423, "properties": {"id": "46004-41373-013-GRNT0222", "locationName": "Cambodia", "title": "PUBLIC FINANCIAL MANAGEMENT FOR RURAL DEVT PROJECT", "status": "Implementation", "sectors": ["Public sector management"]}, "type": "Feature", "geometry": {"coordinates": [105.0, 13.0], "type": "Point"}}, {"id": 5424, "properties": {"id": "46004-38421-023-GRNT0223", "locationName": "Cambodia", "title": "PROMOTING ECONOMIC DIVERSIFICATION PROGRAM-SUBPROG", "status": "Completion", "sectors": ["Public sector management"]}, "type": "Feature", "geometry": {"coordinates": [105.0, 13.0], "type": "Point"}}, {"id": 5425, "properties": {"id": "46004-38421-023-GRNT0224", "locationName": "Cambodia", "title": "CAP DEV TO SUPPORT THE PROMOTING ECONOMIC DIVERSIF", "status": "Implementation", "sectors": ["Public sector management"]}, "type": "Feature", "geometry": {"coordinates": [105.0, 13.0], "type": "Point"}}, {"id": 5426, "properties": {"id": "46004-37041-013-LN2261", "locationName": "Phum\u012d V\u00e9al R\u00e9nh", "title": "SECOND POWER TRANSMISSION AND DISTRIBUTION PROJECT", "status": "Implementation", "sectors": ["Energy"]}, "type": "Feature", "geometry": {"coordinates": [103.81974, 10.7089], "type": "Point"}}, {"id": 5427, "properties": {"id": "46004-37041-013-LN2261", "locationName": "Kampot", "title": "SECOND POWER TRANSMISSION AND DISTRIBUTION PROJECT", "status": "Implementation", "sectors": ["Energy"]}, "type": "Feature", "geometry": {"coordinates": [104.33333, 10.83333], "type": "Point"}}, {"id": 5428, "properties": {"id": "46004-37041-013-LN2261", "locationName": "Kampot", "title": "SECOND POWER TRANSMISSION AND DISTRIBUTION PROJECT", "status": "Implementation", "sectors": ["Energy"]}, "type": "Feature", "geometry": {"coordinates": [104.18145, 10.61041], "type": "Point"}}, {"id": 5429, "properties": {"id": "46004-37041-013-LN2261", "locationName": "Kampong Saom", "title": "SECOND POWER TRANSMISSION AND DISTRIBUTION PROJECT", "status": "Implementation", "sectors": ["Energy"]}, "type": "Feature", "geometry": {"coordinates": [103.52958, 10.60932], "type": "Point"}}, {"id": 5430, "properties": {"id": "46004-37041-013-LN2261", "locationName": "Preah Sihanouk", "title": "SECOND POWER TRANSMISSION AND DISTRIBUTION PROJECT", "status": "Implementation", "sectors": ["Energy"]}, "type": "Feature", "geometry": {"coordinates": [103.75, 10.66667], "type": "Point"}}, {"id": 5431, "properties": {"id": "46004-37269-013-LN2288", "locationName": "Kampong Saom", "title": "GMS:REHABILITATION OF THE RAILWAY IN CAMBODIA PROJECT", "status": "Implementation", "sectors": ["Transport"]}, "type": "Feature", "geometry": {"coordinates": [103.52958, 10.60932], "type": "Point"}}, {"id": 5432, "properties": {"id": "46004-37269-013-LN2288", "locationName": "Kampong Chhnang", "title": "GMS:REHABILITATION OF THE RAILWAY IN CAMBODIA PROJECT", "status": "Implementation", "sectors": ["Transport"]}, "type": "Feature", "geometry": {"coordinates": [104.55, 12.16667], "type": "Point"}}, {"id": 5433, "properties": {"id": "46004-37269-013-LN2288", "locationName": "Battambang", "title": "GMS:REHABILITATION OF THE RAILWAY IN CAMBODIA PROJECT", "status": "Implementation", "sectors": ["Transport"]}, "type": "Feature", "geometry": {"coordinates": [103.19822, 13.10271], "type": "Point"}}, {"id": 5434, "properties": {"id": "46004-37269-013-LN2288", "locationName": "Kampong Chhnang", "title": "GMS:REHABILITATION OF THE RAILWAY IN CAMBODIA PROJECT", "status": "Implementation", "sectors": ["Transport"]}, "type": "Feature", "geometry": {"coordinates": [104.67, 12.26], "type": "Point"}}, {"id": 5435, "properties": {"id": "46004-37269-013-LN2288", "locationName": "Phnom Penh", "title": "GMS:REHABILITATION OF THE RAILWAY IN CAMBODIA PROJECT", "status": "Implementation", "sectors": ["Transport"]}, "type": "Feature", "geometry": {"coordinates": [104.9177, 11.5591], "type": "Point"}}, {"id": 5436, "properties": {"id": "46004-37269-013-LN2288", "locationName": "Sangkae", "title": "GMS:REHABILITATION OF THE RAILWAY IN CAMBODIA PROJECT", "status": "Implementation", "sectors": ["Transport"]}, "type": "Feature", "geometry": {"coordinates": [103.42, 13.06], "type": "Point"}}, {"id": 5437, "properties": {"id": "46004-37269-013-LN2288", "locationName": "Moung Ruessei", "title": "GMS:REHABILITATION OF THE RAILWAY IN CAMBODIA PROJECT", "status": "Implementation", "sectors": ["Transport"]}, "type": "Feature", "geometry": {"coordinates": [103.42, 12.78], "type": "Point"}}, {"id": 5438, "properties": {"id": "46004-37269-013-LN2288", "locationName": "Bakan", "title": "GMS:REHABILITATION OF THE RAILWAY IN CAMBODIA PROJECT", "status": "Implementation", "sectors": ["Transport"]}, "type": "Feature", "geometry": {"coordinates": [103.79, 12.78], "type": "Point"}}, {"id": 5439, "properties": {"id": "46004-37269-013-LN2288", "locationName": "Krakor", "title": "GMS:REHABILITATION OF THE RAILWAY IN CAMBODIA PROJECT", "status": "Implementation", "sectors": ["Transport"]}, "type": "Feature", "geometry": {"coordinates": [104.19, 12.48], "type": "Point"}}, {"id": 5440, "properties": {"id": "46004-37269-013-LN2288", "locationName": "Sr\u014fk Thm\u00e2 Ko\u016dl", "title": "GMS:REHABILITATION OF THE RAILWAY IN CAMBODIA PROJECT", "status": "Implementation", "sectors": ["Transport"]}, "type": "Feature", "geometry": {"coordinates": [103.09541, 13.27774], "type": "Point"}}, {"id": 5441, "properties": {"id": "46004-37269-013-LN2288", "locationName": "Sr\u014fk St\u0153\u0306ng Hav", "title": "GMS:REHABILITATION OF THE RAILWAY IN CAMBODIA PROJECT", "status": "Implementation", "sectors": ["Transport"]}, "type": "Feature", "geometry": {"coordinates": [103.74016, 10.85249], "type": "Point"}}, {"id": 5442, "properties": {"id": "46004-37269-013-LN2288", "locationName": "Ou Chrov District", "title": "GMS:REHABILITATION OF THE RAILWAY IN CAMBODIA PROJECT", "status": "Implementation", "sectors": ["Transport"]}, "type": "Feature", "geometry": {"coordinates": [102.60956, 13.64699], "type": "Point"}}, {"id": 5443, "properties": {"id": "46004-37269-013-LN2288", "locationName": "Serei Saophoan", "title": "GMS:REHABILITATION OF THE RAILWAY IN CAMBODIA PROJECT", "status": "Implementation", "sectors": ["Transport"]}, "type": "Feature", "geometry": {"coordinates": [103.01265, 13.63849], "type": "Point"}}, {"id": 5444, "properties": {"id": "46004-37269-013-LN2288", "locationName": "Mittakpheap District", "title": "GMS:REHABILITATION OF THE RAILWAY IN CAMBODIA PROJECT", "status": "Implementation", "sectors": ["Transport"]}, "type": "Feature", "geometry": {"coordinates": [103.53108, 10.62483], "type": "Point"}}, {"id": 5445, "properties": {"id": "46004-37269-013-LN2288", "locationName": "Phnom Penh", "title": "GMS:REHABILITATION OF THE RAILWAY IN CAMBODIA PROJECT", "status": "Implementation", "sectors": ["Transport"]}, "type": "Feature", "geometry": {"coordinates": [104.91601, 11.56245], "type": "Point"}}, {"id": 5446, "properties": {"id": "46004-37269-013-LN2288", "locationName": "Tuk M\u00e9as", "title": "GMS:REHABILITATION OF THE RAILWAY IN CAMBODIA PROJECT", "status": "Implementation", "sectors": ["Transport"]}, "type": "Feature", "geometry": {"coordinates": [104.56094, 10.6664], "type": "Point"}}, {"id": 5447, "properties": {"id": "46004-37269-013-LN2288", "locationName": "Sr\u014fk T\u0153\u0306k Ph\u014fs", "title": "GMS:REHABILITATION OF THE RAILWAY IN CAMBODIA PROJECT", "status": "Implementation", "sectors": ["Transport"]}, "type": "Feature", "geometry": {"coordinates": [104.33333, 12.08333], "type": "Point"}}, {"id": 5448, "properties": {"id": "46004-37269-013-LN2288", "locationName": "Tani", "title": "GMS:REHABILITATION OF THE RAILWAY IN CAMBODIA PROJECT", "status": "Implementation", "sectors": ["Transport"]}, "type": "Feature", "geometry": {"coordinates": [104.66239, 10.77398], "type": "Point"}}, {"id": 5449, "properties": {"id": "46004-37269-013-LN2288", "locationName": "Takeo", "title": "GMS:REHABILITATION OF THE RAILWAY IN CAMBODIA PROJECT", "status": "Implementation", "sectors": ["Transport"]}, "type": "Feature", "geometry": {"coordinates": [104.83333, 10.91667], "type": "Point"}}, {"id": 5450, "properties": {"id": "46004-37269-013-LN2288", "locationName": "Takeo", "title": "GMS:REHABILITATION OF THE RAILWAY IN CAMBODIA PROJECT", "status": "Implementation", "sectors": ["Transport"]}, "type": "Feature", "geometry": {"coordinates": [104.78498, 10.99081], "type": "Point"}}, {"id": 5451, "properties": {"id": "46004-37269-013-LN2288", "locationName": "Sis\u014fph\u014fn", "title": "GMS:REHABILITATION OF THE RAILWAY IN CAMBODIA PROJECT", "status": "Implementation", "sectors": ["Transport"]}, "type": "Feature", "geometry": {"coordinates": [102.97369, 13.58588], "type": "Point"}}, {"id": 5452, "properties": {"id": "46004-37269-013-LN2288", "locationName": "Pursat", "title": "GMS:REHABILITATION OF THE RAILWAY IN CAMBODIA PROJECT", "status": "Implementation", "sectors": ["Transport"]}, "type": "Feature", "geometry": {"coordinates": [103.9192, 12.53878], "type": "Point"}}, {"id": 5453, "properties": {"id": "46004-37269-013-LN2288", "locationName": "Phum\u012d V\u00e9al Sr\u00ea", "title": "GMS:REHABILITATION OF THE RAILWAY IN CAMBODIA PROJECT", "status": "Implementation", "sectors": ["Transport"]}, "type": "Feature", "geometry": {"coordinates": [104.77828, 10.98081], "type": "Point"}}, {"id": 5454, "properties": {"id": "46004-37269-013-LN2288", "locationName": "Phum\u012d Sd\u014fk", "title": "GMS:REHABILITATION OF THE RAILWAY IN CAMBODIA PROJECT", "status": "Implementation", "sectors": ["Transport"]}, "type": "Feature", "geometry": {"coordinates": [104.62602, 11.23362], "type": "Point"}}, {"id": 5455, "properties": {"id": "46004-37269-013-LN2288", "locationName": "Phnom Penh", "title": "GMS:REHABILITATION OF THE RAILWAY IN CAMBODIA PROJECT", "status": "Implementation", "sectors": ["Transport"]}, "type": "Feature", "geometry": {"coordinates": [104.91394, 11.57489], "type": "Point"}}, {"id": 5456, "properties": {"id": "46004-37269-013-LN2288", "locationName": "Pa\u00f4y P\u00eat", "title": "GMS:REHABILITATION OF THE RAILWAY IN CAMBODIA PROJECT", "status": "Implementation", "sectors": ["Transport"]}, "type": "Feature", "geometry": {"coordinates": [102.5625, 13.65611], "type": "Point"}}, {"id": 5457, "properties": {"id": "46004-37269-013-LN2288", "locationName": "Mo\u016dng R\u0153ssei", "title": "GMS:REHABILITATION OF THE RAILWAY IN CAMBODIA PROJECT", "status": "Implementation", "sectors": ["Transport"]}, "type": "Feature", "geometry": {"coordinates": [103.44896, 12.77316], "type": "Point"}}, {"id": 5458, "properties": {"id": "46004-37269-013-LN2288", "locationName": "Sr\u014fk M\u00f4ngk\u00f3l Borei", "title": "GMS:REHABILITATION OF THE RAILWAY IN CAMBODIA PROJECT", "status": "Implementation", "sectors": ["Transport"]}, "type": "Feature", "geometry": {"coordinates": [103.16667, 13.46667], "type": "Point"}}, {"id": 5459, "properties": {"id": "46004-37269-013-LN2288", "locationName": "Krong Kep", "title": "GMS:REHABILITATION OF THE RAILWAY IN CAMBODIA PROJECT", "status": "Implementation", "sectors": ["Transport"]}, "type": "Feature", "geometry": {"coordinates": [104.31672, 10.4829], "type": "Point"}}, {"id": 5460, "properties": {"id": "46004-37269-013-LN2288", "locationName": "Kandal", "title": "GMS:REHABILITATION OF THE RAILWAY IN CAMBODIA PROJECT", "status": "Implementation", "sectors": ["Transport"]}, "type": "Feature", "geometry": {"coordinates": [105.0, 11.41667], "type": "Point"}}, {"id": 5461, "properties": {"id": "46004-37269-013-LN2288", "locationName": "Kampot", "title": "GMS:REHABILITATION OF THE RAILWAY IN CAMBODIA PROJECT", "status": "Implementation", "sectors": ["Transport"]}, "type": "Feature", "geometry": {"coordinates": [104.33333, 10.83333], "type": "Point"}}, {"id": 5462, "properties": {"id": "46004-37269-013-LN2288", "locationName": "Kampot", "title": "GMS:REHABILITATION OF THE RAILWAY IN CAMBODIA PROJECT", "status": "Implementation", "sectors": ["Transport"]}, "type": "Feature", "geometry": {"coordinates": [104.18145, 10.61041], "type": "Point"}}, {"id": 5463, "properties": {"id": "46004-37269-013-LN2288", "locationName": "Kampong Speu", "title": "GMS:REHABILITATION OF THE RAILWAY IN CAMBODIA PROJECT", "status": "Implementation", "sectors": ["Transport"]}, "type": "Feature", "geometry": {"coordinates": [104.33333, 11.5], "type": "Point"}}, {"id": 5464, "properties": {"id": "46004-41505-012-GRNT0231", "locationName": "T\u1ec9nh Ngh\u1ec7 An", "title": "SECOND GMS REGIONAL COMMUNICABLE DISEASES CONTROL", "status": "Implementation", "sectors": ["Health"]}, "type": "Feature", "geometry": {"coordinates": [104.91667, 19.25], "type": "Point"}}, {"id": 5465, "properties": {"id": "46004-41505-012-GRNT0231", "locationName": "T\u1ec9nh Tr\u00e0 Vinh", "title": "SECOND GMS REGIONAL COMMUNICABLE DISEASES CONTROL", "status": "Implementation", "sectors": ["Health"]}, "type": "Feature", "geometry": {"coordinates": [106.3, 9.8], "type": "Point"}}, {"id": 5466, "properties": {"id": "46004-41505-012-GRNT0231", "locationName": "T\u1ec9nh L\u00e0o Cai", "title": "SECOND GMS REGIONAL COMMUNICABLE DISEASES CONTROL", "status": "Implementation", "sectors": ["Health"]}, "type": "Feature", "geometry": {"coordinates": [104.16667, 22.3], "type": "Point"}}, {"id": 5467, "properties": {"id": "46004-41505-012-GRNT0231", "locationName": "T\u1ec9nh Thanh H\u00f3a", "title": "SECOND GMS REGIONAL COMMUNICABLE DISEASES CONTROL", "status": "Implementation", "sectors": ["Health"]}, "type": "Feature", "geometry": {"coordinates": [105.33333, 20.06667], "type": "Point"}}, {"id": 5468, "properties": {"id": "46004-41505-012-GRNT0231", "locationName": "T\u1ec9nh T\u00e2y Ninh", "title": "SECOND GMS REGIONAL COMMUNICABLE DISEASES CONTROL", "status": "Implementation", "sectors": ["Health"]}, "type": "Feature", "geometry": {"coordinates": [106.16667, 11.33333], "type": "Point"}}, {"id": 5469, "properties": {"id": "46004-41505-012-GRNT0231", "locationName": "T\u1ec9nh S\u01a1n La", "title": "SECOND GMS REGIONAL COMMUNICABLE DISEASES CONTROL", "status": "Implementation", "sectors": ["Health"]}, "type": "Feature", "geometry": {"coordinates": [104.0, 21.16667], "type": "Point"}}, {"id": 5470, "properties": {"id": "46004-41505-012-GRNT0231", "locationName": "T\u1ec9nh Qu\u1ea3ng Tr\u1ecb", "title": "SECOND GMS REGIONAL COMMUNICABLE DISEASES CONTROL", "status": "Implementation", "sectors": ["Health"]}, "type": "Feature", "geometry": {"coordinates": [107.0, 16.75], "type": "Point"}}, {"id": 5471, "properties": {"id": "46004-41505-012-GRNT0231", "locationName": "T\u1ec9nh Qu\u1ea3ng B\u00ecnh", "title": "SECOND GMS REGIONAL COMMUNICABLE DISEASES CONTROL", "status": "Implementation", "sectors": ["Health"]}, "type": "Feature", "geometry": {"coordinates": [106.33333, 17.5], "type": "Point"}}, {"id": 5472, "properties": {"id": "46004-41505-012-GRNT0231", "locationName": "Long An", "title": "SECOND GMS REGIONAL COMMUNICABLE DISEASES CONTROL", "status": "Implementation", "sectors": ["Health"]}, "type": "Feature", "geometry": {"coordinates": [106.16667, 10.7], "type": "Point"}}, {"id": 5473, "properties": {"id": "46004-41505-012-GRNT0231", "locationName": "T\u1ec9nh Ki\u1ebfn Giang", "title": "SECOND GMS REGIONAL COMMUNICABLE DISEASES CONTROL", "status": "Implementation", "sectors": ["Health"]}, "type": "Feature", "geometry": {"coordinates": [105.16667, 10.0], "type": "Point"}}, {"id": 5474, "properties": {"id": "46004-41505-012-GRNT0231", "locationName": "T\u1ec9nh H\u00e0 T\u0129nh", "title": "SECOND GMS REGIONAL COMMUNICABLE DISEASES CONTROL", "status": "Implementation", "sectors": ["Health"]}, "type": "Feature", "geometry": {"coordinates": [105.75, 18.33333], "type": "Point"}}, {"id": 5475, "properties": {"id": "46004-41505-012-GRNT0231", "locationName": "Th\u00e0nh Ph\u1ed1 H\u00e0 N\u1ed9i", "title": "SECOND GMS REGIONAL COMMUNICABLE DISEASES CONTROL", "status": "Implementation", "sectors": ["Health"]}, "type": "Feature", "geometry": {"coordinates": [105.75, 21.0], "type": "Point"}}, {"id": 5476, "properties": {"id": "46004-41505-012-GRNT0231", "locationName": "Th\u00e0nh Ph\u1ed1 C\u1ea7n Th\u01a1", "title": "SECOND GMS REGIONAL COMMUNICABLE DISEASES CONTROL", "status": "Implementation", "sectors": ["Health"]}, "type": "Feature", "geometry": {"coordinates": [105.5, 10.11667], "type": "Point"}}, {"id": 5477, "properties": {"id": "46004-41505-012-GRNT0231", "locationName": "T\u1ec9nh \u0110\u1ed3ng Th\u00e1p", "title": "SECOND GMS REGIONAL COMMUNICABLE DISEASES CONTROL", "status": "Implementation", "sectors": ["Health"]}, "type": "Feature", "geometry": {"coordinates": [105.63333, 10.58333], "type": "Point"}}, {"id": 5478, "properties": {"id": "46004-41505-012-GRNT0231", "locationName": "T\u1ec9nh \u0110\u1eafk L\u1eafk", "title": "SECOND GMS REGIONAL COMMUNICABLE DISEASES CONTROL", "status": "Implementation", "sectors": ["Health"]}, "type": "Feature", "geometry": {"coordinates": [108.25, 12.75], "type": "Point"}}, {"id": 5479, "properties": {"id": "46004-41505-012-GRNT0231", "locationName": "T\u1ec9nh B\u1ebfn Tre", "title": "SECOND GMS REGIONAL COMMUNICABLE DISEASES CONTROL", "status": "Implementation", "sectors": ["Health"]}, "type": "Feature", "geometry": {"coordinates": [106.5, 10.16667], "type": "Point"}}, {"id": 5480, "properties": {"id": "46004-41505-012-GRNT0231", "locationName": "An Giang", "title": "SECOND GMS REGIONAL COMMUNICABLE DISEASES CONTROL", "status": "Implementation", "sectors": ["Health"]}, "type": "Feature", "geometry": {"coordinates": [105.16667, 10.5], "type": "Point"}}, {"id": 5481, "properties": {"id": "46004-41505-012-GRNT0231", "locationName": "Xiangkhouang", "title": "SECOND GMS REGIONAL COMMUNICABLE DISEASES CONTROL", "status": "Implementation", "sectors": ["Health"]}, "type": "Feature", "geometry": {"coordinates": [103.5, 19.41667], "type": "Point"}}, {"id": 5482, "properties": {"id": "46004-41505-012-GRNT0231", "locationName": "Salavan", "title": "SECOND GMS REGIONAL COMMUNICABLE DISEASES CONTROL", "status": "Implementation", "sectors": ["Health"]}, "type": "Feature", "geometry": {"coordinates": [106.25, 15.75], "type": "Point"}}, {"id": 5483, "properties": {"id": "46004-41505-012-GRNT0231", "locationName": "Khoueng Phongsali", "title": "SECOND GMS REGIONAL COMMUNICABLE DISEASES CONTROL", "status": "Implementation", "sectors": ["Health"]}, "type": "Feature", "geometry": {"coordinates": [102.33333, 21.75], "type": "Point"}}, {"id": 5484, "properties": {"id": "46004-41505-012-GRNT0231", "locationName": "Khoueng Oudomxai", "title": "SECOND GMS REGIONAL COMMUNICABLE DISEASES CONTROL", "status": "Implementation", "sectors": ["Health"]}, "type": "Feature", "geometry": {"coordinates": [101.5, 20.16667], "type": "Point"}}, {"id": 5485, "properties": {"id": "46004-41505-012-GRNT0231", "locationName": "Louangnamtha", "title": "SECOND GMS REGIONAL COMMUNICABLE DISEASES CONTROL", "status": "Implementation", "sectors": ["Health"]}, "type": "Feature", "geometry": {"coordinates": [101.33333, 20.91667], "type": "Point"}}, {"id": 5486, "properties": {"id": "46004-41505-012-GRNT0231", "locationName": "Khammouan", "title": "SECOND GMS REGIONAL COMMUNICABLE DISEASES CONTROL", "status": "Implementation", "sectors": ["Health"]}, "type": "Feature", "geometry": {"coordinates": [105.33333, 17.5], "type": "Point"}}, {"id": 5487, "properties": {"id": "46004-41505-012-GRNT0231", "locationName": "Houaphan", "title": "SECOND GMS REGIONAL COMMUNICABLE DISEASES CONTROL", "status": "Implementation", "sectors": ["Health"]}, "type": "Feature", "geometry": {"coordinates": [104.0, 20.5], "type": "Point"}}, {"id": 5488, "properties": {"id": "46004-41505-012-GRNT0231", "locationName": "Champasak", "title": "SECOND GMS REGIONAL COMMUNICABLE DISEASES CONTROL", "status": "Implementation", "sectors": ["Health"]}, "type": "Feature", "geometry": {"coordinates": [106.0, 14.75], "type": "Point"}}, {"id": 5489, "properties": {"id": "46004-41505-012-GRNT0231", "locationName": "Attapu", "title": "SECOND GMS REGIONAL COMMUNICABLE DISEASES CONTROL", "status": "Implementation", "sectors": ["Health"]}, "type": "Feature", "geometry": {"coordinates": [107.0, 14.66667], "type": "Point"}}, {"id": 5490, "properties": {"id": "46004-41505-012-GRNT0231", "locationName": "Takeo", "title": "SECOND GMS REGIONAL COMMUNICABLE DISEASES CONTROL", "status": "Implementation", "sectors": ["Health"]}, "type": "Feature", "geometry": {"coordinates": [104.83333, 10.91667], "type": "Point"}}, {"id": 5491, "properties": {"id": "46004-41505-012-GRNT0231", "locationName": "Svay Rieng", "title": "SECOND GMS REGIONAL COMMUNICABLE DISEASES CONTROL", "status": "Implementation", "sectors": ["Health"]}, "type": "Feature", "geometry": {"coordinates": [105.83333, 11.16667], "type": "Point"}}, {"id": 5492, "properties": {"id": "46004-41505-012-GRNT0231", "locationName": "Stung Treng", "title": "SECOND GMS REGIONAL COMMUNICABLE DISEASES CONTROL", "status": "Implementation", "sectors": ["Health"]}, "type": "Feature", "geometry": {"coordinates": [105.9683, 13.52586], "type": "Point"}}, {"id": 5493, "properties": {"id": "46004-41505-012-GRNT0231", "locationName": "Ratanakiri", "title": "SECOND GMS REGIONAL COMMUNICABLE DISEASES CONTROL", "status": "Implementation", "sectors": ["Health"]}, "type": "Feature", "geometry": {"coordinates": [107.11667, 13.83333], "type": "Point"}}, {"id": 5494, "properties": {"id": "46004-41505-012-GRNT0231", "locationName": "Prey Veng", "title": "SECOND GMS REGIONAL COMMUNICABLE DISEASES CONTROL", "status": "Implementation", "sectors": ["Health"]}, "type": "Feature", "geometry": {"coordinates": [105.46667, 11.36667], "type": "Point"}}, {"id": 5495, "properties": {"id": "46004-41505-012-GRNT0231", "locationName": "Mondolkiri", "title": "SECOND GMS REGIONAL COMMUNICABLE DISEASES CONTROL", "status": "Implementation", "sectors": ["Health"]}, "type": "Feature", "geometry": {"coordinates": [107.0, 12.75], "type": "Point"}}, {"id": 5496, "properties": {"id": "46004-41505-012-GRNT0231", "locationName": "Kratie", "title": "SECOND GMS REGIONAL COMMUNICABLE DISEASES CONTROL", "status": "Implementation", "sectors": ["Health"]}, "type": "Feature", "geometry": {"coordinates": [106.08333, 12.66667], "type": "Point"}}, {"id": 5497, "properties": {"id": "46004-41505-012-GRNT0231", "locationName": "Kandal", "title": "SECOND GMS REGIONAL COMMUNICABLE DISEASES CONTROL", "status": "Implementation", "sectors": ["Health"]}, "type": "Feature", "geometry": {"coordinates": [105.0, 11.41667], "type": "Point"}}, {"id": 5498, "properties": {"id": "46004-41505-012-GRNT0231", "locationName": "Kampot", "title": "SECOND GMS REGIONAL COMMUNICABLE DISEASES CONTROL", "status": "Implementation", "sectors": ["Health"]}, "type": "Feature", "geometry": {"coordinates": [104.33333, 10.83333], "type": "Point"}}, {"id": 5499, "properties": {"id": "46004-41505-012-GRNT0231", "locationName": "Kampong Cham", "title": "SECOND GMS REGIONAL COMMUNICABLE DISEASES CONTROL", "status": "Implementation", "sectors": ["Health"]}, "type": "Feature", "geometry": {"coordinates": [105.58333, 12.08333], "type": "Point"}}, {"id": 5500, "properties": {"id": "46004-41505-012-GRNT0231", "locationName": "Khoueng Xekong", "title": "SECOND GMS REGIONAL COMMUNICABLE DISEASES CONTROL", "status": "Implementation", "sectors": ["Health"]}, "type": "Feature", "geometry": {"coordinates": [107.0, 15.5], "type": "Point"}}, {"id": 5501, "properties": {"id": "46004-41505-012-GRNT0231", "locationName": "Khoueng Bokeo", "title": "SECOND GMS REGIONAL COMMUNICABLE DISEASES CONTROL", "status": "Implementation", "sectors": ["Health"]}, "type": "Feature", "geometry": {"coordinates": [100.5, 20.5], "type": "Point"}}, {"id": 5502, "properties": {"id": "46004-41505-012-GRNT0231", "locationName": "Bolikhamxai", "title": "SECOND GMS REGIONAL COMMUNICABLE DISEASES CONTROL", "status": "Implementation", "sectors": ["Health"]}, "type": "Feature", "geometry": {"coordinates": [104.33333, 18.5], "type": "Point"}}, {"id": 5503, "properties": {"id": "46004-41505-012-GRNT0231", "locationName": "\u00d0\u1eafk N\u00f4ng", "title": "SECOND GMS REGIONAL COMMUNICABLE DISEASES CONTROL", "status": "Implementation", "sectors": ["Health"]}, "type": "Feature", "geometry": {"coordinates": [107.75, 12.16667], "type": "Point"}}, {"id": 5504, "properties": {"id": "46004-41505-012-GRNT0231", "locationName": "Huy\u1ec7n \u00d0i\u1ec7n Bi\u00ean", "title": "SECOND GMS REGIONAL COMMUNICABLE DISEASES CONTROL", "status": "Implementation", "sectors": ["Health"]}, "type": "Feature", "geometry": {"coordinates": [102.93333, 21.33333], "type": "Point"}}, {"id": 5505, "properties": {"id": "46004-41505-012-GRNT0231", "locationName": "T\u1ec9nh B\u00ecnh Ph\u01b0\u1edbc", "title": "SECOND GMS REGIONAL COMMUNICABLE DISEASES CONTROL", "status": "Implementation", "sectors": ["Health"]}, "type": "Feature", "geometry": {"coordinates": [106.91667, 11.75], "type": "Point"}}, {"id": 5506, "properties": {"id": "46004-36353-013-LN2373", "locationName": "Phum\u012d Pr\u00eak Chak", "title": "GREATER MEKONG & SUBREGION SOUTHERN COASTAL CORRIDOR PROJECT", "status": "Implementation", "sectors": ["Transport"]}, "type": "Feature", "geometry": {"coordinates": [104.44904, 10.43269], "type": "Point"}}, {"id": 5507, "properties": {"id": "46004-36353-013-LN2373", "locationName": "Sr\u014fk K\u00e2mp\u00f4t", "title": "GREATER MEKONG & SUBREGION SOUTHERN COASTAL CORRIDOR PROJECT", "status": "Implementation", "sectors": ["Transport"]}, "type": "Feature", "geometry": {"coordinates": [104.16667, 10.66667], "type": "Point"}}, {"id": 5508, "properties": {"id": "46004-36353-013-LN2373", "locationName": "Kampot", "title": "GREATER MEKONG & SUBREGION SOUTHERN COASTAL CORRIDOR PROJECT", "status": "Implementation", "sectors": ["Transport"]}, "type": "Feature", "geometry": {"coordinates": [104.18145, 10.61041], "type": "Point"}}, {"id": 5509, "properties": {"id": "46004-36353-013-LN2373", "locationName": "Sr\u014fk K\u00e2mp\u00f3ng Trach", "title": "GREATER MEKONG & SUBREGION SOUTHERN COASTAL CORRIDOR PROJECT", "status": "Implementation", "sectors": ["Transport"]}, "type": "Feature", "geometry": {"coordinates": [104.58333, 10.58333], "type": "Point"}}, {"id": 5510, "properties": {"id": "46004-36353-013-LN2373", "locationName": "K\u00e2mp\u00f3ng Trach", "title": "GREATER MEKONG & SUBREGION SOUTHERN COASTAL CORRIDOR PROJECT", "status": "Implementation", "sectors": ["Transport"]}, "type": "Feature", "geometry": {"coordinates": [104.46736, 10.55876], "type": "Point"}}, {"id": 5511, "properties": {"id": "46004-36353-013-LN2373", "locationName": "Huy\u1ec7n An Bi\u00ean", "title": "GREATER MEKONG & SUBREGION SOUTHERN COASTAL CORRIDOR PROJECT", "status": "Implementation", "sectors": ["Transport"]}, "type": "Feature", "geometry": {"coordinates": [105.08333, 9.83333], "type": "Point"}}, {"id": 5512, "properties": {"id": "46004-36353-013-LN2373", "locationName": "Huy\u1ec7n An Minh", "title": "GREATER MEKONG & SUBREGION SOUTHERN COASTAL CORRIDOR PROJECT", "status": "Implementation", "sectors": ["Transport"]}, "type": "Feature", "geometry": {"coordinates": [105.0, 9.66667], "type": "Point"}}, {"id": 5513, "properties": {"id": "46004-36353-013-LN2373", "locationName": "T\u1ec9nh C\u00e0 Mau", "title": "GREATER MEKONG & SUBREGION SOUTHERN COASTAL CORRIDOR PROJECT", "status": "Implementation", "sectors": ["Transport"]}, "type": "Feature", "geometry": {"coordinates": [105.08333, 9.08333], "type": "Point"}}, {"id": 5514, "properties": {"id": "46004-36353-013-LN2373", "locationName": "Huy\u1ec7n Th\u1edbi B\u00ecnh", "title": "GREATER MEKONG & SUBREGION SOUTHERN COASTAL CORRIDOR PROJECT", "status": "Implementation", "sectors": ["Transport"]}, "type": "Feature", "geometry": {"coordinates": [105.16667, 9.41667], "type": "Point"}}, {"id": 5515, "properties": {"id": "46004-36353-013-LN2373", "locationName": "Kampong Bay", "title": "GREATER MEKONG & SUBREGION SOUTHERN COASTAL CORRIDOR PROJECT", "status": "Implementation", "sectors": ["Transport"]}, "type": "Feature", "geometry": {"coordinates": [104.16667, 10.6], "type": "Point"}}, {"id": 5516, "properties": {"id": "46004-36353-013-LN2373", "locationName": "Kampong Tranch", "title": "GREATER MEKONG & SUBREGION SOUTHERN COASTAL CORRIDOR PROJECT", "status": "Implementation", "sectors": ["Transport"]}, "type": "Feature", "geometry": {"coordinates": [104.46667, 10.55], "type": "Point"}}, {"id": 5517, "properties": {"id": "46004-36353-013-LN2373", "locationName": "Banteay Meas", "title": "GREATER MEKONG & SUBREGION SOUTHERN COASTAL CORRIDOR PROJECT", "status": "Implementation", "sectors": ["Transport"]}, "type": "Feature", "geometry": {"coordinates": [104.53333, 10.61667], "type": "Point"}}, {"id": 5518, "properties": {"id": "46004-36353-013-LN2373", "locationName": "X\u00f3m Xa X\u00eda", "title": "GREATER MEKONG & SUBREGION SOUTHERN COASTAL CORRIDOR PROJECT", "status": "Implementation", "sectors": ["Transport"]}, "type": "Feature", "geometry": {"coordinates": [104.45, 10.41667], "type": "Point"}}, {"id": 5519, "properties": {"id": "46004-36353-013-LN2373", "locationName": "Th\u1edbi B\u00ecnh", "title": "GREATER MEKONG & SUBREGION SOUTHERN COASTAL CORRIDOR PROJECT", "status": "Implementation", "sectors": ["Transport"]}, "type": "Feature", "geometry": {"coordinates": [105.08389, 9.35083], "type": "Point"}}, {"id": 5520, "properties": {"id": "46004-36353-013-LN2373", "locationName": "T\u1ec9nh Ki\u1ebfn Giang", "title": "GREATER MEKONG & SUBREGION SOUTHERN COASTAL CORRIDOR PROJECT", "status": "Implementation", "sectors": ["Transport"]}, "type": "Feature", "geometry": {"coordinates": [105.16667, 10.0], "type": "Point"}}, {"id": 5521, "properties": {"id": "46004-36353-013-LN2373", "locationName": "Ki\u00ean An", "title": "GREATER MEKONG & SUBREGION SOUTHERN COASTAL CORRIDOR PROJECT", "status": "Implementation", "sectors": ["Transport"]}, "type": "Feature", "geometry": {"coordinates": [105.11222, 9.86194], "type": "Point"}}, {"id": 5522, "properties": {"id": "46004-36353-013-LN2373", "locationName": "H\u00e0 Ti\u00ean", "title": "GREATER MEKONG & SUBREGION SOUTHERN COASTAL CORRIDOR PROJECT", "status": "Implementation", "sectors": ["Transport"]}, "type": "Feature", "geometry": {"coordinates": [104.48333, 10.38333], "type": "Point"}}, {"id": 5523, "properties": {"id": "46004-36353-013-LN2373", "locationName": "C\u00e0 Mau", "title": "GREATER MEKONG & SUBREGION SOUTHERN COASTAL CORRIDOR PROJECT", "status": "Implementation", "sectors": ["Transport"]}, "type": "Feature", "geometry": {"coordinates": [105.15, 9.17694], "type": "Point"}}, {"id": 5524, "properties": {"id": "46004-36353-013-LN2373", "locationName": "An Bi\u00ean", "title": "GREATER MEKONG & SUBREGION SOUTHERN COASTAL CORRIDOR PROJECT", "status": "Implementation", "sectors": ["Transport"]}, "type": "Feature", "geometry": {"coordinates": [105.025, 9.76944], "type": "Point"}}, {"id": 5525, "properties": {"id": "46004-37287-013-LN2376", "locationName": "Pursat", "title": "TONLE SAP LOWLANDS RURAL DEVELOPMENT PROJECT", "status": "Implementation", "sectors": ["Agriculture, natural resources and rural development"]}, "type": "Feature", "geometry": {"coordinates": [103.66667, 12.33333], "type": "Point"}}, {"id": 5526, "properties": {"id": "46004-37287-013-LN2376", "locationName": "Phum\u012d Tr\u0103ng Traeu", "title": "TONLE SAP LOWLANDS RURAL DEVELOPMENT PROJECT", "status": "Implementation", "sectors": ["Agriculture, natural resources and rural development"]}, "type": "Feature", "geometry": {"coordinates": [105.09993, 12.23852], "type": "Point"}}, {"id": 5527, "properties": {"id": "46004-37287-013-LN2376", "locationName": "Phum\u012d Ruml\u00e9ch", "title": "TONLE SAP LOWLANDS RURAL DEVELOPMENT PROJECT", "status": "Implementation", "sectors": ["Agriculture, natural resources and rural development"]}, "type": "Feature", "geometry": {"coordinates": [103.69622, 12.6], "type": "Point"}}, {"id": 5528, "properties": {"id": "46004-37287-013-LN2376", "locationName": "Phum\u012d Pr\u00eak K\u00f4nl\u00f4ng", "title": "TONLE SAP LOWLANDS RURAL DEVELOPMENT PROJECT", "status": "Implementation", "sectors": ["Agriculture, natural resources and rural development"]}, "type": "Feature", "geometry": {"coordinates": [104.7998, 11.92482], "type": "Point"}}, {"id": 5529, "properties": {"id": "46004-37287-013-LN2376", "locationName": "Phum\u012d Pr\u00e2sat", "title": "TONLE SAP LOWLANDS RURAL DEVELOPMENT PROJECT", "status": "Implementation", "sectors": ["Agriculture, natural resources and rural development"]}, "type": "Feature", "geometry": {"coordinates": [104.71536, 12.79025], "type": "Point"}}, {"id": 5530, "properties": {"id": "46004-37287-013-LN2376", "locationName": "Phum\u012d Phsar", "title": "TONLE SAP LOWLANDS RURAL DEVELOPMENT PROJECT", "status": "Implementation", "sectors": ["Agriculture, natural resources and rural development"]}, "type": "Feature", "geometry": {"coordinates": [104.48621, 12.38196], "type": "Point"}}, {"id": 5531, "properties": {"id": "46004-37287-013-LN2376", "locationName": "Phum\u012d Kr\u00e2s\u0103ng", "title": "TONLE SAP LOWLANDS RURAL DEVELOPMENT PROJECT", "status": "Implementation", "sectors": ["Agriculture, natural resources and rural development"]}, "type": "Feature", "geometry": {"coordinates": [104.65712, 12.82398], "type": "Point"}}, {"id": 5532, "properties": {"id": "46004-37287-013-LN2376", "locationName": "Phum\u012d Kb\u0115l", "title": "TONLE SAP LOWLANDS RURAL DEVELOPMENT PROJECT", "status": "Implementation", "sectors": ["Agriculture, natural resources and rural development"]}, "type": "Feature", "geometry": {"coordinates": [104.69931, 12.81421], "type": "Point"}}, {"id": 5533, "properties": {"id": "46004-37287-013-LN2376", "locationName": "Phum\u012d K\u00e2mpr\u00f4ng", "title": "TONLE SAP LOWLANDS RURAL DEVELOPMENT PROJECT", "status": "Implementation", "sectors": ["Agriculture, natural resources and rural development"]}, "type": "Feature", "geometry": {"coordinates": [104.48034, 12.39864], "type": "Point"}}, {"id": 5534, "properties": {"id": "46004-37287-013-LN2376", "locationName": "Phum\u012d K\u00e2mpr\u00e9al", "title": "TONLE SAP LOWLANDS RURAL DEVELOPMENT PROJECT", "status": "Implementation", "sectors": ["Agriculture, natural resources and rural development"]}, "type": "Feature", "geometry": {"coordinates": [104.51762, 13.06689], "type": "Point"}}, {"id": 5535, "properties": {"id": "46004-37287-013-LN2376", "locationName": "Phum\u012d K\u00e2mp\u00f3ng Tr\u00e2lach", "title": "TONLE SAP LOWLANDS RURAL DEVELOPMENT PROJECT", "status": "Implementation", "sectors": ["Agriculture, natural resources and rural development"]}, "type": "Feature", "geometry": {"coordinates": [104.76476, 11.92304], "type": "Point"}}, {"id": 5536, "properties": {"id": "46004-37287-013-LN2376", "locationName": "Phum\u012d Chey", "title": "TONLE SAP LOWLANDS RURAL DEVELOPMENT PROJECT", "status": "Implementation", "sectors": ["Agriculture, natural resources and rural development"]}, "type": "Feature", "geometry": {"coordinates": [104.70693, 12.79137], "type": "Point"}}, {"id": 5537, "properties": {"id": "46004-37287-013-LN2376", "locationName": "Phum\u012d Ch\u00e2nt\u00f4r", "title": "TONLE SAP LOWLANDS RURAL DEVELOPMENT PROJECT", "status": "Implementation", "sectors": ["Agriculture, natural resources and rural development"]}, "type": "Feature", "geometry": {"coordinates": [104.81839, 11.93133], "type": "Point"}}, {"id": 5538, "properties": {"id": "46004-37287-013-LN2376", "locationName": "Phum\u012d Chaeung Daeung", "title": "TONLE SAP LOWLANDS RURAL DEVELOPMENT PROJECT", "status": "Implementation", "sectors": ["Agriculture, natural resources and rural development"]}, "type": "Feature", "geometry": {"coordinates": [105.2073, 12.46832], "type": "Point"}}, {"id": 5539, "properties": {"id": "46004-37287-013-LN2376", "locationName": "Phum\u012d B\u0153\u0306ng (1)", "title": "TONLE SAP LOWLANDS RURAL DEVELOPMENT PROJECT", "status": "Implementation", "sectors": ["Agriculture, natural resources and rural development"]}, "type": "Feature", "geometry": {"coordinates": [105.11928, 12.42872], "type": "Point"}}, {"id": 5540, "properties": {"id": "46004-37287-013-LN2376", "locationName": "Phum\u012d \u00c2nhchanh Rung", "title": "TONLE SAP LOWLANDS RURAL DEVELOPMENT PROJECT", "status": "Implementation", "sectors": ["Agriculture, natural resources and rural development"]}, "type": "Feature", "geometry": {"coordinates": [104.42063, 12.35118], "type": "Point"}}, {"id": 5541, "properties": {"id": "46004-37287-013-LN2376", "locationName": "Phum\u012d \u00c2mp\u012dl T\u0153\u0306k", "title": "TONLE SAP LOWLANDS RURAL DEVELOPMENT PROJECT", "status": "Implementation", "sectors": ["Agriculture, natural resources and rural development"]}, "type": "Feature", "geometry": {"coordinates": [104.82202, 11.99136], "type": "Point"}}, {"id": 5542, "properties": {"id": "46004-37287-013-LN2376", "locationName": "Kampong Thom", "title": "TONLE SAP LOWLANDS RURAL DEVELOPMENT PROJECT", "status": "Implementation", "sectors": ["Agriculture, natural resources and rural development"]}, "type": "Feature", "geometry": {"coordinates": [105.0, 12.83333], "type": "Point"}}, {"id": 5543, "properties": {"id": "46004-37287-013-LN2376", "locationName": "Kampong Chhnang", "title": "TONLE SAP LOWLANDS RURAL DEVELOPMENT PROJECT", "status": "Implementation", "sectors": ["Agriculture, natural resources and rural development"]}, "type": "Feature", "geometry": {"coordinates": [104.55, 12.16667], "type": "Point"}}, {"id": 5544, "properties": {"id": "46004-37287-013-LN2376", "locationName": "Baray", "title": "TONLE SAP LOWLANDS RURAL DEVELOPMENT PROJECT", "status": "Implementation", "sectors": ["Agriculture, natural resources and rural development"]}, "type": "Feature", "geometry": {"coordinates": [105.06, 12.42], "type": "Point"}}, {"id": 5545, "properties": {"id": "46004-41123-013-LN2406", "locationName": "Pursat", "title": "ROAD ASSET MANAGEMENT PROJECT", "status": "Implementation", "sectors": ["Transport"]}, "type": "Feature", "geometry": {"coordinates": [103.66667, 12.33333], "type": "Point"}}, {"id": 5546, "properties": {"id": "46004-41123-013-LN2406", "locationName": "Phnom Penh", "title": "ROAD ASSET MANAGEMENT PROJECT", "status": "Implementation", "sectors": ["Transport"]}, "type": "Feature", "geometry": {"coordinates": [104.91601, 11.56245], "type": "Point"}}, {"id": 5547, "properties": {"id": "46004-41123-013-LN2406", "locationName": "Sr\u014fk Tbong Khm\u016dm", "title": "ROAD ASSET MANAGEMENT PROJECT", "status": "Implementation", "sectors": ["Transport"]}, "type": "Feature", "geometry": {"coordinates": [105.83333, 11.91667], "type": "Point"}}, {"id": 5548, "properties": {"id": "46004-41123-013-LN2406", "locationName": "Takeo", "title": "ROAD ASSET MANAGEMENT PROJECT", "status": "Implementation", "sectors": ["Transport"]}, "type": "Feature", "geometry": {"coordinates": [104.83333, 10.91667], "type": "Point"}}, {"id": 5549, "properties": {"id": "46004-41123-013-LN2406", "locationName": "Svay Rieng", "title": "ROAD ASSET MANAGEMENT PROJECT", "status": "Implementation", "sectors": ["Transport"]}, "type": "Feature", "geometry": {"coordinates": [105.83333, 11.16667], "type": "Point"}}, {"id": 5550, "properties": {"id": "46004-41123-013-LN2406", "locationName": "Svay Rieng", "title": "ROAD ASSET MANAGEMENT PROJECT", "status": "Implementation", "sectors": ["Transport"]}, "type": "Feature", "geometry": {"coordinates": [105.79935, 11.08785], "type": "Point"}}, {"id": 5551, "properties": {"id": "46004-41123-013-LN2406", "locationName": "Prey Veng", "title": "ROAD ASSET MANAGEMENT PROJECT", "status": "Implementation", "sectors": ["Transport"]}, "type": "Feature", "geometry": {"coordinates": [105.46667, 11.36667], "type": "Point"}}, {"id": 5552, "properties": {"id": "46004-41123-013-LN2406", "locationName": "Pursat", "title": "ROAD ASSET MANAGEMENT PROJECT", "status": "Implementation", "sectors": ["Transport"]}, "type": "Feature", "geometry": {"coordinates": [103.9192, 12.53878], "type": "Point"}}, {"id": 5553, "properties": {"id": "46004-41123-013-LN2406", "locationName": "Kratie", "title": "ROAD ASSET MANAGEMENT PROJECT", "status": "Implementation", "sectors": ["Transport"]}, "type": "Feature", "geometry": {"coordinates": [106.08333, 12.66667], "type": "Point"}}, {"id": 5554, "properties": {"id": "46004-41123-013-LN2406", "locationName": "Kandal", "title": "ROAD ASSET MANAGEMENT PROJECT", "status": "Implementation", "sectors": ["Transport"]}, "type": "Feature", "geometry": {"coordinates": [105.0, 11.41667], "type": "Point"}}, {"id": 5555, "properties": {"id": "46004-41123-013-LN2406", "locationName": "Sr\u014fk K\u00e2mp\u00f3ng Tr\u00e2b\u00eak", "title": "ROAD ASSET MANAGEMENT PROJECT", "status": "Implementation", "sectors": ["Transport"]}, "type": "Feature", "geometry": {"coordinates": [105.5, 11.08333], "type": "Point"}}, {"id": 5556, "properties": {"id": "46004-41123-013-LN2406", "locationName": "K\u00e2mp\u00f3ng Tr\u00e2b\u00eak", "title": "ROAD ASSET MANAGEMENT PROJECT", "status": "Implementation", "sectors": ["Transport"]}, "type": "Feature", "geometry": {"coordinates": [105.48327, 11.14566], "type": "Point"}}, {"id": 5557, "properties": {"id": "46004-41123-013-LN2406", "locationName": "Kampong Chhnang", "title": "ROAD ASSET MANAGEMENT PROJECT", "status": "Implementation", "sectors": ["Transport"]}, "type": "Feature", "geometry": {"coordinates": [104.55, 12.16667], "type": "Point"}}, {"id": 5558, "properties": {"id": "46004-41123-013-LN2406", "locationName": "Kampong Chhnang", "title": "ROAD ASSET MANAGEMENT PROJECT", "status": "Implementation", "sectors": ["Transport"]}, "type": "Feature", "geometry": {"coordinates": [104.66667, 12.25], "type": "Point"}}, {"id": 5559, "properties": {"id": "46004-41123-013-LN2406", "locationName": "Kampong Cham", "title": "ROAD ASSET MANAGEMENT PROJECT", "status": "Implementation", "sectors": ["Transport"]}, "type": "Feature", "geometry": {"coordinates": [105.58333, 12.08333], "type": "Point"}}, {"id": 5560, "properties": {"id": "46004-41123-013-LN2406", "locationName": "Cambodia", "title": "ROAD ASSET MANAGEMENT PROJECT", "status": "Implementation", "sectors": ["Transport"]}, "type": "Feature", "geometry": {"coordinates": [105.0, 13.0], "type": "Point"}}, {"id": 5561, "properties": {"id": "46004-41123-013-LN2406", "locationName": "Kampong Chhnang", "title": "ROAD ASSET MANAGEMENT PROJECT", "status": "Implementation", "sectors": ["Transport"]}, "type": "Feature", "geometry": {"coordinates": [104.67, 12.26], "type": "Point"}}, {"id": 5562, "properties": {"id": "46004-41123-013-LN2406", "locationName": "Phnom Penh", "title": "ROAD ASSET MANAGEMENT PROJECT", "status": "Implementation", "sectors": ["Transport"]}, "type": "Feature", "geometry": {"coordinates": [104.9177, 11.5591], "type": "Point"}}, {"id": 5563, "properties": {"id": "46004-41123-013-LN2406", "locationName": "Sampov Meas", "title": "ROAD ASSET MANAGEMENT PROJECT", "status": "Implementation", "sectors": ["Transport"]}, "type": "Feature", "geometry": {"coordinates": [103.92, 12.48], "type": "Point"}}, {"id": 5564, "properties": {"id": "46004-40253-023-GRNT0241", "locationName": "Tatai Leu", "title": "GMS BIODIVERSITY CONSERVATION CORRIDORS PROJECT-CA", "status": "Implementation", "sectors": ["Agriculture, natural resources and rural development"]}, "type": "Feature", "geometry": {"coordinates": [103.49417, 11.79246], "type": "Point"}}, {"id": 5565, "properties": {"id": "46004-40253-023-GRNT0241", "locationName": "Sr\u014fk Sr\u00ea \u00c2mb\u0115l", "title": "GMS BIODIVERSITY CONSERVATION CORRIDORS PROJECT-CA", "status": "Implementation", "sectors": ["Agriculture, natural resources and rural development"]}, "type": "Feature", "geometry": {"coordinates": [103.7, 10.98333], "type": "Point"}}, {"id": 5566, "properties": {"id": "46004-40253-023-GRNT0241", "locationName": "Sala \u00c2ndong Tuk", "title": "GMS BIODIVERSITY CONSERVATION CORRIDORS PROJECT-CA", "status": "Implementation", "sectors": ["Agriculture, natural resources and rural development"]}, "type": "Feature", "geometry": {"coordinates": [103.48333, 11.18333], "type": "Point"}}, {"id": 5567, "properties": {"id": "46004-40253-023-GRNT0241", "locationName": "Phum\u012d Sr\u00ea Pre\u0103h", "title": "GMS BIODIVERSITY CONSERVATION CORRIDORS PROJECT-CA", "status": "Implementation", "sectors": ["Agriculture, natural resources and rural development"]}, "type": "Feature", "geometry": {"coordinates": [106.88065, 12.18703], "type": "Point"}}, {"id": 5568, "properties": {"id": "46004-40253-023-GRNT0241", "locationName": "Phum\u012d Sr\u00ea Kht\u016dm", "title": "GMS BIODIVERSITY CONSERVATION CORRIDORS PROJECT-CA", "status": "Implementation", "sectors": ["Agriculture, natural resources and rural development"]}, "type": "Feature", "geometry": {"coordinates": [106.47036, 12.5945], "type": "Point"}}, {"id": 5569, "properties": {"id": "46004-40253-023-GRNT0241", "locationName": "Phum\u012d Pu Chri", "title": "GMS BIODIVERSITY CONSERVATION CORRIDORS PROJECT-CA", "status": "Implementation", "sectors": ["Agriculture, natural resources and rural development"]}, "type": "Feature", "geometry": {"coordinates": [107.22152, 12.68775], "type": "Point"}}, {"id": 5570, "properties": {"id": "46004-40253-023-GRNT0241", "locationName": "Phum\u012d P\u00e9am Kr\u00e2sa\u00f4b", "title": "GMS BIODIVERSITY CONSERVATION CORRIDORS PROJECT-CA", "status": "Implementation", "sectors": ["Agriculture, natural resources and rural development"]}, "type": "Feature", "geometry": {"coordinates": [102.98619, 11.52707], "type": "Point"}}, {"id": 5571, "properties": {"id": "46004-40253-023-GRNT0241", "locationName": "Phum\u012d D\u0103k D\u0103m", "title": "GMS BIODIVERSITY CONSERVATION CORRIDORS PROJECT-CA", "status": "Implementation", "sectors": ["Agriculture, natural resources and rural development"]}, "type": "Feature", "geometry": {"coordinates": [107.34631, 12.34362], "type": "Point"}}, {"id": 5572, "properties": {"id": "46004-40253-023-GRNT0241", "locationName": "Kr\u00e2ng T\u00e9h", "title": "GMS BIODIVERSITY CONSERVATION CORRIDORS PROJECT-CA", "status": "Implementation", "sectors": ["Agriculture, natural resources and rural development"]}, "type": "Feature", "geometry": {"coordinates": [107.33295, 12.64096], "type": "Point"}}, {"id": 5573, "properties": {"id": "46004-40253-023-GRNT0241", "locationName": "Sr\u014fk Ka\u00f4h Nh\u00eak", "title": "GMS BIODIVERSITY CONSERVATION CORRIDORS PROJECT-CA", "status": "Implementation", "sectors": ["Agriculture, natural resources and rural development"]}, "type": "Feature", "geometry": {"coordinates": [107.0, 13.0], "type": "Point"}}, {"id": 5574, "properties": {"id": "46004-40253-023-GRNT0241", "locationName": "Sr\u014fk Ka\u00f4h K\u014fng", "title": "GMS BIODIVERSITY CONSERVATION CORRIDORS PROJECT-CA", "status": "Implementation", "sectors": ["Agriculture, natural resources and rural development"]}, "type": "Feature", "geometry": {"coordinates": [103.16667, 11.5], "type": "Point"}}, {"id": 5575, "properties": {"id": "46004-40253-023-GRNT0241", "locationName": "Sr\u014fk Kaev Seima", "title": "GMS BIODIVERSITY CONSERVATION CORRIDORS PROJECT-CA", "status": "Implementation", "sectors": ["Agriculture, natural resources and rural development"]}, "type": "Feature", "geometry": {"coordinates": [106.77025, 12.41722], "type": "Point"}}, {"id": 5576, "properties": {"id": "46004-40253-023-GRNT0241", "locationName": "Sr\u014fk Pech Chreada", "title": "GMS BIODIVERSITY CONSERVATION CORRIDORS PROJECT-CA", "status": "Implementation", "sectors": ["Agriculture, natural resources and rural development"]}, "type": "Feature", "geometry": {"coordinates": [107.0948, 12.7278], "type": "Point"}}, {"id": 5577, "properties": {"id": "46004-40253-023-GRNT0241", "locationName": "Kr\u014fng S\u00eanm\u00f4no\u016dr\u00f4m", "title": "GMS BIODIVERSITY CONSERVATION CORRIDORS PROJECT-CA", "status": "Implementation", "sectors": ["Agriculture, natural resources and rural development"]}, "type": "Feature", "geometry": {"coordinates": [107.15525, 12.5048], "type": "Point"}}, {"id": 5578, "properties": {"id": "46004-40253-023-GRNT0241", "locationName": "Sr\u014fk M\u00f4nd\u00f4l Seima", "title": "GMS BIODIVERSITY CONSERVATION CORRIDORS PROJECT-CA", "status": "Implementation", "sectors": ["Agriculture, natural resources and rural development"]}, "type": "Feature", "geometry": {"coordinates": [103.01159, 11.81292], "type": "Point"}}, {"id": 5579, "properties": {"id": "46004-40253-023-GRNT0241", "locationName": "Tr\u00e2pe\u0103ng Rung", "title": "GMS BIODIVERSITY CONSERVATION CORRIDORS PROJECT-CA", "status": "Implementation", "sectors": ["Agriculture, natural resources and rural development"]}, "type": "Feature", "geometry": {"coordinates": [103.26019, 11.3761], "type": "Point"}}, {"id": 5580, "properties": {"id": "46004-40253-023-GRNT0241", "locationName": "Sr\u014fk Thm\u00e2 Bang", "title": "GMS BIODIVERSITY CONSERVATION CORRIDORS PROJECT-CA", "status": "Implementation", "sectors": ["Agriculture, natural resources and rural development"]}, "type": "Feature", "geometry": {"coordinates": [103.41667, 11.81667], "type": "Point"}}, {"id": 5581, "properties": {"id": "46004-42186-013-LN2455", "locationName": "Pursat", "title": "EMERGENCY FOOD ASSISTANCE PROJECT", "status": "Completion", "sectors": ["Agriculture, natural resources and rural development"]}, "type": "Feature", "geometry": {"coordinates": [103.66667, 12.33333], "type": "Point"}}, {"id": 5582, "properties": {"id": "46004-42186-013-LN2455", "locationName": "Battambang", "title": "EMERGENCY FOOD ASSISTANCE PROJECT", "status": "Completion", "sectors": ["Agriculture, natural resources and rural development"]}, "type": "Feature", "geometry": {"coordinates": [103.08333, 12.91667], "type": "Point"}}, {"id": 5583, "properties": {"id": "46004-42186-013-LN2455", "locationName": "\u014et\u00e2r M\u00e9anchey", "title": "EMERGENCY FOOD ASSISTANCE PROJECT", "status": "Completion", "sectors": ["Agriculture, natural resources and rural development"]}, "type": "Feature", "geometry": {"coordinates": [103.5, 14.16667], "type": "Point"}}, {"id": 5584, "properties": {"id": "46004-42186-013-LN2455", "locationName": "Siem Reap", "title": "EMERGENCY FOOD ASSISTANCE PROJECT", "status": "Completion", "sectors": ["Agriculture, natural resources and rural development"]}, "type": "Feature", "geometry": {"coordinates": [104.0, 13.5], "type": "Point"}}, {"id": 5585, "properties": {"id": "46004-42186-013-LN2455", "locationName": "Kampong Thom", "title": "EMERGENCY FOOD ASSISTANCE PROJECT", "status": "Completion", "sectors": ["Agriculture, natural resources and rural development"]}, "type": "Feature", "geometry": {"coordinates": [105.0, 12.83333], "type": "Point"}}, {"id": 5586, "properties": {"id": "46004-42186-013-LN2455", "locationName": "Kampong Chhnang", "title": "EMERGENCY FOOD ASSISTANCE PROJECT", "status": "Completion", "sectors": ["Agriculture, natural resources and rural development"]}, "type": "Feature", "geometry": {"coordinates": [104.55, 12.16667], "type": "Point"}}, {"id": 5587, "properties": {"id": "46004-42186-013-LN2455", "locationName": "Banteay Meanchey", "title": "EMERGENCY FOOD ASSISTANCE PROJECT", "status": "Completion", "sectors": ["Agriculture, natural resources and rural development"]}, "type": "Feature", "geometry": {"coordinates": [103.0, 13.75], "type": "Point"}}, {"id": 5588, "properties": {"id": "46004-38421-013-LN2480", "locationName": "Cambodia", "title": "PROMOTING ECONOMIC DIVERSIFICATION PROGRAM - SP 1", "status": "Completion", "sectors": ["Public sector management"]}, "type": "Feature", "geometry": {"coordinates": [105.0, 13.0], "type": "Point"}}, {"id": 5589, "properties": {"id": "46004-42358-013-LN2539", "locationName": "Sr\u014fk Thm\u00e2 P\u00f4k", "title": "GREATER MEKONG SUBREGION:CAMBODIA NORTHWEST PROV ROAD IMPR PROJ", "status": "Implementation", "sectors": ["Transport"]}, "type": "Feature", "geometry": {"coordinates": [103.0, 13.83333], "type": "Point"}}, {"id": 5590, "properties": {"id": "46004-42358-013-LN2539", "locationName": "Svay Ch\u00e9k", "title": "GREATER MEKONG SUBREGION:CAMBODIA NORTHWEST PROV ROAD IMPR PROJ", "status": "Implementation", "sectors": ["Transport"]}, "type": "Feature", "geometry": {"coordinates": [102.96232, 13.80208], "type": "Point"}}, {"id": 5591, "properties": {"id": "46004-42358-013-LN2539", "locationName": "Sis\u014fph\u014fn", "title": "GREATER MEKONG SUBREGION:CAMBODIA NORTHWEST PROV ROAD IMPR PROJ", "status": "Implementation", "sectors": ["Transport"]}, "type": "Feature", "geometry": {"coordinates": [102.97369, 13.58588], "type": "Point"}}, {"id": 5592, "properties": {"id": "46004-42358-013-LN2539", "locationName": "Sr\u014fk S\u00e2mra\u00f4ng", "title": "GREATER MEKONG SUBREGION:CAMBODIA NORTHWEST PROV ROAD IMPR PROJ", "status": "Implementation", "sectors": ["Transport"]}, "type": "Feature", "geometry": {"coordinates": [103.62739, 14.25039], "type": "Point"}}, {"id": 5593, "properties": {"id": "46004-42358-013-LN2539", "locationName": "Phum\u012d Tr\u00e9as", "title": "GREATER MEKONG SUBREGION:CAMBODIA NORTHWEST PROV ROAD IMPR PROJ", "status": "Implementation", "sectors": ["Transport"]}, "type": "Feature", "geometry": {"coordinates": [102.99764, 13.85698], "type": "Point"}}, {"id": 5594, "properties": {"id": "46004-42358-013-LN2539", "locationName": "S\u00e2mra\u00f4ng", "title": "GREATER MEKONG SUBREGION:CAMBODIA NORTHWEST PROV ROAD IMPR PROJ", "status": "Implementation", "sectors": ["Transport"]}, "type": "Feature", "geometry": {"coordinates": [103.51761, 14.18175], "type": "Point"}}, {"id": 5595, "properties": {"id": "46004-42358-013-LN2539", "locationName": "Phum\u012d Ko\u016dk M\u00f4n", "title": "GREATER MEKONG SUBREGION:CAMBODIA NORTHWEST PROV ROAD IMPR PROJ", "status": "Implementation", "sectors": ["Transport"]}, "type": "Feature", "geometry": {"coordinates": [103.28842, 14.16183], "type": "Point"}}, {"id": 5596, "properties": {"id": "46004-42358-013-LN2539", "locationName": "Phum\u012d B\u00e2nt\u00e9ay Chhmar", "title": "GREATER MEKONG SUBREGION:CAMBODIA NORTHWEST PROV ROAD IMPR PROJ", "status": "Implementation", "sectors": ["Transport"]}, "type": "Feature", "geometry": {"coordinates": [103.1062, 14.07087], "type": "Point"}}, {"id": 5597, "properties": {"id": "46004-42358-013-LN2539", "locationName": "Sr\u014fk B\u00e2nt\u00e9ay \u00c2mp\u012dl", "title": "GREATER MEKONG SUBREGION:CAMBODIA NORTHWEST PROV ROAD IMPR PROJ", "status": "Implementation", "sectors": ["Transport"]}, "type": "Feature", "geometry": {"coordinates": [103.25925, 14.1859], "type": "Point"}}, {"id": 5598, "properties": {"id": "46004-42358-013-LN2539", "locationName": "O'Smach", "title": "GREATER MEKONG SUBREGION:CAMBODIA NORTHWEST PROV ROAD IMPR PROJ", "status": "Implementation", "sectors": ["Transport"]}, "type": "Feature", "geometry": {"coordinates": [103.69706, 14.40987], "type": "Point"}}, {"id": 5599, "properties": {"id": "46004-42358-013-LN2539", "locationName": "Sr\u014fk Svay Ch\u00e9k", "title": "GREATER MEKONG SUBREGION:CAMBODIA NORTHWEST PROV ROAD IMPR PROJ", "status": "Implementation", "sectors": ["Transport"]}, "type": "Feature", "geometry": {"coordinates": [102.95269, 13.81305], "type": "Point"}}, {"id": 5600, "properties": {"id": "46004-42358-013-LN2539", "locationName": "Serei Saophoan", "title": "GREATER MEKONG SUBREGION:CAMBODIA NORTHWEST PROV ROAD IMPR PROJ", "status": "Implementation", "sectors": ["Transport"]}, "type": "Feature", "geometry": {"coordinates": [103.01265, 13.63849], "type": "Point"}}, {"id": 5601, "properties": {"id": "46004-41435-013-LN2599", "locationName": "Sis\u014fph\u014fn", "title": "TONLE SAP POVERTY REDUCTION AND SMALLHOLDER DEVELOPMENT PROJECT", "status": "Implementation", "sectors": ["Agriculture, natural resources and rural development"]}, "type": "Feature", "geometry": {"coordinates": [102.97369, 13.58588], "type": "Point"}}, {"id": 5602, "properties": {"id": "46004-41435-013-LN2599", "locationName": "Siem Reap", "title": "TONLE SAP POVERTY REDUCTION AND SMALLHOLDER DEVELOPMENT PROJECT", "status": "Implementation", "sectors": ["Agriculture, natural resources and rural development"]}, "type": "Feature", "geometry": {"coordinates": [103.86056, 13.36179], "type": "Point"}}, {"id": 5603, "properties": {"id": "46004-41435-013-LN2599", "locationName": "Kampong Cham", "title": "TONLE SAP POVERTY REDUCTION AND SMALLHOLDER DEVELOPMENT PROJECT", "status": "Implementation", "sectors": ["Agriculture, natural resources and rural development"]}, "type": "Feature", "geometry": {"coordinates": [105.4635, 11.99339], "type": "Point"}}, {"id": 5604, "properties": {"id": "46004-41435-013-LN2599", "locationName": "Stueng Saen", "title": "TONLE SAP POVERTY REDUCTION AND SMALLHOLDER DEVELOPMENT PROJECT", "status": "Implementation", "sectors": ["Agriculture, natural resources and rural development"]}, "type": "Feature", "geometry": {"coordinates": [104.87, 12.63], "type": "Point"}}, {"id": 5605, "properties": {"id": "46004-37269-023-LN2602", "locationName": "Sis\u014fph\u014fn", "title": "GMS:REHABILITATION OF THE RAILWAY IN CAMBODIA PROJ(SUPPLEMENTARY)", "status": "Implementation", "sectors": ["Transport"]}, "type": "Feature", "geometry": {"coordinates": [102.97369, 13.58588], "type": "Point"}}, {"id": 5606, "properties": {"id": "46004-37269-023-LN2602", "locationName": "Pa\u00f4y P\u00eat", "title": "GMS:REHABILITATION OF THE RAILWAY IN CAMBODIA PROJ(SUPPLEMENTARY)", "status": "Implementation", "sectors": ["Transport"]}, "type": "Feature", "geometry": {"coordinates": [102.5625, 13.65611], "type": "Point"}}, {"id": 5607, "properties": {"id": "46004-37269-023-LN2602", "locationName": "Sihanoukville", "title": "GMS:REHABILITATION OF THE RAILWAY IN CAMBODIA PROJ(SUPPLEMENTARY)", "status": "Implementation", "sectors": ["Transport"]}, "type": "Feature", "geometry": {"coordinates": [103.83333, 11.16667], "type": "Point"}}, {"id": 5608, "properties": {"id": "46004-37269-023-LN2602", "locationName": "Ou Chrov District", "title": "GMS:REHABILITATION OF THE RAILWAY IN CAMBODIA PROJ(SUPPLEMENTARY)", "status": "Implementation", "sectors": ["Transport"]}, "type": "Feature", "geometry": {"coordinates": [102.60956, 13.64699], "type": "Point"}}, {"id": 5609, "properties": {"id": "46004-37269-023-LN2602", "locationName": "Prampi Makara", "title": "GMS:REHABILITATION OF THE RAILWAY IN CAMBODIA PROJ(SUPPLEMENTARY)", "status": "Implementation", "sectors": ["Transport"]}, "type": "Feature", "geometry": {"coordinates": [104.90484, 11.55033], "type": "Point"}}, {"id": 5610, "properties": {"id": "46004-37269-023-LN2602", "locationName": "Serei Saophoan", "title": "GMS:REHABILITATION OF THE RAILWAY IN CAMBODIA PROJ(SUPPLEMENTARY)", "status": "Implementation", "sectors": ["Transport"]}, "type": "Feature", "geometry": {"coordinates": [103.01265, 13.63849], "type": "Point"}}, {"id": 5611, "properties": {"id": "46004-37269-023-LN2602", "locationName": "Mittakpheap District", "title": "GMS:REHABILITATION OF THE RAILWAY IN CAMBODIA PROJ(SUPPLEMENTARY)", "status": "Implementation", "sectors": ["Transport"]}, "type": "Feature", "geometry": {"coordinates": [103.53108, 10.62483], "type": "Point"}}, {"id": 5612, "properties": {"id": "46004-42334-013-LN2670", "locationName": "Sr\u014fk T\u0153\u0306k Ph\u014fs", "title": "RURAL ROADS IMPROVEMENT PROJECT", "status": "Implementation", "sectors": ["Transport"]}, "type": "Feature", "geometry": {"coordinates": [104.33333, 12.08333], "type": "Point"}}, {"id": 5613, "properties": {"id": "46004-42334-013-LN2670", "locationName": "Sr\u014fk S\u00e2nd\u0103n", "title": "RURAL ROADS IMPROVEMENT PROJECT", "status": "Implementation", "sectors": ["Transport"]}, "type": "Feature", "geometry": {"coordinates": [105.28333, 13.08333], "type": "Point"}}, {"id": 5614, "properties": {"id": "46004-42334-013-LN2670", "locationName": "S\u00e2nd\u0103n", "title": "RURAL ROADS IMPROVEMENT PROJECT", "status": "Implementation", "sectors": ["Transport"]}, "type": "Feature", "geometry": {"coordinates": [106.01826, 12.69116], "type": "Point"}}, {"id": 5615, "properties": {"id": "46004-42334-013-LN2670", "locationName": "Sr\u014fk Pu\u014fk", "title": "RURAL ROADS IMPROVEMENT PROJECT", "status": "Implementation", "sectors": ["Transport"]}, "type": "Feature", "geometry": {"coordinates": [103.66667, 13.41667], "type": "Point"}}, {"id": 5616, "properties": {"id": "46004-42334-013-LN2670", "locationName": "Sr\u014fk Phnum Sru\u014fch", "title": "RURAL ROADS IMPROVEMENT PROJECT", "status": "Implementation", "sectors": ["Transport"]}, "type": "Feature", "geometry": {"coordinates": [104.16667, 11.41667], "type": "Point"}}, {"id": 5617, "properties": {"id": "46004-42334-013-LN2670", "locationName": "Sr\u014fk Phnum Kr\u00e2vanh", "title": "RURAL ROADS IMPROVEMENT PROJECT", "status": "Implementation", "sectors": ["Transport"]}, "type": "Feature", "geometry": {"coordinates": [103.66667, 12.08333], "type": "Point"}}, {"id": 5618, "properties": {"id": "46004-42334-013-LN2670", "locationName": "Sr\u014fk \u014ed\u014fngk", "title": "RURAL ROADS IMPROVEMENT PROJECT", "status": "Implementation", "sectors": ["Transport"]}, "type": "Feature", "geometry": {"coordinates": [104.61224, 11.66845], "type": "Point"}}, {"id": 5619, "properties": {"id": "46004-42334-013-LN2670", "locationName": "\u014ed\u014fngk", "title": "RURAL ROADS IMPROVEMENT PROJECT", "status": "Implementation", "sectors": ["Transport"]}, "type": "Feature", "geometry": {"coordinates": [104.74359, 11.82252], "type": "Point"}}, {"id": 5620, "properties": {"id": "46004-42334-013-LN2670", "locationName": "Sr\u014fk M\u00e9m\u00f3t", "title": "RURAL ROADS IMPROVEMENT PROJECT", "status": "Implementation", "sectors": ["Transport"]}, "type": "Feature", "geometry": {"coordinates": [106.25, 11.83333], "type": "Point"}}, {"id": 5621, "properties": {"id": "46004-42334-013-LN2670", "locationName": "M\u00e9m\u00f3t", "title": "RURAL ROADS IMPROVEMENT PROJECT", "status": "Implementation", "sectors": ["Transport"]}, "type": "Feature", "geometry": {"coordinates": [106.18206, 11.82883], "type": "Point"}}, {"id": 5622, "properties": {"id": "46004-42334-013-LN2670", "locationName": "Sr\u014fk Kr\u00e2l\u0103nh", "title": "RURAL ROADS IMPROVEMENT PROJECT", "status": "Implementation", "sectors": ["Transport"]}, "type": "Feature", "geometry": {"coordinates": [103.5, 13.58333], "type": "Point"}}, {"id": 5623, "properties": {"id": "46004-42334-013-LN2670", "locationName": "Moung Ruessei", "title": "RURAL ROADS IMPROVEMENT PROJECT", "status": "Implementation", "sectors": ["Transport"]}, "type": "Feature", "geometry": {"coordinates": [103.42, 12.78], "type": "Point"}}, {"id": 5624, "properties": {"id": "46004-42334-013-LN2670", "locationName": "Bakan", "title": "RURAL ROADS IMPROVEMENT PROJECT", "status": "Implementation", "sectors": ["Transport"]}, "type": "Feature", "geometry": {"coordinates": [103.79, 12.78], "type": "Point"}}, {"id": 5625, "properties": {"id": "46004-42334-013-LN2670", "locationName": "Rolea B'ier", "title": "RURAL ROADS IMPROVEMENT PROJECT", "status": "Implementation", "sectors": ["Transport"]}, "type": "Feature", "geometry": {"coordinates": [104.61, 12.21], "type": "Point"}}, {"id": 5626, "properties": {"id": "46004-42334-013-LN2670", "locationName": "Angkor Chum", "title": "RURAL ROADS IMPROVEMENT PROJECT", "status": "Implementation", "sectors": ["Transport"]}, "type": "Feature", "geometry": {"coordinates": [103.71695, 13.72133], "type": "Point"}}, {"id": 5627, "properties": {"id": "46004-42334-013-LN2670", "locationName": "Varin", "title": "RURAL ROADS IMPROVEMENT PROJECT", "status": "Implementation", "sectors": ["Transport"]}, "type": "Feature", "geometry": {"coordinates": [103.89968, 13.83574], "type": "Point"}}, {"id": 5628, "properties": {"id": "46004-42334-013-LN2670", "locationName": "Sr\u014fk O Re\u0103ng \u00c2u", "title": "RURAL ROADS IMPROVEMENT PROJECT", "status": "Implementation", "sectors": ["Transport"]}, "type": "Feature", "geometry": {"coordinates": [105.53875, 11.81278], "type": "Point"}}, {"id": 5629, "properties": {"id": "46004-42334-013-LN2670", "locationName": "Sr\u014fk K\u00e2ndi\u0115ng", "title": "RURAL ROADS IMPROVEMENT PROJECT", "status": "Implementation", "sectors": ["Transport"]}, "type": "Feature", "geometry": {"coordinates": [104.02592, 12.71245], "type": "Point"}}, {"id": 5630, "properties": {"id": "46004-42334-013-LN2670", "locationName": "Sr\u014fk Basedth", "title": "RURAL ROADS IMPROVEMENT PROJECT", "status": "Implementation", "sectors": ["Transport"]}, "type": "Feature", "geometry": {"coordinates": [104.53584, 11.18432], "type": "Point"}}, {"id": 5631, "properties": {"id": "46004-42334-013-LN2670", "locationName": "Sr\u014fk Sameakki Mean Chey", "title": "RURAL ROADS IMPROVEMENT PROJECT", "status": "Implementation", "sectors": ["Transport"]}, "type": "Feature", "geometry": {"coordinates": [104.55549, 11.86788], "type": "Point"}}, {"id": 5632, "properties": {"id": "46004-42334-013-LN2670", "locationName": "Sr\u014fk Pr\u00e2sat S\u00e2mbor", "title": "RURAL ROADS IMPROVEMENT PROJECT", "status": "Implementation", "sectors": ["Transport"]}, "type": "Feature", "geometry": {"coordinates": [105.1416, 12.86413], "type": "Point"}}, {"id": 5633, "properties": {"id": "46004-42334-013-LN2670", "locationName": "Ou Reang Ov District", "title": "RURAL ROADS IMPROVEMENT PROJECT", "status": "Implementation", "sectors": ["Transport"]}, "type": "Feature", "geometry": {"coordinates": [105.52399, 11.84265], "type": "Point"}}, {"id": 5634, "properties": {"id": "46004-42334-013-LN2670", "locationName": "Krouch Chhmar District", "title": "RURAL ROADS IMPROVEMENT PROJECT", "status": "Implementation", "sectors": ["Transport"]}, "type": "Feature", "geometry": {"coordinates": [105.6431, 12.2783], "type": "Point"}}, {"id": 5635, "properties": {"id": "46004-38558-013-LN2672", "locationName": "O Tuk", "title": "WATER RESOURCES MANAGEMENT SECTOR DEVT PROGRAM (PROJECT LOAN)", "status": "Implementation", "sectors": ["Agriculture, natural resources and rural development"]}, "type": "Feature", "geometry": {"coordinates": [103.68262, 13.28709], "type": "Point"}}, {"id": 5636, "properties": {"id": "46004-38558-013-LN2672", "locationName": "Siem Reap", "title": "WATER RESOURCES MANAGEMENT SECTOR DEVT PROGRAM (PROJECT LOAN)", "status": "Implementation", "sectors": ["Agriculture, natural resources and rural development"]}, "type": "Feature", "geometry": {"coordinates": [104.0, 13.5], "type": "Point"}}, {"id": 5637, "properties": {"id": "46004-38558-013-LN2672", "locationName": "Phum\u012d Sl\u00eang Sp\u00e9an", "title": "WATER RESOURCES MANAGEMENT SECTOR DEVT PROGRAM (PROJECT LOAN)", "status": "Implementation", "sectors": ["Agriculture, natural resources and rural development"]}, "type": "Feature", "geometry": {"coordinates": [103.54779, 13.86566], "type": "Point"}}, {"id": 5638, "properties": {"id": "46004-38558-013-LN2672", "locationName": "Phum\u012d \u00c2ngk Khmau", "title": "WATER RESOURCES MANAGEMENT SECTOR DEVT PROGRAM (PROJECT LOAN)", "status": "Implementation", "sectors": ["Agriculture, natural resources and rural development"]}, "type": "Feature", "geometry": {"coordinates": [104.6443, 11.52161], "type": "Point"}}, {"id": 5639, "properties": {"id": "46004-38558-013-LN2672", "locationName": "O M\u00e9an", "title": "WATER RESOURCES MANAGEMENT SECTOR DEVT PROGRAM (PROJECT LOAN)", "status": "Implementation", "sectors": ["Agriculture, natural resources and rural development"]}, "type": "Feature", "geometry": {"coordinates": [105.19353, 13.00808], "type": "Point"}}, {"id": 5640, "properties": {"id": "46004-38558-013-LN2672", "locationName": "Kampong Thom", "title": "WATER RESOURCES MANAGEMENT SECTOR DEVT PROGRAM (PROJECT LOAN)", "status": "Implementation", "sectors": ["Agriculture, natural resources and rural development"]}, "type": "Feature", "geometry": {"coordinates": [105.0, 12.83333], "type": "Point"}}, {"id": 5641, "properties": {"id": "46004-38558-013-LN2672", "locationName": "Banteay Meanchey", "title": "WATER RESOURCES MANAGEMENT SECTOR DEVT PROGRAM (PROJECT LOAN)", "status": "Implementation", "sectors": ["Agriculture, natural resources and rural development"]}, "type": "Feature", "geometry": {"coordinates": [103.0, 13.75], "type": "Point"}}, {"id": 5642, "properties": {"id": "46004-38558-013-LN2672", "locationName": "Prasat Pram", "title": "WATER RESOURCES MANAGEMENT SECTOR DEVT PROGRAM (PROJECT LOAN)", "status": "Implementation", "sectors": ["Agriculture, natural resources and rural development"]}, "type": "Feature", "geometry": {"coordinates": [104.54493, 13.74992], "type": "Point"}}, {"id": 5643, "properties": {"id": "46004-38558-013-LN2673", "locationName": "O Tuk", "title": "WATER RESOURCES MANAGEMENT SECTOR DEVT PROGRAM (PROGRAM LOAN)", "status": "Implementation", "sectors": ["Agriculture, natural resources and rural development"]}, "type": "Feature", "geometry": {"coordinates": [103.68262, 13.28709], "type": "Point"}}, {"id": 5644, "properties": {"id": "46004-38558-013-LN2673", "locationName": "Siem Reap", "title": "WATER RESOURCES MANAGEMENT SECTOR DEVT PROGRAM (PROGRAM LOAN)", "status": "Implementation", "sectors": ["Agriculture, natural resources and rural development"]}, "type": "Feature", "geometry": {"coordinates": [104.0, 13.5], "type": "Point"}}, {"id": 5645, "properties": {"id": "46004-38558-013-LN2673", "locationName": "Phum\u012d Sl\u00eang Sp\u00e9an", "title": "WATER RESOURCES MANAGEMENT SECTOR DEVT PROGRAM (PROGRAM LOAN)", "status": "Implementation", "sectors": ["Agriculture, natural resources and rural development"]}, "type": "Feature", "geometry": {"coordinates": [103.54779, 13.86566], "type": "Point"}}, {"id": 5646, "properties": {"id": "46004-38558-013-LN2673", "locationName": "Phum\u012d \u00c2ngk Khmau", "title": "WATER RESOURCES MANAGEMENT SECTOR DEVT PROGRAM (PROGRAM LOAN)", "status": "Implementation", "sectors": ["Agriculture, natural resources and rural development"]}, "type": "Feature", "geometry": {"coordinates": [104.6443, 11.52161], "type": "Point"}}, {"id": 5647, "properties": {"id": "46004-38558-013-LN2673", "locationName": "O M\u00e9an", "title": "WATER RESOURCES MANAGEMENT SECTOR DEVT PROGRAM (PROGRAM LOAN)", "status": "Implementation", "sectors": ["Agriculture, natural resources and rural development"]}, "type": "Feature", "geometry": {"coordinates": [105.19353, 13.00808], "type": "Point"}}, {"id": 5648, "properties": {"id": "46004-38558-013-LN2673", "locationName": "Kampong Thom", "title": "WATER RESOURCES MANAGEMENT SECTOR DEVT PROGRAM (PROGRAM LOAN)", "status": "Implementation", "sectors": ["Agriculture, natural resources and rural development"]}, "type": "Feature", "geometry": {"coordinates": [105.0, 12.83333], "type": "Point"}}, {"id": 5649, "properties": {"id": "46004-38558-013-LN2673", "locationName": "Banteay Meanchey", "title": "WATER RESOURCES MANAGEMENT SECTOR DEVT PROGRAM (PROGRAM LOAN)", "status": "Implementation", "sectors": ["Agriculture, natural resources and rural development"]}, "type": "Feature", "geometry": {"coordinates": [103.0, 13.75], "type": "Point"}}, {"id": 5650, "properties": {"id": "46004-38558-013-LN2673", "locationName": "Prasat Pram", "title": "WATER RESOURCES MANAGEMENT SECTOR DEVT PROGRAM (PROGRAM LOAN)", "status": "Implementation", "sectors": ["Agriculture, natural resources and rural development"]}, "type": "Feature", "geometry": {"coordinates": [104.54493, 13.74992], "type": "Point"}}, {"id": 5651, "properties": {"id": "46004-41373-013-LN2674", "locationName": "Cambodia", "title": "PUBLIC FINANCIAL MANAGEMENT FOR RURAL DEVT PROG-SUBPROGRAM 2 (SP2", "status": "Completion", "sectors": ["Public sector management"]}, "type": "Feature", "geometry": {"coordinates": [105.0, 13.0], "type": "Point"}}, {"id": 5652, "properties": {"id": "46004-38421-023-LN2675", "locationName": "Cambodia", "title": "PROMOTING ECONOMIC DIVERSIFICATION PROGRAM (SUBPROGRAM 2)", "status": "Completion", "sectors": ["Public sector management"]}, "type": "Feature", "geometry": {"coordinates": [105.0, 13.0], "type": "Point"}}, {"id": 5653, "properties": {"id": "46004-43309-013-LN2839", "locationName": "Svay Rieng", "title": "PROVINCIAL ROADS IMPROVEMENT PROJECT (SF)", "status": "Implementation", "sectors": ["Transport"]}, "type": "Feature", "geometry": {"coordinates": [105.83333, 11.16667], "type": "Point"}}, {"id": 5654, "properties": {"id": "46004-43309-013-LN2839", "locationName": "Prey Veng", "title": "PROVINCIAL ROADS IMPROVEMENT PROJECT (SF)", "status": "Implementation", "sectors": ["Transport"]}, "type": "Feature", "geometry": {"coordinates": [105.46667, 11.36667], "type": "Point"}}, {"id": 5655, "properties": {"id": "46004-43309-013-LN2839", "locationName": "Kampong Speu", "title": "PROVINCIAL ROADS IMPROVEMENT PROJECT (SF)", "status": "Implementation", "sectors": ["Transport"]}, "type": "Feature", "geometry": {"coordinates": [104.33333, 11.5], "type": "Point"}}, {"id": 5656, "properties": {"id": "46004-43309-013-LN2839", "locationName": "Kampong Chhnang", "title": "PROVINCIAL ROADS IMPROVEMENT PROJECT (SF)", "status": "Implementation", "sectors": ["Transport"]}, "type": "Feature", "geometry": {"coordinates": [104.55, 12.16667], "type": "Point"}}, {"id": 5657, "properties": {"id": "46004-46009-001-LN2852", "locationName": "Battambang", "title": "FLOOD DAMAGE EMERGENCY RECONSTRUCTION PROJECT", "status": "Implementation", "sectors": ["Agriculture, natural resources and rural development"]}, "type": "Feature", "geometry": {"coordinates": [103.08333, 12.91667], "type": "Point"}}, {"id": 5658, "properties": {"id": "46004-46009-001-LN2852", "locationName": "Siem Reap", "title": "FLOOD DAMAGE EMERGENCY RECONSTRUCTION PROJECT", "status": "Implementation", "sectors": ["Agriculture, natural resources and rural development"]}, "type": "Feature", "geometry": {"coordinates": [104.0, 13.5], "type": "Point"}}, {"id": 5659, "properties": {"id": "46004-46009-001-LN2852", "locationName": "Prey Veng", "title": "FLOOD DAMAGE EMERGENCY RECONSTRUCTION PROJECT", "status": "Implementation", "sectors": ["Agriculture, natural resources and rural development"]}, "type": "Feature", "geometry": {"coordinates": [105.46667, 11.36667], "type": "Point"}}, {"id": 5660, "properties": {"id": "46004-46009-001-LN2852", "locationName": "Prey Veng", "title": "FLOOD DAMAGE EMERGENCY RECONSTRUCTION PROJECT", "status": "Implementation", "sectors": ["Agriculture, natural resources and rural development"]}, "type": "Feature", "geometry": {"coordinates": [105.32533, 11.48682], "type": "Point"}}, {"id": 5661, "properties": {"id": "46004-46009-001-LN2852", "locationName": "P\u00e9am Chile\u0103ng", "title": "FLOOD DAMAGE EMERGENCY RECONSTRUCTION PROJECT", "status": "Implementation", "sectors": ["Agriculture, natural resources and rural development"]}, "type": "Feature", "geometry": {"coordinates": [105.55129, 12.09206], "type": "Point"}}, {"id": 5662, "properties": {"id": "46004-46009-001-LN2852", "locationName": "Koh Kong", "title": "FLOOD DAMAGE EMERGENCY RECONSTRUCTION PROJECT", "status": "Implementation", "sectors": ["Agriculture, natural resources and rural development"]}, "type": "Feature", "geometry": {"coordinates": [102.9838, 11.61531], "type": "Point"}}, {"id": 5663, "properties": {"id": "46004-46009-001-LN2852", "locationName": "Kampong Thom", "title": "FLOOD DAMAGE EMERGENCY RECONSTRUCTION PROJECT", "status": "Implementation", "sectors": ["Agriculture, natural resources and rural development"]}, "type": "Feature", "geometry": {"coordinates": [105.0, 12.83333], "type": "Point"}}, {"id": 5664, "properties": {"id": "46004-46009-001-LN2852", "locationName": "Kampong Cham", "title": "FLOOD DAMAGE EMERGENCY RECONSTRUCTION PROJECT", "status": "Implementation", "sectors": ["Agriculture, natural resources and rural development"]}, "type": "Feature", "geometry": {"coordinates": [105.58333, 12.08333], "type": "Point"}}, {"id": 5665, "properties": {"id": "46004-46009-001-LN2852", "locationName": "Cambodia", "title": "FLOOD DAMAGE EMERGENCY RECONSTRUCTION PROJECT", "status": "Implementation", "sectors": ["Agriculture, natural resources and rural development"]}, "type": "Feature", "geometry": {"coordinates": [105.0, 13.0], "type": "Point"}}, {"id": 5666, "properties": {"id": "46004-46009-001-LN2852", "locationName": "Banteay Meanchey", "title": "FLOOD DAMAGE EMERGENCY RECONSTRUCTION PROJECT", "status": "Implementation", "sectors": ["Agriculture, natural resources and rural development"]}, "type": "Feature", "geometry": {"coordinates": [103.0, 13.75], "type": "Point"}}, {"id": 5667, "properties": {"id": "46004-46009-001-LN2852", "locationName": "Tboung Khmum", "title": "FLOOD DAMAGE EMERGENCY RECONSTRUCTION PROJECT", "status": "Implementation", "sectors": ["Agriculture, natural resources and rural development"]}, "type": "Feature", "geometry": {"coordinates": [105.65, 11.98], "type": "Point"}},