{"id": "LA", "properties": {"name": "Lao PDR", "bounds": [100.0970732020001, 13.91545664500012, 107.66436324000011, 22.49604400700011]}, "type": "FeatureCollection", "features": [{"id": 5867, "properties": {"id": "46004-38015-013-GRNT0117", "locationName": "Vietnam", "title": "GMS SUSTAINABLE TOURISM DEVELOPMENT PROJECT", "status": "Implementation", "sectors": ["Industry and trade"]}, "type": "Feature", "geometry": {"coordinates": [107.83333, 16.16667], "type": "Point"}}, {"id": 5868, "properties": {"id": "46004-38015-013-GRNT0117", "locationName": "T\u1ec9nh Th\u1eeba Thi\u00ean-Hu\u1ebf", "title": "GMS SUSTAINABLE TOURISM DEVELOPMENT PROJECT", "status": "Implementation", "sectors": ["Industry and trade"]}, "type": "Feature", "geometry": {"coordinates": [107.58333, 16.33333], "type": "Point"}}, {"id": 5869, "properties": {"id": "46004-38015-013-GRNT0117", "locationName": "T\u1ec9nh Qu\u1ea3ng Tr\u1ecb", "title": "GMS SUSTAINABLE TOURISM DEVELOPMENT PROJECT", "status": "Implementation", "sectors": ["Industry and trade"]}, "type": "Feature", "geometry": {"coordinates": [107.0, 16.75], "type": "Point"}}, {"id": 5870, "properties": {"id": "46004-38015-013-GRNT0117", "locationName": "T\u1ec9nh Qu\u1ea3ng B\u00ecnh", "title": "GMS SUSTAINABLE TOURISM DEVELOPMENT PROJECT", "status": "Implementation", "sectors": ["Industry and trade"]}, "type": "Feature", "geometry": {"coordinates": [106.33333, 17.5], "type": "Point"}}, {"id": 5871, "properties": {"id": "46004-38015-013-GRNT0117", "locationName": "T\u1ec9nh Cao B\u1eb1ng", "title": "GMS SUSTAINABLE TOURISM DEVELOPMENT PROJECT", "status": "Implementation", "sectors": ["Industry and trade"]}, "type": "Feature", "geometry": {"coordinates": [106.08333, 22.75], "type": "Point"}}, {"id": 5872, "properties": {"id": "46004-38015-013-GRNT0117", "locationName": "H\u1ed3 Ba B\u1ec3", "title": "GMS SUSTAINABLE TOURISM DEVELOPMENT PROJECT", "status": "Implementation", "sectors": ["Industry and trade"]}, "type": "Feature", "geometry": {"coordinates": [105.6127, 22.41089], "type": "Point"}}, {"id": 5873, "properties": {"id": "46004-38015-013-GRNT0117", "locationName": "Xaignabouli", "title": "GMS SUSTAINABLE TOURISM DEVELOPMENT PROJECT", "status": "Implementation", "sectors": ["Industry and trade"]}, "type": "Feature", "geometry": {"coordinates": [101.5, 18.5], "type": "Point"}}, {"id": 5874, "properties": {"id": "46004-38015-013-GRNT0117", "locationName": "Vientiane Province", "title": "GMS SUSTAINABLE TOURISM DEVELOPMENT PROJECT", "status": "Implementation", "sectors": ["Industry and trade"]}, "type": "Feature", "geometry": {"coordinates": [102.41667, 18.75], "type": "Point"}}, {"id": 5875, "properties": {"id": "46004-38015-013-GRNT0117", "locationName": "Khoueng Savannakhet", "title": "GMS SUSTAINABLE TOURISM DEVELOPMENT PROJECT", "status": "Implementation", "sectors": ["Industry and trade"]}, "type": "Feature", "geometry": {"coordinates": [105.75, 16.5], "type": "Point"}}, {"id": 5876, "properties": {"id": "46004-38015-013-GRNT0117", "locationName": "Salavan", "title": "GMS SUSTAINABLE TOURISM DEVELOPMENT PROJECT", "status": "Implementation", "sectors": ["Industry and trade"]}, "type": "Feature", "geometry": {"coordinates": [106.25, 15.75], "type": "Point"}}, {"id": 5877, "properties": {"id": "46004-38015-013-GRNT0117", "locationName": "Khoueng Oudomxai", "title": "GMS SUSTAINABLE TOURISM DEVELOPMENT PROJECT", "status": "Implementation", "sectors": ["Industry and trade"]}, "type": "Feature", "geometry": {"coordinates": [101.5, 20.16667], "type": "Point"}}, {"id": 5878, "properties": {"id": "46004-38015-013-GRNT0117", "locationName": "Vangviang", "title": "GMS SUSTAINABLE TOURISM DEVELOPMENT PROJECT", "status": "Implementation", "sectors": ["Industry and trade"]}, "type": "Feature", "geometry": {"coordinates": [102.44784, 18.9235], "type": "Point"}}, {"id": 5879, "properties": {"id": "46004-38015-013-GRNT0117", "locationName": "Louangnamtha", "title": "GMS SUSTAINABLE TOURISM DEVELOPMENT PROJECT", "status": "Implementation", "sectors": ["Industry and trade"]}, "type": "Feature", "geometry": {"coordinates": [101.33333, 20.91667], "type": "Point"}}, {"id": 5880, "properties": {"id": "46004-38015-013-GRNT0117", "locationName": "Lao People's Democratic Republic", "title": "GMS SUSTAINABLE TOURISM DEVELOPMENT PROJECT", "status": "Implementation", "sectors": ["Industry and trade"]}, "type": "Feature", "geometry": {"coordinates": [105.0, 18.0], "type": "Point"}}, {"id": 5881, "properties": {"id": "46004-38015-013-GRNT0117", "locationName": "Houaphan", "title": "GMS SUSTAINABLE TOURISM DEVELOPMENT PROJECT", "status": "Implementation", "sectors": ["Industry and trade"]}, "type": "Feature", "geometry": {"coordinates": [104.0, 20.5], "type": "Point"}}, {"id": 5882, "properties": {"id": "46004-38015-013-GRNT0117", "locationName": "Champasak", "title": "GMS SUSTAINABLE TOURISM DEVELOPMENT PROJECT", "status": "Implementation", "sectors": ["Industry and trade"]}, "type": "Feature", "geometry": {"coordinates": [106.0, 14.75], "type": "Point"}}, {"id": 5883, "properties": {"id": "46004-38015-013-GRNT0117", "locationName": "Khoueng Bokeo", "title": "GMS SUSTAINABLE TOURISM DEVELOPMENT PROJECT", "status": "Implementation", "sectors": ["Industry and trade"]}, "type": "Feature", "geometry": {"coordinates": [100.5, 20.5], "type": "Point"}}, {"id": 5884, "properties": {"id": "46004-38015-013-GRNT0117", "locationName": "T\u1ec9nh B\u1eafc K\u1ea1n", "title": "GMS SUSTAINABLE TOURISM DEVELOPMENT PROJECT", "status": "Implementation", "sectors": ["Industry and trade"]}, "type": "Feature", "geometry": {"coordinates": [105.83333, 22.25], "type": "Point"}}, {"id": 5885, "properties": {"id": "46004-38015-013-GRNT0117", "locationName": "Ban Phimonsin", "title": "GMS SUSTAINABLE TOURISM DEVELOPMENT PROJECT", "status": "Implementation", "sectors": ["Industry and trade"]}, "type": "Feature", "geometry": {"coordinates": [100.57672, 20.38182], "type": "Point"}}, {"id": 5886, "properties": {"id": "46004-38015-013-GRNT0117", "locationName": "Phong Nha-Ke Bang National Park", "title": "GMS SUSTAINABLE TOURISM DEVELOPMENT PROJECT", "status": "Implementation", "sectors": ["Industry and trade"]}, "type": "Feature", "geometry": {"coordinates": [106.15, 17.53333], "type": "Point"}}, {"id": 5887, "properties": {"id": "46004-38015-013-GRNT0117", "locationName": "Ban Nakasang", "title": "GMS SUSTAINABLE TOURISM DEVELOPMENT PROJECT", "status": "Implementation", "sectors": ["Industry and trade"]}, "type": "Feature", "geometry": {"coordinates": [105.92254, 14.00378], "type": "Point"}}, {"id": 5888, "properties": {"id": "46004-38015-013-GRNT0117", "locationName": "Don Khon", "title": "GMS SUSTAINABLE TOURISM DEVELOPMENT PROJECT", "status": "Implementation", "sectors": ["Industry and trade"]}, "type": "Feature", "geometry": {"coordinates": [105.92601, 13.95518], "type": "Point"}}, {"id": 5889, "properties": {"id": "46004-36339-022-GRNT0143", "locationName": "Viangphoukha", "title": "SMALL TOWNS WATER SUPPLY AND SANITATION SECTOR PRO", "status": "Implementation", "sectors": ["Water supply and other urban infrastructure and services"]}, "type": "Feature", "geometry": {"coordinates": [101.06667, 20.68333], "type": "Point"}}, {"id": 5890, "properties": {"id": "46004-36339-022-GRNT0143", "locationName": "Nam Thuang", "title": "SMALL TOWNS WATER SUPPLY AND SANITATION SECTOR PRO", "status": "Implementation", "sectors": ["Water supply and other urban infrastructure and services"]}, "type": "Feature", "geometry": {"coordinates": [103.11993, 19.44748], "type": "Point"}}, {"id": 5891, "properties": {"id": "46004-36339-022-GRNT0143", "locationName": "Muang Songkhon", "title": "SMALL TOWNS WATER SUPPLY AND SANITATION SECTOR PRO", "status": "Implementation", "sectors": ["Water supply and other urban infrastructure and services"]}, "type": "Feature", "geometry": {"coordinates": [105.30729, 16.17116], "type": "Point"}}, {"id": 5892, "properties": {"id": "46004-36339-022-GRNT0143", "locationName": "Salavan", "title": "SMALL TOWNS WATER SUPPLY AND SANITATION SECTOR PRO", "status": "Implementation", "sectors": ["Water supply and other urban infrastructure and services"]}, "type": "Feature", "geometry": {"coordinates": [106.42172, 15.71677], "type": "Point"}}, {"id": 5893, "properties": {"id": "46004-36339-022-GRNT0143", "locationName": "Muang Pakxong", "title": "SMALL TOWNS WATER SUPPLY AND SANITATION SECTOR PRO", "status": "Implementation", "sectors": ["Water supply and other urban infrastructure and services"]}, "type": "Feature", "geometry": {"coordinates": [106.43398, 15.0981], "type": "Point"}}, {"id": 5894, "properties": {"id": "46004-36339-022-GRNT0143", "locationName": "Ban Nonghet", "title": "SMALL TOWNS WATER SUPPLY AND SANITATION SECTOR PRO", "status": "Implementation", "sectors": ["Water supply and other urban infrastructure and services"]}, "type": "Feature", "geometry": {"coordinates": [103.98596, 19.49606], "type": "Point"}}, {"id": 5895, "properties": {"id": "46004-36339-022-GRNT0143", "locationName": "Ban Muang-Et", "title": "SMALL TOWNS WATER SUPPLY AND SANITATION SECTOR PRO", "status": "Implementation", "sectors": ["Water supply and other urban infrastructure and services"]}, "type": "Feature", "geometry": {"coordinates": [104.00364, 20.81749], "type": "Point"}}, {"id": 5896, "properties": {"id": "46004-36339-022-GRNT0143", "locationName": "Ban Xiangkho", "title": "SMALL TOWNS WATER SUPPLY AND SANITATION SECTOR PRO", "status": "Implementation", "sectors": ["Water supply and other urban infrastructure and services"]}, "type": "Feature", "geometry": {"coordinates": [104.14731, 20.81409], "type": "Point"}}, {"id": 5897, "properties": {"id": "46004-36339-022-GRNT0143", "locationName": "Muang Xepon", "title": "SMALL TOWNS WATER SUPPLY AND SANITATION SECTOR PRO", "status": "Implementation", "sectors": ["Water supply and other urban infrastructure and services"]}, "type": "Feature", "geometry": {"coordinates": [106.2393, 16.68202], "type": "Point"}}, {"id": 5898, "properties": {"id": "46004-36339-022-GRNT0143", "locationName": "Vangviang", "title": "SMALL TOWNS WATER SUPPLY AND SANITATION SECTOR PRO", "status": "Implementation", "sectors": ["Water supply and other urban infrastructure and services"]}, "type": "Feature", "geometry": {"coordinates": [102.44784, 18.9235], "type": "Point"}}, {"id": 5899, "properties": {"id": "46004-36339-022-GRNT0143", "locationName": "Thateng", "title": "SMALL TOWNS WATER SUPPLY AND SANITATION SECTOR PRO", "status": "Implementation", "sectors": ["Water supply and other urban infrastructure and services"]}, "type": "Feature", "geometry": {"coordinates": [106.38346, 15.43499], "type": "Point"}}, {"id": 5900, "properties": {"id": "46004-36339-022-GRNT0143", "locationName": "Muang Pakbeng", "title": "SMALL TOWNS WATER SUPPLY AND SANITATION SECTOR PRO", "status": "Implementation", "sectors": ["Water supply and other urban infrastructure and services"]}, "type": "Feature", "geometry": {"coordinates": [101.13647, 19.8929], "type": "Point"}}, {"id": 5901, "properties": {"id": "46004-36339-022-GRNT0143", "locationName": "Muang Kasi", "title": "SMALL TOWNS WATER SUPPLY AND SANITATION SECTOR PRO", "status": "Implementation", "sectors": ["Water supply and other urban infrastructure and services"]}, "type": "Feature", "geometry": {"coordinates": [102.25319, 19.22926], "type": "Point"}}, {"id": 5902, "properties": {"id": "46004-36339-022-GRNT0143", "locationName": "Ban Boten", "title": "SMALL TOWNS WATER SUPPLY AND SANITATION SECTOR PRO", "status": "Implementation", "sectors": ["Water supply and other urban infrastructure and services"]}, "type": "Feature", "geometry": {"coordinates": [101.18492, 17.59564], "type": "Point"}}, {"id": 5903, "properties": {"id": "46004-36339-022-GRNT0143", "locationName": "Muang Lakhonpheng", "title": "SMALL TOWNS WATER SUPPLY AND SANITATION SECTOR PRO", "status": "Implementation", "sectors": ["Water supply and other urban infrastructure and services"]}, "type": "Feature", "geometry": {"coordinates": [105.59745, 15.83308], "type": "Point"}}, {"id": 5904, "properties": {"id": "46004-36339-022-GRNT0143", "locationName": "Champasak", "title": "SMALL TOWNS WATER SUPPLY AND SANITATION SECTOR PRO", "status": "Implementation", "sectors": ["Water supply and other urban infrastructure and services"]}, "type": "Feature", "geometry": {"coordinates": [106.0, 14.75], "type": "Point"}}, {"id": 5905, "properties": {"id": "46004-36339-022-GRNT0143", "locationName": "Ban Songkhon", "title": "SMALL TOWNS WATER SUPPLY AND SANITATION SECTOR PRO", "status": "Implementation", "sectors": ["Water supply and other urban infrastructure and services"]}, "type": "Feature", "geometry": {"coordinates": [104.23638, 18.62618], "type": "Point"}}, {"id": 5906, "properties": {"id": "46004-36339-022-GRNT0143", "locationName": "Ban Houayxay", "title": "SMALL TOWNS WATER SUPPLY AND SANITATION SECTOR PRO", "status": "Implementation", "sectors": ["Water supply and other urban infrastructure and services"]}, "type": "Feature", "geometry": {"coordinates": [100.43366, 20.26332], "type": "Point"}}, {"id": 5907, "properties": {"id": "46004-36339-022-GRNT0143", "locationName": "Muang Khop", "title": "SMALL TOWNS WATER SUPPLY AND SANITATION SECTOR PRO", "status": "Implementation", "sectors": ["Water supply and other urban infrastructure and services"]}, "type": "Feature", "geometry": {"coordinates": [100.56103, 19.66457], "type": "Point"}}, {"id": 5908, "properties": {"id": "46004-36339-022-GRNT0143", "locationName": "Muang Pha Oudom", "title": "SMALL TOWNS WATER SUPPLY AND SANITATION SECTOR PRO", "status": "Implementation", "sectors": ["Water supply and other urban infrastructure and services"]}, "type": "Feature", "geometry": {"coordinates": [100.926, 20.18744], "type": "Point"}}, {"id": 5909, "properties": {"id": "46004-36339-022-GRNT0143", "locationName": "Muang Long", "title": "SMALL TOWNS WATER SUPPLY AND SANITATION SECTOR PRO", "status": "Implementation", "sectors": ["Water supply and other urban infrastructure and services"]}, "type": "Feature", "geometry": {"coordinates": [100.83104, 20.98503], "type": "Point"}}, {"id": 5910, "properties": {"id": "46004-36339-022-GRNT0143", "locationName": "Xaysetha", "title": "SMALL TOWNS WATER SUPPLY AND SANITATION SECTOR PRO", "status": "Implementation", "sectors": ["Water supply and other urban infrastructure and services"]}, "type": "Feature", "geometry": {"coordinates": [106.93444, 14.81444], "type": "Point"}}, {"id": 5911, "properties": {"id": "46004-37579-032-GRNT0144", "locationName": "Khoueng Savannakhet", "title": "SUSTAINABLE NATURAL RESOURCE MGMNT & PRODUCTIVITY", "status": "Implementation", "sectors": ["Agriculture, natural resources and rural development"]}, "type": "Feature", "geometry": {"coordinates": [105.75, 16.5], "type": "Point"}}, {"id": 5912, "properties": {"id": "46004-37579-032-GRNT0144", "locationName": "Salavan", "title": "SUSTAINABLE NATURAL RESOURCE MGMNT & PRODUCTIVITY", "status": "Implementation", "sectors": ["Agriculture, natural resources and rural development"]}, "type": "Feature", "geometry": {"coordinates": [106.25, 15.75], "type": "Point"}}, {"id": 5913, "properties": {"id": "46004-37579-032-GRNT0144", "locationName": "Lao People's Democratic Republic", "title": "SUSTAINABLE NATURAL RESOURCE MGMNT & PRODUCTIVITY", "status": "Implementation", "sectors": ["Agriculture, natural resources and rural development"]}, "type": "Feature", "geometry": {"coordinates": [105.0, 18.0], "type": "Point"}}, {"id": 5914, "properties": {"id": "46004-37579-032-GRNT0144", "locationName": "Champasak", "title": "SUSTAINABLE NATURAL RESOURCE MGMNT & PRODUCTIVITY", "status": "Implementation", "sectors": ["Agriculture, natural resources and rural development"]}, "type": "Feature", "geometry": {"coordinates": [106.0, 14.75], "type": "Point"}}, {"id": 5915, "properties": {"id": "46004-37579-032-GRNT0144", "locationName": "Attapu", "title": "SUSTAINABLE NATURAL RESOURCE MGMNT & PRODUCTIVITY", "status": "Implementation", "sectors": ["Agriculture, natural resources and rural development"]}, "type": "Feature", "geometry": {"coordinates": [107.0, 14.66667], "type": "Point"}}, {"id": 5916, "properties": {"id": "46004-37579-032-GRNT0144", "locationName": "Khoueng Xekong", "title": "SUSTAINABLE NATURAL RESOURCE MGMNT & PRODUCTIVITY", "status": "Implementation", "sectors": ["Agriculture, natural resources and rural development"]}, "type": "Feature", "geometry": {"coordinates": [107.0, 15.5], "type": "Point"}}, {"id": 5917, "properties": {"id": "46004-42134-022-GRNT0166", "locationName": "Vientiane", "title": "STRENGTHENING HIGHER EDUCATION PROJECT", "status": "Implementation", "sectors": ["Education"]}, "type": "Feature", "geometry": {"coordinates": [102.6, 17.96667], "type": "Point"}}, {"id": 5918, "properties": {"id": "46004-42134-022-GRNT0166", "locationName": "Pakxe", "title": "STRENGTHENING HIGHER EDUCATION PROJECT", "status": "Implementation", "sectors": ["Education"]}, "type": "Feature", "geometry": {"coordinates": [105.79898, 15.12022], "type": "Point"}}, {"id": 5919, "properties": {"id": "46004-42134-022-GRNT0166", "locationName": "Louangphabang", "title": "STRENGTHENING HIGHER EDUCATION PROJECT", "status": "Implementation", "sectors": ["Education"]}, "type": "Feature", "geometry": {"coordinates": [102.13503, 19.88601], "type": "Point"}}, {"id": 5920, "properties": {"id": "46004-42134-022-GRNT0166", "locationName": "Lao People's Democratic Republic", "title": "STRENGTHENING HIGHER EDUCATION PROJECT", "status": "Implementation", "sectors": ["Education"]}, "type": "Feature", "geometry": {"coordinates": [105.0, 18.0], "type": "Point"}}, {"id": 5921, "properties": {"id": "46004-41376-022-GRNT0172", "locationName": "Vientiane", "title": "HEALTH SECTOR DEVELOPMENT PROGRAM", "status": "Completion", "sectors": ["Health"]}, "type": "Feature", "geometry": {"coordinates": [102.6, 17.96667], "type": "Point"}}, {"id": 5922, "properties": {"id": "46004-41376-022-GRNT0172", "locationName": "Xiangkhouang", "title": "HEALTH SECTOR DEVELOPMENT PROGRAM", "status": "Completion", "sectors": ["Health"]}, "type": "Feature", "geometry": {"coordinates": [103.5, 19.41667], "type": "Point"}}, {"id": 5923, "properties": {"id": "46004-41376-022-GRNT0172", "locationName": "Xaignabouli", "title": "HEALTH SECTOR DEVELOPMENT PROGRAM", "status": "Completion", "sectors": ["Health"]}, "type": "Feature", "geometry": {"coordinates": [101.5, 18.5], "type": "Point"}}, {"id": 5924, "properties": {"id": "46004-41376-022-GRNT0172", "locationName": "Vientiane Province", "title": "HEALTH SECTOR DEVELOPMENT PROGRAM", "status": "Completion", "sectors": ["Health"]}, "type": "Feature", "geometry": {"coordinates": [102.41667, 18.75], "type": "Point"}}, {"id": 5925, "properties": {"id": "46004-41376-022-GRNT0172", "locationName": "Khoueng Savannakhet", "title": "HEALTH SECTOR DEVELOPMENT PROGRAM", "status": "Completion", "sectors": ["Health"]}, "type": "Feature", "geometry": {"coordinates": [105.75, 16.5], "type": "Point"}}, {"id": 5926, "properties": {"id": "46004-41376-022-GRNT0172", "locationName": "Salavan", "title": "HEALTH SECTOR DEVELOPMENT PROGRAM", "status": "Completion", "sectors": ["Health"]}, "type": "Feature", "geometry": {"coordinates": [106.25, 15.75], "type": "Point"}}, {"id": 5927, "properties": {"id": "46004-41376-022-GRNT0172", "locationName": "Khoueng Phongsali", "title": "HEALTH SECTOR DEVELOPMENT PROGRAM", "status": "Completion", "sectors": ["Health"]}, "type": "Feature", "geometry": {"coordinates": [102.33333, 21.75], "type": "Point"}}, {"id": 5928, "properties": {"id": "46004-41376-022-GRNT0172", "locationName": "Khoueng Oudomxai", "title": "HEALTH SECTOR DEVELOPMENT PROGRAM", "status": "Completion", "sectors": ["Health"]}, "type": "Feature", "geometry": {"coordinates": [101.5, 20.16667], "type": "Point"}}, {"id": 5929, "properties": {"id": "46004-41376-022-GRNT0172", "locationName": "Luang Prabang Province", "title": "HEALTH SECTOR DEVELOPMENT PROGRAM", "status": "Completion", "sectors": ["Health"]}, "type": "Feature", "geometry": {"coordinates": [102.66667, 20.25], "type": "Point"}}, {"id": 5930, "properties": {"id": "46004-41376-022-GRNT0172", "locationName": "Louangnamtha", "title": "HEALTH SECTOR DEVELOPMENT PROGRAM", "status": "Completion", "sectors": ["Health"]}, "type": "Feature", "geometry": {"coordinates": [101.33333, 20.91667], "type": "Point"}}, {"id": 5931, "properties": {"id": "46004-41376-022-GRNT0172", "locationName": "Khammouan", "title": "HEALTH SECTOR DEVELOPMENT PROGRAM", "status": "Completion", "sectors": ["Health"]}, "type": "Feature", "geometry": {"coordinates": [105.33333, 17.5], "type": "Point"}}, {"id": 5932, "properties": {"id": "46004-41376-022-GRNT0172", "locationName": "Houaphan", "title": "HEALTH SECTOR DEVELOPMENT PROGRAM", "status": "Completion", "sectors": ["Health"]}, "type": "Feature", "geometry": {"coordinates": [104.0, 20.5], "type": "Point"}}, {"id": 5933, "properties": {"id": "46004-41376-022-GRNT0172", "locationName": "Champasak", "title": "HEALTH SECTOR DEVELOPMENT PROGRAM", "status": "Completion", "sectors": ["Health"]}, "type": "Feature", "geometry": {"coordinates": [106.0, 14.75], "type": "Point"}}, {"id": 5934, "properties": {"id": "46004-41376-022-GRNT0172", "locationName": "Attapu", "title": "HEALTH SECTOR DEVELOPMENT PROGRAM", "status": "Completion", "sectors": ["Health"]}, "type": "Feature", "geometry": {"coordinates": [107.0, 14.66667], "type": "Point"}}, {"id": 5935, "properties": {"id": "46004-41376-022-GRNT0172", "locationName": "Khoueng Xekong", "title": "HEALTH SECTOR DEVELOPMENT PROGRAM", "status": "Completion", "sectors": ["Health"]}, "type": "Feature", "geometry": {"coordinates": [107.0, 15.5], "type": "Point"}}, {"id": 5936, "properties": {"id": "46004-41376-022-GRNT0172", "locationName": "Khoueng Bokeo", "title": "HEALTH SECTOR DEVELOPMENT PROGRAM", "status": "Completion", "sectors": ["Health"]}, "type": "Feature", "geometry": {"coordinates": [100.5, 20.5], "type": "Point"}}, {"id": 5937, "properties": {"id": "46004-41376-022-GRNT0172", "locationName": "Bolikhamxai", "title": "HEALTH SECTOR DEVELOPMENT PROGRAM", "status": "Completion", "sectors": ["Health"]}, "type": "Feature", "geometry": {"coordinates": [104.33333, 18.5], "type": "Point"}}, {"id": 5938, "properties": {"id": "46004-41376-022-GRNT0172", "locationName": "Vientiane Prefecture", "title": "HEALTH SECTOR DEVELOPMENT PROGRAM", "status": "Completion", "sectors": ["Health"]}, "type": "Feature", "geometry": {"coordinates": [102.66667, 18.08333], "type": "Point"}}, {"id": 5939, "properties": {"id": "46004-41376-022-GRNT0173", "locationName": "Vientiane", "title": "HEALTH SECTOR DEVELOPMENT PROGRAM - PROJECT GRANT", "status": "Implementation", "sectors": ["Health"]}, "type": "Feature", "geometry": {"coordinates": [102.6, 17.96667], "type": "Point"}}, {"id": 5940, "properties": {"id": "46004-41376-022-GRNT0173", "locationName": "Xiangkhouang", "title": "HEALTH SECTOR DEVELOPMENT PROGRAM - PROJECT GRANT", "status": "Implementation", "sectors": ["Health"]}, "type": "Feature", "geometry": {"coordinates": [103.5, 19.41667], "type": "Point"}}, {"id": 5941, "properties": {"id": "46004-41376-022-GRNT0173", "locationName": "Xaignabouli", "title": "HEALTH SECTOR DEVELOPMENT PROGRAM - PROJECT GRANT", "status": "Implementation", "sectors": ["Health"]}, "type": "Feature", "geometry": {"coordinates": [101.5, 18.5], "type": "Point"}}, {"id": 5942, "properties": {"id": "46004-41376-022-GRNT0173", "locationName": "Vientiane Province", "title": "HEALTH SECTOR DEVELOPMENT PROGRAM - PROJECT GRANT", "status": "Implementation", "sectors": ["Health"]}, "type": "Feature", "geometry": {"coordinates": [102.41667, 18.75], "type": "Point"}}, {"id": 5943, "properties": {"id": "46004-41376-022-GRNT0173", "locationName": "Khoueng Savannakhet", "title": "HEALTH SECTOR DEVELOPMENT PROGRAM - PROJECT GRANT", "status": "Implementation", "sectors": ["Health"]}, "type": "Feature", "geometry": {"coordinates": [105.75, 16.5], "type": "Point"}}, {"id": 5944, "properties": {"id": "46004-41376-022-GRNT0173", "locationName": "Salavan", "title": "HEALTH SECTOR DEVELOPMENT PROGRAM - PROJECT GRANT", "status": "Implementation", "sectors": ["Health"]}, "type": "Feature", "geometry": {"coordinates": [106.25, 15.75], "type": "Point"}}, {"id": 5945, "properties": {"id": "46004-41376-022-GRNT0173", "locationName": "Khoueng Phongsali", "title": "HEALTH SECTOR DEVELOPMENT PROGRAM - PROJECT GRANT", "status": "Implementation", "sectors": ["Health"]}, "type": "Feature", "geometry": {"coordinates": [102.33333, 21.75], "type": "Point"}}, {"id": 5946, "properties": {"id": "46004-41376-022-GRNT0173", "locationName": "Khoueng Oudomxai", "title": "HEALTH SECTOR DEVELOPMENT PROGRAM - PROJECT GRANT", "status": "Implementation", "sectors": ["Health"]}, "type": "Feature", "geometry": {"coordinates": [101.5, 20.16667], "type": "Point"}}, {"id": 5947, "properties": {"id": "46004-41376-022-GRNT0173", "locationName": "Luang Prabang Province", "title": "HEALTH SECTOR DEVELOPMENT PROGRAM - PROJECT GRANT", "status": "Implementation", "sectors": ["Health"]}, "type": "Feature", "geometry": {"coordinates": [102.66667, 20.25], "type": "Point"}}, {"id": 5948, "properties": {"id": "46004-41376-022-GRNT0173", "locationName": "Louangnamtha", "title": "HEALTH SECTOR DEVELOPMENT PROGRAM - PROJECT GRANT", "status": "Implementation", "sectors": ["Health"]}, "type": "Feature", "geometry": {"coordinates": [101.33333, 20.91667], "type": "Point"}}, {"id": 5949, "properties": {"id": "46004-41376-022-GRNT0173", "locationName": "Khammouan", "title": "HEALTH SECTOR DEVELOPMENT PROGRAM - PROJECT GRANT", "status": "Implementation", "sectors": ["Health"]}, "type": "Feature", "geometry": {"coordinates": [105.33333, 17.5], "type": "Point"}}, {"id": 5950, "properties": {"id": "46004-41376-022-GRNT0173", "locationName": "Houaphan", "title": "HEALTH SECTOR DEVELOPMENT PROGRAM - PROJECT GRANT", "status": "Implementation", "sectors": ["Health"]}, "type": "Feature", "geometry": {"coordinates": [104.0, 20.5], "type": "Point"}}, {"id": 5951, "properties": {"id": "46004-41376-022-GRNT0173", "locationName": "Champasak", "title": "HEALTH SECTOR DEVELOPMENT PROGRAM - PROJECT GRANT", "status": "Implementation", "sectors": ["Health"]}, "type": "Feature", "geometry": {"coordinates": [106.0, 14.75], "type": "Point"}}, {"id": 5952, "properties": {"id": "46004-41376-022-GRNT0173", "locationName": "Attapu", "title": "HEALTH SECTOR DEVELOPMENT PROGRAM - PROJECT GRANT", "status": "Implementation", "sectors": ["Health"]}, "type": "Feature", "geometry": {"coordinates": [107.0, 14.66667], "type": "Point"}}, {"id": 5953, "properties": {"id": "46004-41376-022-GRNT0173", "locationName": "Khoueng Xekong", "title": "HEALTH SECTOR DEVELOPMENT PROGRAM - PROJECT GRANT", "status": "Implementation", "sectors": ["Health"]}, "type": "Feature", "geometry": {"coordinates": [107.0, 15.5], "type": "Point"}}, {"id": 5954, "properties": {"id": "46004-41376-022-GRNT0173", "locationName": "Khoueng Bokeo", "title": "HEALTH SECTOR DEVELOPMENT PROGRAM - PROJECT GRANT", "status": "Implementation", "sectors": ["Health"]}, "type": "Feature", "geometry": {"coordinates": [100.5, 20.5], "type": "Point"}}, {"id": 5955, "properties": {"id": "46004-41376-022-GRNT0173", "locationName": "Bolikhamxai", "title": "HEALTH SECTOR DEVELOPMENT PROGRAM - PROJECT GRANT", "status": "Implementation", "sectors": ["Health"]}, "type": "Feature", "geometry": {"coordinates": [104.33333, 18.5], "type": "Point"}}, {"id": 5956, "properties": {"id": "46004-41376-022-GRNT0173", "locationName": "Vientiane Prefecture", "title": "HEALTH SECTOR DEVELOPMENT PROGRAM - PROJECT GRANT", "status": "Implementation", "sectors": ["Health"]}, "type": "Feature", "geometry": {"coordinates": [102.66667, 18.08333], "type": "Point"}}, {"id": 5957, "properties": {"id": "46004-38628-022-GRNT0195", "locationName": "Muang Xaignabouli", "title": "GREATER MEKONG SUBREGION NORTHERN POWER TRANSMISSI", "status": "Implementation", "sectors": ["Energy"]}, "type": "Feature", "geometry": {"coordinates": [101.59536, 19.3229], "type": "Point"}}, {"id": 5958, "properties": {"id": "46004-38628-022-GRNT0195", "locationName": "Xaignabouli", "title": "GREATER MEKONG SUBREGION NORTHERN POWER TRANSMISSI", "status": "Implementation", "sectors": ["Energy"]}, "type": "Feature", "geometry": {"coordinates": [101.5, 18.5], "type": "Point"}}, {"id": 5959, "properties": {"id": "46004-38628-022-GRNT0195", "locationName": "Vientiane Province", "title": "GREATER MEKONG SUBREGION NORTHERN POWER TRANSMISSI", "status": "Implementation", "sectors": ["Energy"]}, "type": "Feature", "geometry": {"coordinates": [102.41667, 18.75], "type": "Point"}}, {"id": 5960, "properties": {"id": "46004-38628-022-GRNT0195", "locationName": "Khoueng Phongsali", "title": "GREATER MEKONG SUBREGION NORTHERN POWER TRANSMISSI", "status": "Implementation", "sectors": ["Energy"]}, "type": "Feature", "geometry": {"coordinates": [102.33333, 21.75], "type": "Point"}}, {"id": 5961, "properties": {"id": "46004-38628-022-GRNT0195", "locationName": "Muang Pek", "title": "GREATER MEKONG SUBREGION NORTHERN POWER TRANSMISSI", "status": "Implementation", "sectors": ["Energy"]}, "type": "Feature", "geometry": {"coordinates": [103.27385, 19.51372], "type": "Point"}}, {"id": 5962, "properties": {"id": "46004-38628-022-GRNT0195", "locationName": "Nam O", "title": "GREATER MEKONG SUBREGION NORTHERN POWER TRANSMISSI", "status": "Implementation", "sectors": ["Energy"]}, "type": "Feature", "geometry": {"coordinates": [103.48333, 19.53333], "type": "Point"}}, {"id": 5963, "properties": {"id": "46004-38628-022-GRNT0195", "locationName": "Sainyabuli", "title": "GREATER MEKONG SUBREGION NORTHERN POWER TRANSMISSI", "status": "Implementation", "sectors": ["Energy"]}, "type": "Feature", "geometry": {"coordinates": [101.71032, 19.25756], "type": "Point"}}, {"id": 5964, "properties": {"id": "46004-38628-022-GRNT0195", "locationName": "Muang Paklay", "title": "GREATER MEKONG SUBREGION NORTHERN POWER TRANSMISSI", "status": "Implementation", "sectors": ["Energy"]}, "type": "Feature", "geometry": {"coordinates": [101.40888, 18.21609], "type": "Point"}}, {"id": 5965, "properties": {"id": "46004-38628-022-GRNT0195", "locationName": "Muang Kenthao", "title": "GREATER MEKONG SUBREGION NORTHERN POWER TRANSMISSI", "status": "Implementation", "sectors": ["Energy"]}, "type": "Feature", "geometry": {"coordinates": [101.39925, 17.73449], "type": "Point"}}, {"id": 5966, "properties": {"id": "46004-38628-022-GRNT0195", "locationName": "Lao People's Democratic Republic", "title": "GREATER MEKONG SUBREGION NORTHERN POWER TRANSMISSI", "status": "Implementation", "sectors": ["Energy"]}, "type": "Feature", "geometry": {"coordinates": [105.0, 18.0], "type": "Point"}}, {"id": 5967, "properties": {"id": "46004-38628-022-GRNT0195", "locationName": "Muang Khamkeut", "title": "GREATER MEKONG SUBREGION NORTHERN POWER TRANSMISSI", "status": "Implementation", "sectors": ["Energy"]}, "type": "Feature", "geometry": {"coordinates": [104.92141, 18.35234], "type": "Point"}}, {"id": 5968, "properties": {"id": "46004-38628-022-GRNT0195", "locationName": "Ban Boun-Nua", "title": "GREATER MEKONG SUBREGION NORTHERN POWER TRANSMISSI", "status": "Implementation", "sectors": ["Energy"]}, "type": "Feature", "geometry": {"coordinates": [101.90325, 21.63556], "type": "Point"}}, {"id": 5969, "properties": {"id": "46004-38628-022-GRNT0195", "locationName": "Muang Kenthao", "title": "GREATER MEKONG SUBREGION NORTHERN POWER TRANSMISSI", "status": "Implementation", "sectors": ["Energy"]}, "type": "Feature", "geometry": {"coordinates": [101.31866, 18.03359], "type": "Point"}}, {"id": 5970, "properties": {"id": "46004-38628-022-GRNT0195", "locationName": "Muang Boun-Nua", "title": "GREATER MEKONG SUBREGION NORTHERN POWER TRANSMISSI", "status": "Implementation", "sectors": ["Energy"]}, "type": "Feature", "geometry": {"coordinates": [101.89396, 21.66787], "type": "Point"}}, {"id": 5971, "properties": {"id": "46004-34197-042-GRNT0205", "locationName": "Nam O", "title": "NORTHERN&CENTRAL REGIONS WATER SUPPLY & SANITATION", "status": "Completion", "sectors": ["Water supply and other urban infrastructure and services"]}, "type": "Feature", "geometry": {"coordinates": [103.48333, 19.53333], "type": "Point"}}, {"id": 5972, "properties": {"id": "46004-34197-042-GRNT0205", "locationName": "Muang Sing", "title": "NORTHERN&CENTRAL REGIONS WATER SUPPLY & SANITATION", "status": "Completion", "sectors": ["Water supply and other urban infrastructure and services"]}, "type": "Feature", "geometry": {"coordinates": [101.14823, 21.19242], "type": "Point"}}, {"id": 5973, "properties": {"id": "46004-34197-042-GRNT0205", "locationName": "Muang Ngoy", "title": "NORTHERN&CENTRAL REGIONS WATER SUPPLY & SANITATION", "status": "Completion", "sectors": ["Water supply and other urban infrastructure and services"]}, "type": "Feature", "geometry": {"coordinates": [102.68333, 20.71667], "type": "Point"}}, {"id": 5974, "properties": {"id": "46004-34197-042-GRNT0205", "locationName": "Ban Muang-Nan", "title": "NORTHERN&CENTRAL REGIONS WATER SUPPLY & SANITATION", "status": "Completion", "sectors": ["Water supply and other urban infrastructure and services"]}, "type": "Feature", "geometry": {"coordinates": [101.87979, 19.49767], "type": "Point"}}, {"id": 5975, "properties": {"id": "46004-34197-042-GRNT0205", "locationName": "Muang K\u00e8nthao", "title": "NORTHERN&CENTRAL REGIONS WATER SUPPLY & SANITATION", "status": "Completion", "sectors": ["Water supply and other urban infrastructure and services"]}, "type": "Feature", "geometry": {"coordinates": [101.39925, 17.73449], "type": "Point"}}, {"id": 5976, "properties": {"id": "46004-34197-042-GRNT0205", "locationName": "Muang Houn", "title": "NORTHERN&CENTRAL REGIONS WATER SUPPLY & SANITATION", "status": "Completion", "sectors": ["Water supply and other urban infrastructure and services"]}, "type": "Feature", "geometry": {"coordinates": [101.45944, 20.14712], "type": "Point"}}, {"id": 5977, "properties": {"id": "46004-34197-042-GRNT0205", "locationName": "Louang Namtha", "title": "NORTHERN&CENTRAL REGIONS WATER SUPPLY & SANITATION", "status": "Completion", "sectors": ["Water supply and other urban infrastructure and services"]}, "type": "Feature", "geometry": {"coordinates": [101.40188, 20.9486], "type": "Point"}}, {"id": 5978, "properties": {"id": "46004-34197-042-GRNT0205", "locationName": "Ban Namkeung-Kao", "title": "NORTHERN&CENTRAL REGIONS WATER SUPPLY & SANITATION", "status": "Completion", "sectors": ["Water supply and other urban infrastructure and services"]}, "type": "Feature", "geometry": {"coordinates": [100.25871, 20.40296], "type": "Point"}}, {"id": 5979, "properties": {"id": "46004-34197-042-GRNT0205", "locationName": "Muang K\u00e8o-Oud\u00f4m", "title": "NORTHERN&CENTRAL REGIONS WATER SUPPLY & SANITATION", "status": "Completion", "sectors": ["Water supply and other urban infrastructure and services"]}, "type": "Feature", "geometry": {"coordinates": [102.56856, 18.56926], "type": "Point"}}, {"id": 5980, "properties": {"id": "46004-34197-042-GRNT0205", "locationName": "Muang Khoun", "title": "NORTHERN&CENTRAL REGIONS WATER SUPPLY & SANITATION", "status": "Completion", "sectors": ["Water supply and other urban infrastructure and services"]}, "type": "Feature", "geometry": {"coordinates": [103.50898, 19.27979], "type": "Point"}}, {"id": 5981, "properties": {"id": "46004-34197-042-GRNT0205", "locationName": "Xamtay", "title": "NORTHERN&CENTRAL REGIONS WATER SUPPLY & SANITATION", "status": "Completion", "sectors": ["Water supply and other urban infrastructure and services"]}, "type": "Feature", "geometry": {"coordinates": [104.51722, 19.94515], "type": "Point"}}, {"id": 5982, "properties": {"id": "46004-34197-042-GRNT0205", "locationName": "Xanakham", "title": "NORTHERN&CENTRAL REGIONS WATER SUPPLY & SANITATION", "status": "Completion", "sectors": ["Water supply and other urban infrastructure and services"]}, "type": "Feature", "geometry": {"coordinates": [101.6795, 17.91308], "type": "Point"}}, {"id": 5983, "properties": {"id": "46004-42278-022-GRNT0211", "locationName": "Vientiane", "title": "STRENGHTENING TECHNICAL AND VOCATIONAL EDUCATION A", "status": "Implementation", "sectors": ["Education"]}, "type": "Feature", "geometry": {"coordinates": [102.6, 17.96667], "type": "Point"}}, {"id": 5984, "properties": {"id": "46004-42278-022-GRNT0211", "locationName": "Vientiane Province", "title": "STRENGHTENING TECHNICAL AND VOCATIONAL EDUCATION A", "status": "Implementation", "sectors": ["Education"]}, "type": "Feature", "geometry": {"coordinates": [102.41667, 18.75], "type": "Point"}}, {"id": 5985, "properties": {"id": "46004-42278-022-GRNT0211", "locationName": "Khoueng Savannakhet", "title": "STRENGHTENING TECHNICAL AND VOCATIONAL EDUCATION A", "status": "Implementation", "sectors": ["Education"]}, "type": "Feature", "geometry": {"coordinates": [105.75, 16.5], "type": "Point"}}, {"id": 5986, "properties": {"id": "46004-42278-022-GRNT0211", "locationName": "Luang Prabang Province", "title": "STRENGHTENING TECHNICAL AND VOCATIONAL EDUCATION A", "status": "Implementation", "sectors": ["Education"]}, "type": "Feature", "geometry": {"coordinates": [102.66667, 20.25], "type": "Point"}}, {"id": 5987, "properties": {"id": "46004-42278-022-GRNT0211", "locationName": "Champasak", "title": "STRENGHTENING TECHNICAL AND VOCATIONAL EDUCATION A", "status": "Implementation", "sectors": ["Education"]}, "type": "Feature", "geometry": {"coordinates": [106.0, 14.75], "type": "Point"}}, {"id": 5988, "properties": {"id": "46004-35297-013-LN2259", "locationName": "Xiangkhouang", "title": "NORTHERN REGION SUSTAINABLE LIVELIHOODS THRU LIVESTOCK DEVT PROJ", "status": "Completion", "sectors": ["Agriculture, natural resources and rural development"]}, "type": "Feature", "geometry": {"coordinates": [103.5, 19.41667], "type": "Point"}}, {"id": 5989, "properties": {"id": "46004-35297-013-LN2259", "locationName": "Luang Prabang Province", "title": "NORTHERN REGION SUSTAINABLE LIVELIHOODS THRU LIVESTOCK DEVT PROJ", "status": "Completion", "sectors": ["Agriculture, natural resources and rural development"]}, "type": "Feature", "geometry": {"coordinates": [102.66667, 20.25], "type": "Point"}}, {"id": 5990, "properties": {"id": "46004-35297-013-LN2259", "locationName": "Louangnamtha", "title": "NORTHERN REGION SUSTAINABLE LIVELIHOODS THRU LIVESTOCK DEVT PROJ", "status": "Completion", "sectors": ["Agriculture, natural resources and rural development"]}, "type": "Feature", "geometry": {"coordinates": [101.33333, 20.91667], "type": "Point"}}, {"id": 5991, "properties": {"id": "46004-35297-013-LN2259", "locationName": "Houaphan", "title": "NORTHERN REGION SUSTAINABLE LIVELIHOODS THRU LIVESTOCK DEVT PROJ", "status": "Completion", "sectors": ["Agriculture, natural resources and rural development"]}, "type": "Feature", "geometry": {"coordinates": [104.0, 20.5], "type": "Point"}}, {"id": 5992, "properties": {"id": "46004-35297-013-LN2259", "locationName": "Khoueng Bokeo", "title": "NORTHERN REGION SUSTAINABLE LIVELIHOODS THRU LIVESTOCK DEVT PROJ", "status": "Completion", "sectors": ["Agriculture, natural resources and rural development"]}, "type": "Feature", "geometry": {"coordinates": [100.5, 20.5], "type": "Point"}}, {"id": 5993, "properties": {"id": "46004-32312-013-LN2306", "locationName": "Khou\u00e8ng Savannakh\u00e9t", "title": "BASIC EDUCATION SECTOR DEVELOPMENT PROJECT", "status": "Completion", "sectors": ["Education"]}, "type": "Feature", "geometry": {"coordinates": [105.75, 16.5], "type": "Point"}}, {"id": 5994, "properties": {"id": "46004-32312-013-LN2306", "locationName": "Louangnamtha", "title": "BASIC EDUCATION SECTOR DEVELOPMENT PROJECT", "status": "Completion", "sectors": ["Education"]}, "type": "Feature", "geometry": {"coordinates": [101.33333, 20.91667], "type": "Point"}}, {"id": 5995, "properties": {"id": "46004-32312-013-LN2306", "locationName": "Khammouan", "title": "BASIC EDUCATION SECTOR DEVELOPMENT PROJECT", "status": "Completion", "sectors": ["Education"]}, "type": "Feature", "geometry": {"coordinates": [105.33333, 17.5], "type": "Point"}}, {"id": 5996, "properties": {"id": "46004-32312-013-LN2306", "locationName": "Champasak", "title": "BASIC EDUCATION SECTOR DEVELOPMENT PROJECT", "status": "Completion", "sectors": ["Education"]}, "type": "Feature", "geometry": {"coordinates": [106.0, 14.75], "type": "Point"}}, {"id": 5997, "properties": {"id": "46004-32312-013-LN2306", "locationName": "Attapu", "title": "BASIC EDUCATION SECTOR DEVELOPMENT PROJECT", "status": "Completion", "sectors": ["Education"]}, "type": "Feature", "geometry": {"coordinates": [107.0, 14.66667], "type": "Point"}}, {"id": 5998, "properties": {"id": "46004-32312-013-LN2306", "locationName": "Khou\u00e8ng Bok\u00e8o", "title": "BASIC EDUCATION SECTOR DEVELOPMENT PROJECT", "status": "Completion", "sectors": ["Education"]}, "type": "Feature", "geometry": {"coordinates": [100.5, 20.5], "type": "Point"}}, {"id": 5999, "properties": {"id": "46004-41507-012-GRNT0232", "locationName": "T\u1ec9nh Ngh\u1ec7 An", "title": "SECOND GMS REGIONAL COMMUNICABLE DISEASES CONTROL", "status": "Implementation", "sectors": ["Health"]}, "type": "Feature", "geometry": {"coordinates": [104.91667, 19.25], "type": "Point"}}, {"id": 6000, "properties": {"id": "46004-41507-012-GRNT0232", "locationName": "T\u1ec9nh Tr\u00e0 Vinh", "title": "SECOND GMS REGIONAL COMMUNICABLE DISEASES CONTROL", "status": "Implementation", "sectors": ["Health"]}, "type": "Feature", "geometry": {"coordinates": [106.3, 9.8], "type": "Point"}}, {"id": 6001, "properties": {"id": "46004-41507-012-GRNT0232", "locationName": "T\u1ec9nh L\u00e0o Cai", "title": "SECOND GMS REGIONAL COMMUNICABLE DISEASES CONTROL", "status": "Implementation", "sectors": ["Health"]}, "type": "Feature", "geometry": {"coordinates": [104.16667, 22.3], "type": "Point"}}, {"id": 6002, "properties": {"id": "46004-41507-012-GRNT0232", "locationName": "Vietnam", "title": "SECOND GMS REGIONAL COMMUNICABLE DISEASES CONTROL", "status": "Implementation", "sectors": ["Health"]}, "type": "Feature", "geometry": {"coordinates": [107.83333, 16.16667], "type": "Point"}}, {"id": 6003, "properties": {"id": "46004-41507-012-GRNT0232", "locationName": "T\u1ec9nh Thanh H\u00f3a", "title": "SECOND GMS REGIONAL COMMUNICABLE DISEASES CONTROL", "status": "Implementation", "sectors": ["Health"]}, "type": "Feature", "geometry": {"coordinates": [105.33333, 20.06667], "type": "Point"}}, {"id": 6004, "properties": {"id": "46004-41507-012-GRNT0232", "locationName": "T\u1ec9nh T\u00e2y Ninh", "title": "SECOND GMS REGIONAL COMMUNICABLE DISEASES CONTROL", "status": "Implementation", "sectors": ["Health"]}, "type": "Feature", "geometry": {"coordinates": [106.16667, 11.33333], "type": "Point"}}, {"id": 6005, "properties": {"id": "46004-41507-012-GRNT0232", "locationName": "T\u1ec9nh S\u01a1n La", "title": "SECOND GMS REGIONAL COMMUNICABLE DISEASES CONTROL", "status": "Implementation", "sectors": ["Health"]}, "type": "Feature", "geometry": {"coordinates": [104.0, 21.16667], "type": "Point"}}, {"id": 6006, "properties": {"id": "46004-41507-012-GRNT0232", "locationName": "T\u1ec9nh Qu\u1ea3ng Tr\u1ecb", "title": "SECOND GMS REGIONAL COMMUNICABLE DISEASES CONTROL", "status": "Implementation", "sectors": ["Health"]}, "type": "Feature", "geometry": {"coordinates": [107.0, 16.75], "type": "Point"}}, {"id": 6007, "properties": {"id": "46004-41507-012-GRNT0232", "locationName": "T\u1ec9nh Qu\u1ea3ng B\u00ecnh", "title": "SECOND GMS REGIONAL COMMUNICABLE DISEASES CONTROL", "status": "Implementation", "sectors": ["Health"]}, "type": "Feature", "geometry": {"coordinates": [106.33333, 17.5], "type": "Point"}}, {"id": 6008, "properties": {"id": "46004-41507-012-GRNT0232", "locationName": "Long An", "title": "SECOND GMS REGIONAL COMMUNICABLE DISEASES CONTROL", "status": "Implementation", "sectors": ["Health"]}, "type": "Feature", "geometry": {"coordinates": [106.16667, 10.7], "type": "Point"}}, {"id": 6009, "properties": {"id": "46004-41507-012-GRNT0232", "locationName": "T\u1ec9nh Ki\u1ebfn Giang", "title": "SECOND GMS REGIONAL COMMUNICABLE DISEASES CONTROL", "status": "Implementation", "sectors": ["Health"]}, "type": "Feature", "geometry": {"coordinates": [105.16667, 10.0], "type": "Point"}}, {"id": 6010, "properties": {"id": "46004-41507-012-GRNT0232", "locationName": "T\u1ec9nh H\u00e0 T\u0129nh", "title": "SECOND GMS REGIONAL COMMUNICABLE DISEASES CONTROL", "status": "Implementation", "sectors": ["Health"]}, "type": "Feature", "geometry": {"coordinates": [105.75, 18.33333], "type": "Point"}}, {"id": 6011, "properties": {"id": "46004-41507-012-GRNT0232", "locationName": "Th\u00e0nh Ph\u1ed1 H\u00e0 N\u1ed9i", "title": "SECOND GMS REGIONAL COMMUNICABLE DISEASES CONTROL", "status": "Implementation", "sectors": ["Health"]}, "type": "Feature", "geometry": {"coordinates": [105.75, 21.0], "type": "Point"}}, {"id": 6012, "properties": {"id": "46004-41507-012-GRNT0232", "locationName": "Th\u00e0nh Ph\u1ed1 C\u1ea7n Th\u01a1", "title": "SECOND GMS REGIONAL COMMUNICABLE DISEASES CONTROL", "status": "Implementation", "sectors": ["Health"]}, "type": "Feature", "geometry": {"coordinates": [105.5, 10.11667], "type": "Point"}}, {"id": 6013, "properties": {"id": "46004-41507-012-GRNT0232", "locationName": "T\u1ec9nh \u0110\u1ed3ng Th\u00e1p", "title": "SECOND GMS REGIONAL COMMUNICABLE DISEASES CONTROL", "status": "Implementation", "sectors": ["Health"]}, "type": "Feature", "geometry": {"coordinates": [105.63333, 10.58333], "type": "Point"}}, {"id": 6014, "properties": {"id": "46004-41507-012-GRNT0232", "locationName": "T\u1ec9nh \u0110\u1eafk L\u1eafk", "title": "SECOND GMS REGIONAL COMMUNICABLE DISEASES CONTROL", "status": "Implementation", "sectors": ["Health"]}, "type": "Feature", "geometry": {"coordinates": [108.25, 12.75], "type": "Point"}}, {"id": 6015, "properties": {"id": "46004-41507-012-GRNT0232", "locationName": "T\u1ec9nh B\u1ebfn Tre", "title": "SECOND GMS REGIONAL COMMUNICABLE DISEASES CONTROL", "status": "Implementation", "sectors": ["Health"]}, "type": "Feature", "geometry": {"coordinates": [106.5, 10.16667], "type": "Point"}}, {"id": 6016, "properties": {"id": "46004-41507-012-GRNT0232", "locationName": "An Giang", "title": "SECOND GMS REGIONAL COMMUNICABLE DISEASES CONTROL", "status": "Implementation", "sectors": ["Health"]}, "type": "Feature", "geometry": {"coordinates": [105.16667, 10.5], "type": "Point"}}, {"id": 6017, "properties": {"id": "46004-41507-012-GRNT0232", "locationName": "Xiangkhouang", "title": "SECOND GMS REGIONAL COMMUNICABLE DISEASES CONTROL", "status": "Implementation", "sectors": ["Health"]}, "type": "Feature", "geometry": {"coordinates": [103.5, 19.41667], "type": "Point"}}, {"id": 6018, "properties": {"id": "46004-41507-012-GRNT0232", "locationName": "Salavan", "title": "SECOND GMS REGIONAL COMMUNICABLE DISEASES CONTROL", "status": "Implementation", "sectors": ["Health"]}, "type": "Feature", "geometry": {"coordinates": [106.25, 15.75], "type": "Point"}}, {"id": 6019, "properties": {"id": "46004-41507-012-GRNT0232", "locationName": "Khoueng Phongsali", "title": "SECOND GMS REGIONAL COMMUNICABLE DISEASES CONTROL", "status": "Implementation", "sectors": ["Health"]}, "type": "Feature", "geometry": {"coordinates": [102.33333, 21.75], "type": "Point"}}, {"id": 6020, "properties": {"id": "46004-41507-012-GRNT0232", "locationName": "Khoueng Oudomxai", "title": "SECOND GMS REGIONAL COMMUNICABLE DISEASES CONTROL", "status": "Implementation", "sectors": ["Health"]}, "type": "Feature", "geometry": {"coordinates": [101.5, 20.16667], "type": "Point"}}, {"id": 6021, "properties": {"id": "46004-41507-012-GRNT0232", "locationName": "Louangnamtha", "title": "SECOND GMS REGIONAL COMMUNICABLE DISEASES CONTROL", "status": "Implementation", "sectors": ["Health"]}, "type": "Feature", "geometry": {"coordinates": [101.33333, 20.91667], "type": "Point"}}, {"id": 6022, "properties": {"id": "46004-41507-012-GRNT0232", "locationName": "Lao People's Democratic Republic", "title": "SECOND GMS REGIONAL COMMUNICABLE DISEASES CONTROL", "status": "Implementation", "sectors": ["Health"]}, "type": "Feature", "geometry": {"coordinates": [105.0, 18.0], "type": "Point"}}, {"id": 6023, "properties": {"id": "46004-41507-012-GRNT0232", "locationName": "Khammouan", "title": "SECOND GMS REGIONAL COMMUNICABLE DISEASES CONTROL", "status": "Implementation", "sectors": ["Health"]}, "type": "Feature", "geometry": {"coordinates": [105.33333, 17.5], "type": "Point"}}, {"id": 6024, "properties": {"id": "46004-41507-012-GRNT0232", "locationName": "Houaphan", "title": "SECOND GMS REGIONAL COMMUNICABLE DISEASES CONTROL", "status": "Implementation", "sectors": ["Health"]}, "type": "Feature", "geometry": {"coordinates": [104.0, 20.5], "type": "Point"}}, {"id": 6025, "properties": {"id": "46004-41507-012-GRNT0232", "locationName": "Champasak", "title": "SECOND GMS REGIONAL COMMUNICABLE DISEASES CONTROL", "status": "Implementation", "sectors": ["Health"]}, "type": "Feature", "geometry": {"coordinates": [106.0, 14.75], "type": "Point"}}, {"id": 6026, "properties": {"id": "46004-41507-012-GRNT0232", "locationName": "Attapu", "title": "SECOND GMS REGIONAL COMMUNICABLE DISEASES CONTROL", "status": "Implementation", "sectors": ["Health"]}, "type": "Feature", "geometry": {"coordinates": [107.0, 14.66667], "type": "Point"}}, {"id": 6027, "properties": {"id": "46004-41507-012-GRNT0232", "locationName": "Takeo", "title": "SECOND GMS REGIONAL COMMUNICABLE DISEASES CONTROL", "status": "Implementation", "sectors": ["Health"]}, "type": "Feature", "geometry": {"coordinates": [104.83333, 10.91667], "type": "Point"}}, {"id": 6028, "properties": {"id": "46004-41507-012-GRNT0232", "locationName": "Svay Rieng", "title": "SECOND GMS REGIONAL COMMUNICABLE DISEASES CONTROL", "status": "Implementation", "sectors": ["Health"]}, "type": "Feature", "geometry": {"coordinates": [105.83333, 11.16667], "type": "Point"}}, {"id": 6029, "properties": {"id": "46004-41507-012-GRNT0232", "locationName": "Stung Treng", "title": "SECOND GMS REGIONAL COMMUNICABLE DISEASES CONTROL", "status": "Implementation", "sectors": ["Health"]}, "type": "Feature", "geometry": {"coordinates": [106.25, 13.75], "type": "Point"}}, {"id": 6030, "properties": {"id": "46004-41507-012-GRNT0232", "locationName": "Ratanakiri", "title": "SECOND GMS REGIONAL COMMUNICABLE DISEASES CONTROL", "status": "Implementation", "sectors": ["Health"]}, "type": "Feature", "geometry": {"coordinates": [107.11667, 13.83333], "type": "Point"}}, {"id": 6031, "properties": {"id": "46004-41507-012-GRNT0232", "locationName": "Prey Veng", "title": "SECOND GMS REGIONAL COMMUNICABLE DISEASES CONTROL", "status": "Implementation", "sectors": ["Health"]}, "type": "Feature", "geometry": {"coordinates": [105.46667, 11.36667], "type": "Point"}}, {"id": 6032, "properties": {"id": "46004-41507-012-GRNT0232", "locationName": "Mondolkiri", "title": "SECOND GMS REGIONAL COMMUNICABLE DISEASES CONTROL", "status": "Implementation", "sectors": ["Health"]}, "type": "Feature", "geometry": {"coordinates": [107.0, 12.75], "type": "Point"}}, {"id": 6033, "properties": {"id": "46004-41507-012-GRNT0232", "locationName": "Kratie", "title": "SECOND GMS REGIONAL COMMUNICABLE DISEASES CONTROL", "status": "Implementation", "sectors": ["Health"]}, "type": "Feature", "geometry": {"coordinates": [106.08333, 12.66667], "type": "Point"}}, {"id": 6034, "properties": {"id": "46004-41507-012-GRNT0232", "locationName": "Kandal", "title": "SECOND GMS REGIONAL COMMUNICABLE DISEASES CONTROL", "status": "Implementation", "sectors": ["Health"]}, "type": "Feature", "geometry": {"coordinates": [105.0, 11.41667], "type": "Point"}}, {"id": 6035, "properties": {"id": "46004-41507-012-GRNT0232", "locationName": "Kampot", "title": "SECOND GMS REGIONAL COMMUNICABLE DISEASES CONTROL", "status": "Implementation", "sectors": ["Health"]}, "type": "Feature", "geometry": {"coordinates": [104.33333, 10.83333], "type": "Point"}}, {"id": 6036, "properties": {"id": "46004-41507-012-GRNT0232", "locationName": "Kampong Cham", "title": "SECOND GMS REGIONAL COMMUNICABLE DISEASES CONTROL", "status": "Implementation", "sectors": ["Health"]}, "type": "Feature", "geometry": {"coordinates": [105.58333, 12.08333], "type": "Point"}}, {"id": 6037, "properties": {"id": "46004-41507-012-GRNT0232", "locationName": "Cambodia", "title": "SECOND GMS REGIONAL COMMUNICABLE DISEASES CONTROL", "status": "Implementation", "sectors": ["Health"]}, "type": "Feature", "geometry": {"coordinates": [105.0, 13.0], "type": "Point"}}, {"id": 6038, "properties": {"id": "46004-41507-012-GRNT0232", "locationName": "Khoueng Xekong", "title": "SECOND GMS REGIONAL COMMUNICABLE DISEASES CONTROL", "status": "Implementation", "sectors": ["Health"]}, "type": "Feature", "geometry": {"coordinates": [107.0, 15.5], "type": "Point"}}, {"id": 6039, "properties": {"id": "46004-41507-012-GRNT0232", "locationName": "Khoueng Bokeo", "title": "SECOND GMS REGIONAL COMMUNICABLE DISEASES CONTROL", "status": "Implementation", "sectors": ["Health"]}, "type": "Feature", "geometry": {"coordinates": [100.5, 20.5], "type": "Point"}}, {"id": 6040, "properties": {"id": "46004-41507-012-GRNT0232", "locationName": "Bolikhamxai", "title": "SECOND GMS REGIONAL COMMUNICABLE DISEASES CONTROL", "status": "Implementation", "sectors": ["Health"]}, "type": "Feature", "geometry": {"coordinates": [104.33333, 18.5], "type": "Point"}}, {"id": 6041, "properties": {"id": "46004-41507-012-GRNT0232", "locationName": "\u00d0\u1eafk N\u00f4ng", "title": "SECOND GMS REGIONAL COMMUNICABLE DISEASES CONTROL", "status": "Implementation", "sectors": ["Health"]}, "type": "Feature", "geometry": {"coordinates": [107.75, 12.16667], "type": "Point"}}, {"id": 6042, "properties": {"id": "46004-41507-012-GRNT0232", "locationName": "Huy\u1ec7n \u00d0i\u1ec7n Bi\u00ean", "title": "SECOND GMS REGIONAL COMMUNICABLE DISEASES CONTROL", "status": "Implementation", "sectors": ["Health"]}, "type": "Feature", "geometry": {"coordinates": [102.93333, 21.33333], "type": "Point"}}, {"id": 6043, "properties": {"id": "46004-41507-012-GRNT0232", "locationName": "T\u1ec9nh B\u00ecnh Ph\u01b0\u1edbc", "title": "SECOND GMS REGIONAL COMMUNICABLE DISEASES CONTROL", "status": "Implementation", "sectors": ["Health"]}, "type": "Feature", "geometry": {"coordinates": [106.91667, 11.75], "type": "Point"}}, {"id": 6044, "properties": {"id": "46004-41444-022-GRNT0234", "locationName": "T\u1ec9nh Thanh H\u00f3a", "title": "SECOND NORTHERN GMS SUBREGION TRANSPORT NETWORK IM", "status": "Implementation", "sectors": ["Transport"]}, "type": "Feature", "geometry": {"coordinates": [105.33333, 20.06667], "type": "Point"}}, {"id": 6045, "properties": {"id": "46004-41444-022-GRNT0234", "locationName": "Thanh H\u00f3a", "title": "SECOND NORTHERN GMS SUBREGION TRANSPORT NETWORK IM", "status": "Implementation", "sectors": ["Transport"]}, "type": "Feature", "geometry": {"coordinates": [105.76667, 19.8], "type": "Point"}}, {"id": 6046, "properties": {"id": "46004-41444-022-GRNT0234", "locationName": "Muang Ham", "title": "SECOND NORTHERN GMS SUBREGION TRANSPORT NETWORK IM", "status": "Implementation", "sectors": ["Transport"]}, "type": "Feature", "geometry": {"coordinates": [104.01667, 20.31667], "type": "Point"}}, {"id": 6047, "properties": {"id": "46004-41444-022-GRNT0234", "locationName": "Houaphan", "title": "SECOND NORTHERN GMS SUBREGION TRANSPORT NETWORK IM", "status": "Implementation", "sectors": ["Transport"]}, "type": "Feature", "geometry": {"coordinates": [104.0, 20.5], "type": "Point"}}, {"id": 6048, "properties": {"id": "46004-41444-022-GRNT0234", "locationName": "Ban Sop Bau", "title": "SECOND NORTHERN GMS SUBREGION TRANSPORT NETWORK IM", "status": "Implementation", "sectors": ["Transport"]}, "type": "Feature", "geometry": {"coordinates": [104.38333, 20.71667], "type": "Point"}}, {"id": 6049, "properties": {"id": "46004-41444-022-GRNT0234", "locationName": "Ban Pahang", "title": "SECOND NORTHERN GMS SUBREGION TRANSPORT NETWORK IM", "status": "Implementation", "sectors": ["Transport"]}, "type": "Feature", "geometry": {"coordinates": [104.48583, 20.72417], "type": "Point"}}, {"id": 6050, "properties": {"id": "46004-41444-022-GRNT0234", "locationName": "Huy\u1ec7n Mai Ch\u00e2u", "title": "SECOND NORTHERN GMS SUBREGION TRANSPORT NETWORK IM", "status": "Implementation", "sectors": ["Transport"]}, "type": "Feature", "geometry": {"coordinates": [105.03145, 20.66296], "type": "Point"}}, {"id": 6051, "properties": {"id": "46004-41444-022-GRNT0234", "locationName": "Viangxai", "title": "SECOND NORTHERN GMS SUBREGION TRANSPORT NETWORK IM", "status": "Implementation", "sectors": ["Transport"]}, "type": "Feature", "geometry": {"coordinates": [104.22402, 20.40706], "type": "Point"}}, {"id": 6052, "properties": {"id": "46004-41444-022-GRNT0234", "locationName": "Ban Hanglong", "title": "SECOND NORTHERN GMS SUBREGION TRANSPORT NETWORK IM", "status": "Implementation", "sectors": ["Transport"]}, "type": "Feature", "geometry": {"coordinates": [104.16361, 20.46583], "type": "Point"}}, {"id": 6053, "properties": {"id": "46004-41444-022-GRNT0234", "locationName": "Sopbao", "title": "SECOND NORTHERN GMS SUBREGION TRANSPORT NETWORK IM", "status": "Implementation", "sectors": ["Transport"]}, "type": "Feature", "geometry": {"coordinates": [104.38, 20.66], "type": "Point"}}, {"id": 6054, "properties": {"id": "46004-41444-022-GRNT0234", "locationName": "Viangxai District", "title": "SECOND NORTHERN GMS SUBREGION TRANSPORT NETWORK IM", "status": "Implementation", "sectors": ["Transport"]}, "type": "Feature", "geometry": {"coordinates": [104.23, 20.4], "type": "Point"}}, {"id": 6055, "properties": {"id": "46004-41444-022-GRNT0234", "locationName": "N\u00e0 M\u00e8o", "title": "SECOND NORTHERN GMS SUBREGION TRANSPORT NETWORK IM", "status": "Implementation", "sectors": ["Transport"]}, "type": "Feature", "geometry": {"coordinates": [105.04303, 20.67129], "type": "Point"}}, {"id": 6056, "properties": {"id": "46004-41444-022-GRNT0234", "locationName": "Nam Soi", "title": "SECOND NORTHERN GMS SUBREGION TRANSPORT NETWORK IM", "status": "Implementation", "sectors": ["Transport"]}, "type": "Feature", "geometry": {"coordinates": [104.60814, 20.29946], "type": "Point"}}, {"id": 6057, "properties": {"id": "46004-42203-022-GRNT0235", "locationName": "Khoueng Phongsali", "title": "NORTHERN RURAL INFRASTRUCTURE DEVELOPMENT SECTOR P", "status": "Implementation", "sectors": ["Agriculture, natural resources and rural development"]}, "type": "Feature", "geometry": {"coordinates": [102.33333, 21.75], "type": "Point"}}, {"id": 6058, "properties": {"id": "46004-42203-022-GRNT0235", "locationName": "Khoueng Oudomxai", "title": "NORTHERN RURAL INFRASTRUCTURE DEVELOPMENT SECTOR P", "status": "Implementation", "sectors": ["Agriculture, natural resources and rural development"]}, "type": "Feature", "geometry": {"coordinates": [101.5, 20.16667], "type": "Point"}}, {"id": 6059, "properties": {"id": "46004-42203-022-GRNT0235", "locationName": "Louangnamtha", "title": "NORTHERN RURAL INFRASTRUCTURE DEVELOPMENT SECTOR P", "status": "Implementation", "sectors": ["Agriculture, natural resources and rural development"]}, "type": "Feature", "geometry": {"coordinates": [101.33333, 20.91667], "type": "Point"}}, {"id": 6060, "properties": {"id": "46004-42203-022-GRNT0235", "locationName": "Khoueng Bokeo", "title": "NORTHERN RURAL INFRASTRUCTURE DEVELOPMENT SECTOR P", "status": "Implementation", "sectors": ["Agriculture, natural resources and rural development"]}, "type": "Feature", "geometry": {"coordinates": [100.5, 20.5], "type": "Point"}}, {"id": 6061, "properties": {"id": "46004-40253-023-GRNT0242", "locationName": "Tatai Leu", "title": "GMS BIODIVERSITY CONSERVATION CORRIDORS PROJECT -L", "status": "Implementation", "sectors": ["Agriculture, natural resources and rural development"]}, "type": "Feature", "geometry": {"coordinates": [103.49417, 11.79246], "type": "Point"}}, {"id": 6062, "properties": {"id": "46004-40253-023-GRNT0242", "locationName": "Sr\u014fk Sr\u00ea \u00c2mb\u0115l", "title": "GMS BIODIVERSITY CONSERVATION CORRIDORS PROJECT -L", "status": "Implementation", "sectors": ["Agriculture, natural resources and rural development"]}, "type": "Feature", "geometry": {"coordinates": [103.7, 10.98333], "type": "Point"}}, {"id": 6063, "properties": {"id": "46004-40253-023-GRNT0242", "locationName": "Sala \u00c2ndong Tuk", "title": "GMS BIODIVERSITY CONSERVATION CORRIDORS PROJECT -L", "status": "Implementation", "sectors": ["Agriculture, natural resources and rural development"]}, "type": "Feature", "geometry": {"coordinates": [103.48333, 11.18333], "type": "Point"}}, {"id": 6064, "properties": {"id": "46004-40253-023-GRNT0242", "locationName": "Phum\u012d Sr\u00ea Pre\u0103h", "title": "GMS BIODIVERSITY CONSERVATION CORRIDORS PROJECT -L", "status": "Implementation", "sectors": ["Agriculture, natural resources and rural development"]}, "type": "Feature", "geometry": {"coordinates": [106.88065, 12.18703], "type": "Point"}}, {"id": 6065, "properties": {"id": "46004-40253-023-GRNT0242", "locationName": "Phum\u012d Sr\u00ea Kht\u016dm", "title": "GMS BIODIVERSITY CONSERVATION CORRIDORS PROJECT -L", "status": "Implementation", "sectors": ["Agriculture, natural resources and rural development"]}, "type": "Feature", "geometry": {"coordinates": [106.47036, 12.5945], "type": "Point"}}, {"id": 6066, "properties": {"id": "46004-40253-023-GRNT0242", "locationName": "Phum\u012d Pu Chri", "title": "GMS BIODIVERSITY CONSERVATION CORRIDORS PROJECT -L", "status": "Implementation", "sectors": ["Agriculture, natural resources and rural development"]}, "type": "Feature", "geometry": {"coordinates": [107.22152, 12.68775], "type": "Point"}}, {"id": 6067, "properties": {"id": "46004-40253-023-GRNT0242", "locationName": "Phum\u012d P\u00e9am Kr\u00e2sa\u00f4b", "title": "GMS BIODIVERSITY CONSERVATION CORRIDORS PROJECT -L", "status": "Implementation", "sectors": ["Agriculture, natural resources and rural development"]}, "type": "Feature", "geometry": {"coordinates": [102.98619, 11.52707], "type": "Point"}}, {"id": 6068, "properties": {"id": "46004-40253-023-GRNT0242", "locationName": "Phum\u012d D\u0103k D\u0103m", "title": "GMS BIODIVERSITY CONSERVATION CORRIDORS PROJECT -L", "status": "Implementation", "sectors": ["Agriculture, natural resources and rural development"]}, "type": "Feature", "geometry": {"coordinates": [107.34631, 12.34362], "type": "Point"}}, {"id": 6069, "properties": {"id": "46004-40253-023-GRNT0242", "locationName": "Kr\u00e2ng T\u00e9h", "title": "GMS BIODIVERSITY CONSERVATION CORRIDORS PROJECT -L", "status": "Implementation", "sectors": ["Agriculture, natural resources and rural development"]}, "type": "Feature", "geometry": {"coordinates": [107.33295, 12.64096], "type": "Point"}}, {"id": 6070, "properties": {"id": "46004-40253-023-GRNT0242", "locationName": "Sr\u014fk Ka\u00f4h Nh\u00eak", "title": "GMS BIODIVERSITY CONSERVATION CORRIDORS PROJECT -L", "status": "Implementation", "sectors": ["Agriculture, natural resources and rural development"]}, "type": "Feature", "geometry": {"coordinates": [107.0, 13.0], "type": "Point"}}, {"id": 6071, "properties": {"id": "46004-40253-023-GRNT0242", "locationName": "Sr\u014fk Ka\u00f4h K\u014fng", "title": "GMS BIODIVERSITY CONSERVATION CORRIDORS PROJECT -L", "status": "Implementation", "sectors": ["Agriculture, natural resources and rural development"]}, "type": "Feature", "geometry": {"coordinates": [103.16667, 11.5], "type": "Point"}}, {"id": 6072, "properties": {"id": "46004-40253-023-GRNT0242", "locationName": "Sr\u014fk Kaev Seima", "title": "GMS BIODIVERSITY CONSERVATION CORRIDORS PROJECT -L", "status": "Implementation", "sectors": ["Agriculture, natural resources and rural development"]}, "type": "Feature", "geometry": {"coordinates": [106.77025, 12.41722], "type": "Point"}}, {"id": 6073, "properties": {"id": "46004-40253-023-GRNT0242", "locationName": "Sr\u014fk Pech Chreada", "title": "GMS BIODIVERSITY CONSERVATION CORRIDORS PROJECT -L", "status": "Implementation", "sectors": ["Agriculture, natural resources and rural development"]}, "type": "Feature", "geometry": {"coordinates": [107.0948, 12.7278], "type": "Point"}}, {"id": 6074, "properties": {"id": "46004-40253-023-GRNT0242", "locationName": "Kr\u014fng S\u00eanm\u00f4no\u016dr\u00f4m", "title": "GMS BIODIVERSITY CONSERVATION CORRIDORS PROJECT -L", "status": "Implementation", "sectors": ["Agriculture, natural resources and rural development"]}, "type": "Feature", "geometry": {"coordinates": [107.15525, 12.5048], "type": "Point"}}, {"id": 6075, "properties": {"id": "46004-40253-023-GRNT0242", "locationName": "Sr\u014fk M\u00f4nd\u00f4l Seima", "title": "GMS BIODIVERSITY CONSERVATION CORRIDORS PROJECT -L", "status": "Implementation", "sectors": ["Agriculture, natural resources and rural development"]}, "type": "Feature", "geometry": {"coordinates": [103.01159, 11.81292], "type": "Point"}}, {"id": 6076, "properties": {"id": "46004-40253-023-GRNT0242", "locationName": "Tr\u00e2pe\u0103ng Rung", "title": "GMS BIODIVERSITY CONSERVATION CORRIDORS PROJECT -L", "status": "Implementation", "sectors": ["Agriculture, natural resources and rural development"]}, "type": "Feature", "geometry": {"coordinates": [103.26019, 11.3761], "type": "Point"}}, {"id": 6077, "properties": {"id": "46004-40253-023-GRNT0242", "locationName": "Sr\u014fk Thm\u00e2 Bang", "title": "GMS BIODIVERSITY CONSERVATION CORRIDORS PROJECT -L", "status": "Implementation", "sectors": ["Agriculture, natural resources and rural development"]}, "type": "Feature", "geometry": {"coordinates": [103.41667, 11.81667], "type": "Point"}}, {"id": 6078, "properties": {"id": "46004-40368-022-GRNT0257", "locationName": "Muang Xepon", "title": "SECONDARY EDUCATION SECTOR DEVELOPMENT PROGRAM", "status": "Implementation", "sectors": ["Education"]}, "type": "Feature", "geometry": {"coordinates": [106.33757, 16.76113], "type": "Point"}}, {"id": 6079, "properties": {"id": "46004-40368-022-GRNT0257", "locationName": "Muang Xaignabouli", "title": "SECONDARY EDUCATION SECTOR DEVELOPMENT PROGRAM", "status": "Implementation", "sectors": ["Education"]}, "type": "Feature", "geometry": {"coordinates": [101.59536, 19.3229], "type": "Point"}}, {"id": 6080, "properties": {"id": "46004-40368-022-GRNT0257", "locationName": "Muang Nong", "title": "SECONDARY EDUCATION SECTOR DEVELOPMENT PROGRAM", "status": "Implementation", "sectors": ["Education"]}, "type": "Feature", "geometry": {"coordinates": [106.50419, 16.38458], "type": "Point"}}, {"id": 6081, "properties": {"id": "46004-40368-022-GRNT0257", "locationName": "Muang Ngoy", "title": "SECONDARY EDUCATION SECTOR DEVELOPMENT PROGRAM", "status": "Implementation", "sectors": ["Education"]}, "type": "Feature", "geometry": {"coordinates": [102.7515, 20.73393], "type": "Point"}}, {"id": 6082, "properties": {"id": "46004-40368-022-GRNT0257", "locationName": "Muang Namo", "title": "SECONDARY EDUCATION SECTOR DEVELOPMENT PROGRAM", "status": "Implementation", "sectors": ["Education"]}, "type": "Feature", "geometry": {"coordinates": [101.72765, 20.89077], "type": "Point"}}, {"id": 6083, "properties": {"id": "46004-40368-022-GRNT0257", "locationName": "Muang Phin", "title": "SECONDARY EDUCATION SECTOR DEVELOPMENT PROGRAM", "status": "Implementation", "sectors": ["Education"]}, "type": "Feature", "geometry": {"coordinates": [106.02338, 16.53296], "type": "Point"}}, {"id": 6084, "properties": {"id": "46004-40368-022-GRNT0257", "locationName": "Muang Khamkeut", "title": "SECONDARY EDUCATION SECTOR DEVELOPMENT PROGRAM", "status": "Implementation", "sectors": ["Education"]}, "type": "Feature", "geometry": {"coordinates": [104.73074, 18.22568], "type": "Point"}}, {"id": 6085, "properties": {"id": "46004-40368-022-GRNT0257", "locationName": "Muang Houamuang", "title": "SECONDARY EDUCATION SECTOR DEVELOPMENT PROGRAM", "status": "Implementation", "sectors": ["Education"]}, "type": "Feature", "geometry": {"coordinates": [103.84032, 20.06257], "type": "Point"}}, {"id": 6086, "properties": {"id": "46004-40368-022-GRNT0257", "locationName": "Muang Beng", "title": "SECONDARY EDUCATION SECTOR DEVELOPMENT PROGRAM", "status": "Implementation", "sectors": ["Education"]}, "type": "Feature", "geometry": {"coordinates": [101.73128, 20.35359], "type": "Point"}}, {"id": 6087, "properties": {"id": "46004-40368-022-GRNT0257", "locationName": "Muang Dakchung", "title": "SECONDARY EDUCATION SECTOR DEVELOPMENT PROGRAM", "status": "Implementation", "sectors": ["Education"]}, "type": "Feature", "geometry": {"coordinates": [107.31847, 15.38199], "type": "Point"}}, {"id": 6088, "properties": {"id": "46004-40368-022-GRNT0257", "locationName": "Muang Phouvong", "title": "SECONDARY EDUCATION SECTOR DEVELOPMENT PROGRAM", "status": "Implementation", "sectors": ["Education"]}, "type": "Feature", "geometry": {"coordinates": [107.01088, 14.56821], "type": "Point"}}, {"id": 6089, "properties": {"id": "46004-40368-022-GRNT0257", "locationName": "Muang Sanxai", "title": "SECONDARY EDUCATION SECTOR DEVELOPMENT PROGRAM", "status": "Implementation", "sectors": ["Education"]}, "type": "Feature", "geometry": {"coordinates": [107.23158, 15.02944], "type": "Point"}}, {"id": 6090, "properties": {"id": "46004-40368-022-GRNT0257", "locationName": "Muang Khaleum", "title": "SECONDARY EDUCATION SECTOR DEVELOPMENT PROGRAM", "status": "Implementation", "sectors": ["Education"]}, "type": "Feature", "geometry": {"coordinates": [107.04529, 15.79886], "type": "Point"}}, {"id": 6091, "properties": {"id": "46004-40368-022-GRNT0257", "locationName": "Muang Samouay", "title": "SECONDARY EDUCATION SECTOR DEVELOPMENT PROGRAM", "status": "Implementation", "sectors": ["Education"]}, "type": "Feature", "geometry": {"coordinates": [106.8748, 16.35868], "type": "Point"}}, {"id": 6092, "properties": {"id": "46004-40368-022-GRNT0257", "locationName": "Muang Vilabouli", "title": "SECONDARY EDUCATION SECTOR DEVELOPMENT PROGRAM", "status": "Implementation", "sectors": ["Education"]}, "type": "Feature", "geometry": {"coordinates": [105.93677, 16.94067], "type": "Point"}}, {"id": 6093, "properties": {"id": "46004-40368-022-GRNT0257", "locationName": "Muang Boualapha", "title": "SECONDARY EDUCATION SECTOR DEVELOPMENT PROGRAM", "status": "Implementation", "sectors": ["Education"]}, "type": "Feature", "geometry": {"coordinates": [105.94077, 17.30329], "type": "Point"}}, {"id": 6094, "properties": {"id": "46004-40368-022-GRNT0257", "locationName": "Muang Na Kay", "title": "SECONDARY EDUCATION SECTOR DEVELOPMENT PROGRAM", "status": "Implementation", "sectors": ["Education"]}, "type": "Feature", "geometry": {"coordinates": [105.29146, 17.86886], "type": "Point"}}, {"id": 6095, "properties": {"id": "46004-40368-022-GRNT0257", "locationName": "Muang Khoun", "title": "SECONDARY EDUCATION SECTOR DEVELOPMENT PROGRAM", "status": "Implementation", "sectors": ["Education"]}, "type": "Feature", "geometry": {"coordinates": [103.50898, 19.27979], "type": "Point"}}, {"id": 6096, "properties": {"id": "46004-40368-022-GRNT0257", "locationName": "Muang Xam-Tai", "title": "SECONDARY EDUCATION SECTOR DEVELOPMENT PROGRAM", "status": "Implementation", "sectors": ["Education"]}, "type": "Feature", "geometry": {"coordinates": [104.54561, 19.93248], "type": "Point"}}, {"id": 6097, "properties": {"id": "46004-40368-022-GRNT0257", "locationName": "Muang Nga", "title": "SECONDARY EDUCATION SECTOR DEVELOPMENT PROGRAM", "status": "Implementation", "sectors": ["Education"]}, "type": "Feature", "geometry": {"coordinates": [101.95155, 20.1739], "type": "Point"}}, {"id": 6098, "properties": {"id": "46004-40368-022-GRNT0257", "locationName": "Muang Pha Oudom", "title": "SECONDARY EDUCATION SECTOR DEVELOPMENT PROGRAM", "status": "Implementation", "sectors": ["Education"]}, "type": "Feature", "geometry": {"coordinates": [100.926, 20.18744], "type": "Point"}}, {"id": 6099, "properties": {"id": "46004-40368-022-GRNT0257", "locationName": "Muang Meung", "title": "SECONDARY EDUCATION SECTOR DEVELOPMENT PROGRAM", "status": "Implementation", "sectors": ["Education"]}, "type": "Feature", "geometry": {"coordinates": [100.52639, 20.67585], "type": "Point"}}, {"id": 6100, "properties": {"id": "46004-40368-022-GRNT0257", "locationName": "Muang Nale", "title": "SECONDARY EDUCATION SECTOR DEVELOPMENT PROGRAM", "status": "Implementation", "sectors": ["Education"]}, "type": "Feature", "geometry": {"coordinates": [101.41667, 20.5], "type": "Point"}}, {"id": 6101, "properties": {"id": "46004-40368-022-GRNT0257", "locationName": "Muang Viangphoukha", "title": "SECONDARY EDUCATION SECTOR DEVELOPMENT PROGRAM", "status": "Implementation", "sectors": ["Education"]}, "type": "Feature", "geometry": {"coordinates": [101.0784, 20.63194], "type": "Point"}}, {"id": 6102, "properties": {"id": "46004-40368-022-GRNT0257", "locationName": "Muang Long", "title": "SECONDARY EDUCATION SECTOR DEVELOPMENT PROGRAM", "status": "Implementation", "sectors": ["Education"]}, "type": "Feature", "geometry": {"coordinates": [100.83104, 20.98503], "type": "Point"}}, {"id": 6103, "properties": {"id": "46004-40368-022-GRNT0257", "locationName": "Muang Gnot-Ou", "title": "SECONDARY EDUCATION SECTOR DEVELOPMENT PROGRAM", "status": "Implementation", "sectors": ["Education"]}, "type": "Feature", "geometry": {"coordinates": [101.874, 22.19586], "type": "Point"}}, {"id": 6104, "properties": {"id": "46004-40368-022-GRNT0257", "locationName": "Muang Sangthong", "title": "SECONDARY EDUCATION SECTOR DEVELOPMENT PROGRAM", "status": "Implementation", "sectors": ["Education"]}, "type": "Feature", "geometry": {"coordinates": [102.18523, 18.26282], "type": "Point"}}, {"id": 6105, "properties": {"id": "46004-40368-022-GRNT0257", "locationName": "Samphanh", "title": "SECONDARY EDUCATION SECTOR DEVELOPMENT PROGRAM", "status": "Implementation", "sectors": ["Education"]}, "type": "Feature", "geometry": {"coordinates": [102.41, 21.57], "type": "Point"}}, {"id": 6106, "properties": {"id": "46004-40368-022-GRNT0257", "locationName": "Muang Viengxay", "title": "SECONDARY EDUCATION SECTOR DEVELOPMENT PROGRAM", "status": "Implementation", "sectors": ["Education"]}, "type": "Feature", "geometry": {"coordinates": [104.34265, 20.34447], "type": "Point"}}, {"id": 6107, "properties": {"id": "46004-40368-022-LN2777", "locationName": "Muang Xepon", "title": "SECONDARY EDUCATION SECTOR DEVELOPMENT PROGRAM", "status": "Implementation", "sectors": ["Education"]}, "type": "Feature", "geometry": {"coordinates": [106.33757, 16.76113], "type": "Point"}}, {"id": 6108, "properties": {"id": "46004-40368-022-LN2777", "locationName": "Muang Xaignabouli", "title": "SECONDARY EDUCATION SECTOR DEVELOPMENT PROGRAM", "status": "Implementation", "sectors": ["Education"]}, "type": "Feature", "geometry": {"coordinates": [101.59536, 19.3229], "type": "Point"}}, {"id": 6109, "properties": {"id": "46004-40368-022-LN2777", "locationName": "Muang Nong", "title": "SECONDARY EDUCATION SECTOR DEVELOPMENT PROGRAM", "status": "Implementation", "sectors": ["Education"]}, "type": "Feature", "geometry": {"coordinates": [106.50419, 16.38458], "type": "Point"}}, {"id": 6110, "properties": {"id": "46004-40368-022-LN2777", "locationName": "Muang Ngoy", "title": "SECONDARY EDUCATION SECTOR DEVELOPMENT PROGRAM", "status": "Implementation", "sectors": ["Education"]}, "type": "Feature", "geometry": {"coordinates": [102.7515, 20.73393], "type": "Point"}}, {"id": 6111, "properties": {"id": "46004-40368-022-LN2777", "locationName": "Muang Namo", "title": "SECONDARY EDUCATION SECTOR DEVELOPMENT PROGRAM", "status": "Implementation", "sectors": ["Education"]}, "type": "Feature", "geometry": {"coordinates": [101.72765, 20.89077], "type": "Point"}}, {"id": 6112, "properties": {"id": "46004-40368-022-LN2777", "locationName": "Muang Phin", "title": "SECONDARY EDUCATION SECTOR DEVELOPMENT PROGRAM", "status": "Implementation", "sectors": ["Education"]}, "type": "Feature", "geometry": {"coordinates": [106.02338, 16.53296], "type": "Point"}}, {"id": 6113, "properties": {"id": "46004-40368-022-LN2777", "locationName": "Muang Khamkeut", "title": "SECONDARY EDUCATION SECTOR DEVELOPMENT PROGRAM", "status": "Implementation", "sectors": ["Education"]}, "type": "Feature", "geometry": {"coordinates": [104.73074, 18.22568], "type": "Point"}}, {"id": 6114, "properties": {"id": "46004-40368-022-LN2777", "locationName": "Muang Houamuang", "title": "SECONDARY EDUCATION SECTOR DEVELOPMENT PROGRAM", "status": "Implementation", "sectors": ["Education"]}, "type": "Feature", "geometry": {"coordinates": [103.84032, 20.06257], "type": "Point"}}, {"id": 6115, "properties": {"id": "46004-40368-022-LN2777", "locationName": "Muang Beng", "title": "SECONDARY EDUCATION SECTOR DEVELOPMENT PROGRAM", "status": "Implementation", "sectors": ["Education"]}, "type": "Feature", "geometry": {"coordinates": [101.73128, 20.35359], "type": "Point"}}, {"id": 6116, "properties": {"id": "46004-40368-022-LN2777", "locationName": "Muang Dakchung", "title": "SECONDARY EDUCATION SECTOR DEVELOPMENT PROGRAM", "status": "Implementation", "sectors": ["Education"]}, "type": "Feature", "geometry": {"coordinates": [107.31847, 15.38199], "type": "Point"}}, {"id": 6117, "properties": {"id": "46004-40368-022-LN2777", "locationName": "Muang Phouvong", "title": "SECONDARY EDUCATION SECTOR DEVELOPMENT PROGRAM", "status": "Implementation", "sectors": ["Education"]}, "type": "Feature", "geometry": {"coordinates": [107.01088, 14.56821], "type": "Point"}}, {"id": 6118, "properties": {"id": "46004-40368-022-LN2777", "locationName": "Muang Sanxai", "title": "SECONDARY EDUCATION SECTOR DEVELOPMENT PROGRAM", "status": "Implementation", "sectors": ["Education"]}, "type": "Feature", "geometry": {"coordinates": [107.23158, 15.02944], "type": "Point"}}, {"id": 6119, "properties": {"id": "46004-40368-022-LN2777", "locationName": "Muang Khaleum", "title": "SECONDARY EDUCATION SECTOR DEVELOPMENT PROGRAM", "status": "Implementation", "sectors": ["Education"]}, "type": "Feature", "geometry": {"coordinates": [107.04529, 15.79886], "type": "Point"}}, {"id": 6120, "properties": {"id": "46004-40368-022-LN2777", "locationName": "Muang Samouay", "title": "SECONDARY EDUCATION SECTOR DEVELOPMENT PROGRAM", "status": "Implementation", "sectors": ["Education"]}, "type": "Feature", "geometry": {"coordinates": [106.8748, 16.35868], "type": "Point"}}, {"id": 6121, "properties": {"id": "46004-40368-022-LN2777", "locationName": "Muang Vilabouli", "title": "SECONDARY EDUCATION SECTOR DEVELOPMENT PROGRAM", "status": "Implementation", "sectors": ["Education"]}, "type": "Feature", "geometry": {"coordinates": [105.93677, 16.94067], "type": "Point"}}, {"id": 6122, "properties": {"id": "46004-40368-022-LN2777", "locationName": "Muang Boualapha", "title": "SECONDARY EDUCATION SECTOR DEVELOPMENT PROGRAM", "status": "Implementation", "sectors": ["Education"]}, "type": "Feature", "geometry": {"coordinates": [105.94077, 17.30329], "type": "Point"}}, {"id": 6123, "properties": {"id": "46004-40368-022-LN2777", "locationName": "Muang Na Kay", "title": "SECONDARY EDUCATION SECTOR DEVELOPMENT PROGRAM", "status": "Implementation", "sectors": ["Education"]}, "type": "Feature", "geometry": {"coordinates": [105.29146, 17.86886], "type": "Point"}}, {"id": 6124, "properties": {"id": "46004-40368-022-LN2777", "locationName": "Muang Khoun", "title": "SECONDARY EDUCATION SECTOR DEVELOPMENT PROGRAM", "status": "Implementation", "sectors": ["Education"]}, "type": "Feature", "geometry": {"coordinates": [103.50898, 19.27979], "type": "Point"}}, {"id": 6125, "properties": {"id": "46004-40368-022-LN2777", "locationName": "Muang Xam-Tai", "title": "SECONDARY EDUCATION SECTOR DEVELOPMENT PROGRAM", "status": "Implementation", "sectors": ["Education"]}, "type": "Feature", "geometry": {"coordinates": [104.54561, 19.93248], "type": "Point"}}, {"id": 6126, "properties": {"id": "46004-40368-022-LN2777", "locationName": "Muang Nga", "title": "SECONDARY EDUCATION SECTOR DEVELOPMENT PROGRAM", "status": "Implementation", "sectors": ["Education"]}, "type": "Feature", "geometry": {"coordinates": [101.95155, 20.1739], "type": "Point"}}, {"id": 6127, "properties": {"id": "46004-40368-022-LN2777", "locationName": "Muang Pha Oudom", "title": "SECONDARY EDUCATION SECTOR DEVELOPMENT PROGRAM", "status": "Implementation", "sectors": ["Education"]}, "type": "Feature", "geometry": {"coordinates": [100.926, 20.18744], "type": "Point"}}, {"id": 6128, "properties": {"id": "46004-40368-022-LN2777", "locationName": "Muang Meung", "title": "SECONDARY EDUCATION SECTOR DEVELOPMENT PROGRAM", "status": "Implementation", "sectors": ["Education"]}, "type": "Feature", "geometry": {"coordinates": [100.52639, 20.67585], "type": "Point"}}, {"id": 6129, "properties": {"id": "46004-40368-022-LN2777", "locationName": "Muang Nale", "title": "SECONDARY EDUCATION SECTOR DEVELOPMENT PROGRAM", "status": "Implementation", "sectors": ["Education"]}, "type": "Feature", "geometry": {"coordinates": [101.41667, 20.5], "type": "Point"}}, {"id": 6130, "properties": {"id": "46004-40368-022-LN2777", "locationName": "Muang Viangphoukha", "title": "SECONDARY EDUCATION SECTOR DEVELOPMENT PROGRAM", "status": "Implementation", "sectors": ["Education"]}, "type": "Feature", "geometry": {"coordinates": [101.0784, 20.63194], "type": "Point"}}, {"id": 6131, "properties": {"id": "46004-40368-022-LN2777", "locationName": "Muang Long", "title": "SECONDARY EDUCATION SECTOR DEVELOPMENT PROGRAM", "status": "Implementation", "sectors": ["Education"]}, "type": "Feature", "geometry": {"coordinates": [100.83104, 20.98503], "type": "Point"}}, {"id": 6132, "properties": {"id": "46004-40368-022-LN2777", "locationName": "Muang Gnot-Ou", "title": "SECONDARY EDUCATION SECTOR DEVELOPMENT PROGRAM", "status": "Implementation", "sectors": ["Education"]}, "type": "Feature", "geometry": {"coordinates": [101.874, 22.19586], "type": "Point"}}, {"id": 6133, "properties": {"id": "46004-40368-022-LN2777", "locationName": "Muang Sangthong", "title": "SECONDARY EDUCATION SECTOR DEVELOPMENT PROGRAM", "status": "Implementation", "sectors": ["Education"]}, "type": "Feature", "geometry": {"coordinates": [102.18523, 18.26282], "type": "Point"}}, {"id": 6134, "properties": {"id": "46004-40368-022-LN2777", "locationName": "Samphanh", "title": "SECONDARY EDUCATION SECTOR DEVELOPMENT PROGRAM", "status": "Implementation", "sectors": ["Education"]}, "type": "Feature", "geometry": {"coordinates": [102.41, 21.57], "type": "Point"}}, {"id": 6135, "properties": {"id": "46004-40368-022-LN2777", "locationName": "Muang Viengxay", "title": "SECONDARY EDUCATION SECTOR DEVELOPMENT PROGRAM", "status": "Implementation", "sectors": ["Education"]}, "type": "Feature", "geometry": {"coordinates": [104.34265, 20.34447], "type": "Point"}}, {"id": 6136, "properties": {"id": "46004-33356-014-LN2780", "locationName": "Muang Vangviang", "title": "NAM NGUM RIVER BASIN DEV'L SECTOR-ADDITIONAL FINANCING", "status": "Implementation", "sectors": ["Agriculture, natural resources and rural development"]}, "type": "Feature", "geometry": {"coordinates": [102.45908, 18.91292], "type": "Point"}}, {"id": 6137, "properties": {"id": "46004-33356-014-LN2780", "locationName": "Muang Thoulakh\u00f4m", "title": "NAM NGUM RIVER BASIN DEV'L SECTOR-ADDITIONAL FINANCING", "status": "Implementation", "sectors": ["Agriculture, natural resources and rural development"]}, "type": "Feature", "geometry": {"coordinates": [102.69641, 18.36766], "type": "Point"}}, {"id": 6138, "properties": {"id": "46004-33356-014-LN2780", "locationName": "Muang Ph\u00f4n-H\u00f4ng", "title": "NAM NGUM RIVER BASIN DEV'L SECTOR-ADDITIONAL FINANCING", "status": "Implementation", "sectors": ["Agriculture, natural resources and rural development"]}, "type": "Feature", "geometry": {"coordinates": [102.38488, 18.41242], "type": "Point"}}, {"id": 6139, "properties": {"id": "46004-33356-014-LN2780", "locationName": "Muang P\u00e8k", "title": "NAM NGUM RIVER BASIN DEV'L SECTOR-ADDITIONAL FINANCING", "status": "Implementation", "sectors": ["Agriculture, natural resources and rural development"]}, "type": "Feature", "geometry": {"coordinates": [103.27385, 19.51372], "type": "Point"}}, {"id": 6140, "properties": {"id": "46004-33356-014-LN2780", "locationName": "Muang Kasi", "title": "NAM NGUM RIVER BASIN DEV'L SECTOR-ADDITIONAL FINANCING", "status": "Implementation", "sectors": ["Agriculture, natural resources and rural development"]}, "type": "Feature", "geometry": {"coordinates": [102.1743, 19.14207], "type": "Point"}}, {"id": 6141, "properties": {"id": "46004-33356-014-LN2780", "locationName": "Muang K\u00e8o-Oud\u00f4m", "title": "NAM NGUM RIVER BASIN DEV'L SECTOR-ADDITIONAL FINANCING", "status": "Implementation", "sectors": ["Agriculture, natural resources and rural development"]}, "type": "Feature", "geometry": {"coordinates": [102.56856, 18.56926], "type": "Point"}}, {"id": 6142, "properties": {"id": "46004-33356-014-LN2780", "locationName": "Muang H\u00f4m", "title": "NAM NGUM RIVER BASIN DEV'L SECTOR-ADDITIONAL FINANCING", "status": "Implementation", "sectors": ["Agriculture, natural resources and rural development"]}, "type": "Feature", "geometry": {"coordinates": [103.29486, 18.69246], "type": "Point"}}, {"id": 6143, "properties": {"id": "46004-33356-014-LN2780", "locationName": "Muang Xais\u00f4mboun", "title": "NAM NGUM RIVER BASIN DEV'L SECTOR-ADDITIONAL FINANCING", "status": "Implementation", "sectors": ["Agriculture, natural resources and rural development"]}, "type": "Feature", "geometry": {"coordinates": [103.06752, 18.95489], "type": "Point"}}, {"id": 6144, "properties": {"id": "46004-33356-014-LN2780", "locationName": "Muang Fuang", "title": "NAM NGUM RIVER BASIN DEV'L SECTOR-ADDITIONAL FINANCING", "status": "Implementation", "sectors": ["Agriculture, natural resources and rural development"]}, "type": "Feature", "geometry": {"coordinates": [102.07889, 18.62355], "type": "Point"}}, {"id": 6145, "properties": {"id": "46004-33356-014-LN2780", "locationName": "Muang Phou Khoun", "title": "NAM NGUM RIVER BASIN DEV'L SECTOR-ADDITIONAL FINANCING", "status": "Implementation", "sectors": ["Agriculture, natural resources and rural development"]}, "type": "Feature", "geometry": {"coordinates": [102.59606, 19.50724], "type": "Point"}}, {"id": 6146, "properties": {"id": "46004-33356-014-LN2780", "locationName": "Muang Viangkhan", "title": "NAM NGUM RIVER BASIN DEV'L SECTOR-ADDITIONAL FINANCING", "status": "Implementation", "sectors": ["Agriculture, natural resources and rural development"]}, "type": "Feature", "geometry": {"coordinates": [103.04112, 20.49112], "type": "Point"}}, {"id": 6147, "properties": {"id": "46004-33356-014-LN2780", "locationName": "Muang Phaxai", "title": "NAM NGUM RIVER BASIN DEV'L SECTOR-ADDITIONAL FINANCING", "status": "Implementation", "sectors": ["Agriculture, natural resources and rural development"]}, "type": "Feature", "geometry": {"coordinates": [103.09067, 19.25808], "type": "Point"}}, {"id": 6148, "properties": {"id": "46004-33356-014-LN2780", "locationName": "Muang Phou Kont", "title": "NAM NGUM RIVER BASIN DEV'L SECTOR-ADDITIONAL FINANCING", "status": "Implementation", "sectors": ["Agriculture, natural resources and rural development"]}, "type": "Feature", "geometry": {"coordinates": [103.01856, 19.62585], "type": "Point"}}, {"id": 6149, "properties": {"id": "46004-33356-014-LN2780", "locationName": "Muang Xaithani", "title": "NAM NGUM RIVER BASIN DEV'L SECTOR-ADDITIONAL FINANCING", "status": "Implementation", "sectors": ["Agriculture, natural resources and rural development"]}, "type": "Feature", "geometry": {"coordinates": [102.72375, 18.14132], "type": "Point"}}, {"id": 6150, "properties": {"id": "46004-33356-014-LN2780", "locationName": "Muang Maypakngum", "title": "NAM NGUM RIVER BASIN DEV'L SECTOR-ADDITIONAL FINANCING", "status": "Implementation", "sectors": ["Agriculture, natural resources and rural development"]}, "type": "Feature", "geometry": {"coordinates": [102.93772, 18.13972], "type": "Point"}}, {"id": 6151, "properties": {"id": "46004-31351-014-LN2809", "locationName": "Vientiane", "title": "SMALLHOLDER DEVELOPMENT PROJECT-ADDITIONAL FINANCING", "status": "Implementation", "sectors": ["Agriculture, natural resources and rural development"]}, "type": "Feature", "geometry": {"coordinates": [102.41667, 18.75], "type": "Point"}}, {"id": 6152, "properties": {"id": "46004-31351-014-LN2809", "locationName": "Khou\u00e8ng Savannakh\u00e9t", "title": "SMALLHOLDER DEVELOPMENT PROJECT-ADDITIONAL FINANCING", "status": "Implementation", "sectors": ["Agriculture, natural resources and rural development"]}, "type": "Feature", "geometry": {"coordinates": [105.75, 16.5], "type": "Point"}}, {"id": 6153, "properties": {"id": "46004-31351-014-LN2809", "locationName": "Muang Mahaxai", "title": "SMALLHOLDER DEVELOPMENT PROJECT-ADDITIONAL FINANCING", "status": "Implementation", "sectors": ["Agriculture, natural resources and rural development"]}, "type": "Feature", "geometry": {"coordinates": [105.31497, 17.36318], "type": "Point"}}, {"id": 6154, "properties": {"id": "46004-31351-014-LN2809", "locationName": "Muang Kh\u00f4ng", "title": "SMALLHOLDER DEVELOPMENT PROJECT-ADDITIONAL FINANCING", "status": "Implementation", "sectors": ["Agriculture, natural resources and rural development"]}, "type": "Feature", "geometry": {"coordinates": [105.95938, 14.14696], "type": "Point"}}, {"id": 6155, "properties": {"id": "46004-31351-014-LN2809", "locationName": "Khammouan", "title": "SMALLHOLDER DEVELOPMENT PROJECT-ADDITIONAL FINANCING", "status": "Implementation", "sectors": ["Agriculture, natural resources and rural development"]}, "type": "Feature", "geometry": {"coordinates": [105.33333, 17.5], "type": "Point"}}, {"id": 6156, "properties": {"id": "46004-31351-014-LN2809", "locationName": "Muang Kasi", "title": "SMALLHOLDER DEVELOPMENT PROJECT-ADDITIONAL FINANCING", "status": "Implementation", "sectors": ["Agriculture, natural resources and rural development"]}, "type": "Feature", "geometry": {"coordinates": [102.1743, 19.14207], "type": "Point"}}, {"id": 6157, "properties": {"id": "46004-31351-014-LN2809", "locationName": "Champasak", "title": "SMALLHOLDER DEVELOPMENT PROJECT-ADDITIONAL FINANCING", "status": "Implementation", "sectors": ["Agriculture, natural resources and rural development"]}, "type": "Feature", "geometry": {"coordinates": [106.0, 14.75], "type": "Point"}}, {"id": 6158, "properties": {"id": "46004-31351-014-LN2809", "locationName": "Muang Xanas\u00f4mboun", "title": "SMALLHOLDER DEVELOPMENT PROJECT-ADDITIONAL FINANCING", "status": "Implementation", "sectors": ["Agriculture, natural resources and rural development"]}, "type": "Feature", "geometry": {"coordinates": [105.73703, 15.34107], "type": "Point"}}, {"id": 6159, "properties": {"id": "46004-31351-014-LN2809", "locationName": "Muang Alsaphangthong", "title": "SMALLHOLDER DEVELOPMENT PROJECT-ADDITIONAL FINANCING", "status": "Implementation", "sectors": ["Agriculture, natural resources and rural development"]}, "type": "Feature", "geometry": {"coordinates": [105.39326, 16.72645], "type": "Point"}}, {"id": 6160, "properties": {"id": "46004-31351-014-LN2809", "locationName": "Muang Xebangfai", "title": "SMALLHOLDER DEVELOPMENT PROJECT-ADDITIONAL FINANCING", "status": "Implementation", "sectors": ["Agriculture, natural resources and rural development"]}, "type": "Feature", "geometry": {"coordinates": [105.1259, 17.1762], "type": "Point"}}, {"id": 6161, "properties": {"id": "46004-31351-014-LN2809", "locationName": "Muang Xanakham", "title": "SMALLHOLDER DEVELOPMENT PROJECT-ADDITIONAL FINANCING", "status": "Implementation", "sectors": ["Agriculture, natural resources and rural development"]}, "type": "Feature", "geometry": {"coordinates": [101.7, 17.91667], "type": "Point"}}, {"id": 6162, "properties": {"id": "46004-31351-014-LN2809", "locationName": "Thaphalanxay", "title": "SMALLHOLDER DEVELOPMENT PROJECT-ADDITIONAL FINANCING", "status": "Implementation", "sectors": ["Agriculture, natural resources and rural development"]}, "type": "Feature", "geometry": {"coordinates": [105.6, 16.7], "type": "Point"}}, {"id": 6163, "properties": {"id": "46004-43120-013-LN2874", "locationName": "Vientiane", "title": "TRADE FACILITATION:IMPROVED SANITARY & PHYTOSANITARY HANDLNG N GM", "status": "Implementation", "sectors": ["Industry and trade"]}, "type": "Feature", "geometry": {"coordinates": [102.6, 17.96667], "type": "Point"}}, {"id": 6164, "properties": {"id": "46004-43120-013-LN2874", "locationName": "Pakxe", "title": "TRADE FACILITATION:IMPROVED SANITARY & PHYTOSANITARY HANDLNG N GM", "status": "Implementation", "sectors": ["Industry and trade"]}, "type": "Feature", "geometry": {"coordinates": [105.79898, 15.12022], "type": "Point"}}, {"id": 6165, "properties": {"id": "46004-43120-013-LN2874", "locationName": "Louangphabang", "title": "TRADE FACILITATION:IMPROVED SANITARY & PHYTOSANITARY HANDLNG N GM", "status": "Implementation", "sectors": ["Industry and trade"]}, "type": "Feature", "geometry": {"coordinates": [102.13503, 19.88601], "type": "Point"}}, {"id": 6166, "properties": {"id": "46004-43120-013-LN2874", "locationName": "Lao People's Democratic Republic", "title": "TRADE FACILITATION:IMPROVED SANITARY & PHYTOSANITARY HANDLNG N GM", "status": "Implementation", "sectors": ["Industry and trade"]}, "type": "Feature", "geometry": {"coordinates": [105.0, 18.0], "type": "Point"}}, {"id": 6167, "properties": {"id": "46004-43120-013-LN2874", "locationName": "Phnom Penh", "title": "TRADE FACILITATION:IMPROVED SANITARY & PHYTOSANITARY HANDLNG N GM", "status": "Implementation", "sectors": ["Industry and trade"]}, "type": "Feature", "geometry": {"coordinates": [104.91601, 11.56245], "type": "Point"}}, {"id": 6168, "properties": {"id": "46004-43120-013-LN2874", "locationName": "Takeo", "title": "TRADE FACILITATION:IMPROVED SANITARY & PHYTOSANITARY HANDLNG N GM", "status": "Implementation", "sectors": ["Industry and trade"]}, "type": "Feature", "geometry": {"coordinates": [104.78498, 10.99081], "type": "Point"}}, {"id": 6169, "properties": {"id": "46004-43120-013-LN2874", "locationName": "Siem Reap", "title": "TRADE FACILITATION:IMPROVED SANITARY & PHYTOSANITARY HANDLNG N GM", "status": "Implementation", "sectors": ["Industry and trade"]}, "type": "Feature", "geometry": {"coordinates": [103.86056, 13.36179], "type": "Point"}}, {"id": 6170, "properties": {"id": "46004-43120-013-LN2874", "locationName": "Prey Veng", "title": "TRADE FACILITATION:IMPROVED SANITARY & PHYTOSANITARY HANDLNG N GM", "status": "Implementation", "sectors": ["Industry and trade"]}, "type": "Feature", "geometry": {"coordinates": [105.46667, 11.36667], "type": "Point"}}, {"id": 6171, "properties": {"id": "46004-43120-013-LN2874", "locationName": "Kampong Saom", "title": "TRADE FACILITATION:IMPROVED SANITARY & PHYTOSANITARY HANDLNG N GM", "status": "Implementation", "sectors": ["Industry and trade"]}, "type": "Feature", "geometry": {"coordinates": [103.52958, 10.60932], "type": "Point"}}, {"id": 6172, "properties": {"id": "46004-43120-013-LN2874", "locationName": "Cambodia", "title": "TRADE FACILITATION:IMPROVED SANITARY & PHYTOSANITARY HANDLNG N GM", "status": "Implementation", "sectors": ["Industry and trade"]}, "type": "Feature", "geometry": {"coordinates": [105.0, 13.0], "type": "Point"}}, {"id": 6173, "properties": {"id": "46004-43316-012-LN2876", "locationName": "Muang Phonthong", "title": "PAKSE URBAN ENVIRONMENTAL IMPROVEMENT PROJECT (SF)", "status": "Implementation", "sectors": ["Water supply and other urban infrastructure and services"]}, "type": "Feature", "geometry": {"coordinates": [105.6489, 15.10669], "type": "Point"}}, {"id": 6174, "properties": {"id": "46004-43316-012-LN2876", "locationName": "Muang Pakxe", "title": "PAKSE URBAN ENVIRONMENTAL IMPROVEMENT PROJECT (SF)", "status": "Implementation", "sectors": ["Water supply and other urban infrastructure and services"]}, "type": "Feature", "geometry": {"coordinates": [105.81612, 15.13139], "type": "Point"}}, {"id": 6175, "properties": {"id": "46004-43316-012-LN2876", "locationName": "Xe Don", "title": "PAKSE URBAN ENVIRONMENTAL IMPROVEMENT PROJECT (SF)", "status": "Implementation", "sectors": ["Water supply and other urban infrastructure and services"]}, "type": "Feature", "geometry": {"coordinates": [105.79536, 15.11548], "type": "Point"}}, {"id": 6176, "properties": {"id": "46004-46059-001-LN2905", "locationName": "Lao People's Democratic Republic", "title": "GOVERNANCE & CAPACITY DEVL IN PUB SECTOR MNGT PROG-SUBPROGRAM 1", "status": "Completion", "sectors": ["Public sector management"]}, "type": "Feature", "geometry": {"coordinates": [105.0, 18.0], "type": "Point"}}, {"id": 6177, "properties": {"id": "46004-43319-022-LN2931", "locationName": "Khoueng Savannakhet", "title": "GMS EAST-WEST ECONOMIC CORRIDOR TOWNS DEVELOPMENT PROJECT", "status": "Implementation", "sectors": ["Water supply and other urban infrastructure and services"]}, "type": "Feature", "geometry": {"coordinates": [105.75, 16.5], "type": "Point"}}, {"id": 6178, "properties": {"id": "46004-43319-022-LN2931", "locationName": "Savannakhet", "title": "GMS EAST-WEST ECONOMIC CORRIDOR TOWNS DEVELOPMENT PROJECT", "status": "Implementation", "sectors": ["Water supply and other urban infrastructure and services"]}, "type": "Feature", "geometry": {"coordinates": [104.75273, 16.56504], "type": "Point"}}, {"id": 6179, "properties": {"id": "46004-43319-022-LN2931", "locationName": "Muang Phin", "title": "GMS EAST-WEST ECONOMIC CORRIDOR TOWNS DEVELOPMENT PROJECT", "status": "Implementation", "sectors": ["Water supply and other urban infrastructure and services"]}, "type": "Feature", "geometry": {"coordinates": [106.02338, 16.53296], "type": "Point"}}, {"id": 6180, "properties": {"id": "46004-40190-023-LN2936", "locationName": "Vietnam", "title": "GREATER MEKONG SUBREGION FLOOD & DROUGHT RISK MANGMNT/MITGTN PROJ", "status": "Implementation", "sectors": ["Agriculture, natural resources and rural development"]}, "type": "Feature", "geometry": {"coordinates": [107.83333, 16.16667], "type": "Point"}}, {"id": 6181, "properties": {"id": "46004-40190-023-LN2936", "locationName": "T\u1ec9nh Ti\u1ec1n Giang", "title": "GREATER MEKONG SUBREGION FLOOD & DROUGHT RISK MANGMNT/MITGTN PROJ", "status": "Implementation", "sectors": ["Agriculture, natural resources and rural development"]}, "type": "Feature", "geometry": {"coordinates": [106.3, 10.4], "type": "Point"}}, {"id": 6182, "properties": {"id": "46004-40190-023-LN2936", "locationName": "G\u00f2 C\u00f4ng", "title": "GREATER MEKONG SUBREGION FLOOD & DROUGHT RISK MANGMNT/MITGTN PROJ", "status": "Implementation", "sectors": ["Agriculture, natural resources and rural development"]}, "type": "Feature", "geometry": {"coordinates": [106.66667, 10.36667], "type": "Point"}}, {"id": 6183, "properties": {"id": "46004-40190-023-LN2936", "locationName": "T\u1ec9nh \u0110\u1ed3ng Th\u00e1p", "title": "GREATER MEKONG SUBREGION FLOOD & DROUGHT RISK MANGMNT/MITGTN PROJ", "status": "Implementation", "sectors": ["Agriculture, natural resources and rural development"]}, "type": "Feature", "geometry": {"coordinates": [105.63333, 10.58333], "type": "Point"}}, {"id": 6184, "properties": {"id": "46004-40190-023-LN2936", "locationName": "Lao People's Democratic Republic", "title": "GREATER MEKONG SUBREGION FLOOD & DROUGHT RISK MANGMNT/MITGTN PROJ", "status": "Implementation", "sectors": ["Agriculture, natural resources and rural development"]}, "type": "Feature", "geometry": {"coordinates": [105.0, 18.0], "type": "Point"}},