{"id": "TJ", "properties": {"name": "Tajikistan", "bounds": [67.34269006300022, 36.67864084900019, 75.16412479700008, 41.039976705000086]}, "type": "FeatureCollection", "features": [{"id": 9273, "properties": {"id": "46004-42189-012-GRNT0124", "locationName": "Nurek Dam", "title": "NUREK 500 KV SWITCHYARD RECONSTRUCTION PROJECT", "status": "Implementation", "sectors": ["Energy"]}, "type": "Feature", "geometry": {"coordinates": [69.34843, 38.37137], "type": "Point"}}, {"id": 9274, "properties": {"id": "46004-38236-022-GRNT0154", "locationName": "Obigarm", "title": "DUSHANBE-KYRGYZ BORDER ROAD REHABILITATION PROJ (P", "status": "Completion", "sectors": ["Transport"]}, "type": "Feature", "geometry": {"coordinates": [69.70885, 38.71731], "type": "Point"}}, {"id": 9275, "properties": {"id": "46004-38236-022-GRNT0154", "locationName": "Nimichi-Poy\u00ebn", "title": "DUSHANBE-KYRGYZ BORDER ROAD REHABILITATION PROJ (P", "status": "Completion", "sectors": ["Transport"]}, "type": "Feature", "geometry": {"coordinates": [70.67358, 39.10055], "type": "Point"}}, {"id": 9276, "properties": {"id": "46004-38236-022-GRNT0154", "locationName": "Novobod", "title": "DUSHANBE-KYRGYZ BORDER ROAD REHABILITATION PROJ (P", "status": "Completion", "sectors": ["Transport"]}, "type": "Feature", "geometry": {"coordinates": [70.15082, 39.01084], "type": "Point"}}, {"id": 9277, "properties": {"id": "46004-38236-022-GRNT0154", "locationName": "Kaznok", "title": "DUSHANBE-KYRGYZ BORDER ROAD REHABILITATION PROJ (P", "status": "Completion", "sectors": ["Transport"]}, "type": "Feature", "geometry": {"coordinates": [70.26273, 39.01079], "type": "Point"}}, {"id": 9278, "properties": {"id": "46004-38236-022-GRNT0154", "locationName": "Kalanak", "title": "DUSHANBE-KYRGYZ BORDER ROAD REHABILITATION PROJ (P", "status": "Completion", "sectors": ["Transport"]}, "type": "Feature", "geometry": {"coordinates": [70.50538, 39.08611], "type": "Point"}}, {"id": 9279, "properties": {"id": "46004-38236-022-GRNT0154", "locationName": "Kadara", "title": "DUSHANBE-KYRGYZ BORDER ROAD REHABILITATION PROJ (P", "status": "Completion", "sectors": ["Transport"]}, "type": "Feature", "geometry": {"coordinates": [70.28867, 38.98381], "type": "Point"}}, {"id": 9280, "properties": {"id": "46004-38236-022-GRNT0154", "locationName": "Dushanbe", "title": "DUSHANBE-KYRGYZ BORDER ROAD REHABILITATION PROJ (P", "status": "Completion", "sectors": ["Transport"]}, "type": "Feature", "geometry": {"coordinates": [68.77905, 38.53575], "type": "Point"}}, {"id": 9281, "properties": {"id": "46004-38236-022-GRNT0154", "locationName": "Roghun", "title": "DUSHANBE-KYRGYZ BORDER ROAD REHABILITATION PROJ (P", "status": "Completion", "sectors": ["Transport"]}, "type": "Feature", "geometry": {"coordinates": [69.73692, 38.69331], "type": "Point"}}, {"id": 9282, "properties": {"id": "46004-38236-022-GRNT0154", "locationName": "Tojikobod District", "title": "DUSHANBE-KYRGYZ BORDER ROAD REHABILITATION PROJ (P", "status": "Completion", "sectors": ["Transport"]}, "type": "Feature", "geometry": {"coordinates": [70.8, 39.2], "type": "Point"}}, {"id": 9283, "properties": {"id": "46004-38236-022-GRNT0154", "locationName": "Roghun District", "title": "DUSHANBE-KYRGYZ BORDER ROAD REHABILITATION PROJ (P", "status": "Completion", "sectors": ["Transport"]}, "type": "Feature", "geometry": {"coordinates": [69.77, 38.75], "type": "Point"}}, {"id": 9284, "properties": {"id": "46004-38236-022-GRNT0154", "locationName": "Nohiyai Rasht", "title": "DUSHANBE-KYRGYZ BORDER ROAD REHABILITATION PROJ (P", "status": "Completion", "sectors": ["Transport"]}, "type": "Feature", "geometry": {"coordinates": [70.35998, 39.23491], "type": "Point"}}, {"id": 9285, "properties": {"id": "46004-38236-022-GRNT0154", "locationName": "Nohiyai Nurobod", "title": "DUSHANBE-KYRGYZ BORDER ROAD REHABILITATION PROJ (P", "status": "Completion", "sectors": ["Transport"]}, "type": "Feature", "geometry": {"coordinates": [70.08629, 38.87272], "type": "Point"}}, {"id": 9286, "properties": {"id": "46004-38236-022-GRNT0154", "locationName": "Nohiyai R\u016bdak\u00ed", "title": "DUSHANBE-KYRGYZ BORDER ROAD REHABILITATION PROJ (P", "status": "Completion", "sectors": ["Transport"]}, "type": "Feature", "geometry": {"coordinates": [68.58544, 38.35096], "type": "Point"}}, {"id": 9287, "properties": {"id": "46004-43150-022-GRNT0213", "locationName": "Tajikistan", "title": "REGIONAL POWER TRANSMISSION PROJECT", "status": "Implementation", "sectors": ["Energy"]}, "type": "Feature", "geometry": {"coordinates": [71.0, 39.0], "type": "Point"}}, {"id": 9288, "properties": {"id": "46004-43150-022-GRNT0213", "locationName": "Shahritus", "title": "REGIONAL POWER TRANSMISSION PROJECT", "status": "Implementation", "sectors": ["Energy"]}, "type": "Feature", "geometry": {"coordinates": [68.13849, 37.26206], "type": "Point"}}, {"id": 9289, "properties": {"id": "46004-43150-022-GRNT0213", "locationName": "Regor", "title": "REGIONAL POWER TRANSMISSION PROJECT", "status": "Implementation", "sectors": ["Energy"]}, "type": "Feature", "geometry": {"coordinates": [68.235, 38.50417], "type": "Point"}}, {"id": 9290, "properties": {"id": "46004-43150-022-GRNT0213", "locationName": "Pastakon", "title": "REGIONAL POWER TRANSMISSION PROJECT", "status": "Implementation", "sectors": ["Energy"]}, "type": "Feature", "geometry": {"coordinates": [69.13209, 38.29432], "type": "Point"}}, {"id": 9291, "properties": {"id": "46004-43150-022-GRNT0213", "locationName": "Yakkadin", "title": "REGIONAL POWER TRANSMISSION PROJECT", "status": "Implementation", "sectors": ["Energy"]}, "type": "Feature", "geometry": {"coordinates": [68.55975, 37.41763], "type": "Point"}}, {"id": 9292, "properties": {"id": "46004-43150-022-GRNT0213", "locationName": "Jilik\u016dl", "title": "REGIONAL POWER TRANSMISSION PROJECT", "status": "Implementation", "sectors": ["Energy"]}, "type": "Feature", "geometry": {"coordinates": [68.53106, 37.49167], "type": "Point"}}, {"id": 9293, "properties": {"id": "46004-43150-022-GRNT0213", "locationName": "D\u016dst\u00ed", "title": "REGIONAL POWER TRANSMISSION PROJECT", "status": "Implementation", "sectors": ["Energy"]}, "type": "Feature", "geometry": {"coordinates": [68.66398, 37.34812], "type": "Point"}}, {"id": 9294, "properties": {"id": "46004-43150-022-GRNT0213", "locationName": "Pervoye Maya", "title": "REGIONAL POWER TRANSMISSION PROJECT", "status": "Implementation", "sectors": ["Energy"]}, "type": "Feature", "geometry": {"coordinates": [68.71443, 37.33594], "type": "Point"}}, {"id": 9295, "properties": {"id": "46004-43150-022-GRNT0213", "locationName": "Tel\u2019man", "title": "REGIONAL POWER TRANSMISSION PROJECT", "status": "Implementation", "sectors": ["Energy"]}, "type": "Feature", "geometry": {"coordinates": [68.61773, 37.41037], "type": "Point"}}, {"id": 9296, "properties": {"id": "46004-43150-022-GRNT0213", "locationName": "Sovetobod", "title": "REGIONAL POWER TRANSMISSION PROJECT", "status": "Implementation", "sectors": ["Energy"]}, "type": "Feature", "geometry": {"coordinates": [68.24005, 37.4724], "type": "Point"}}, {"id": 9297, "properties": {"id": "46004-43150-022-GRNT0213", "locationName": "Qayroqqum", "title": "REGIONAL POWER TRANSMISSION PROJECT", "status": "Implementation", "sectors": ["Energy"]}, "type": "Feature", "geometry": {"coordinates": [69.79585, 40.26598], "type": "Point"}}, {"id": 9298, "properties": {"id": "46004-43150-022-GRNT0213", "locationName": "Shaydon", "title": "REGIONAL POWER TRANSMISSION PROJECT", "status": "Implementation", "sectors": ["Energy"]}, "type": "Feature", "geometry": {"coordinates": [70.3502, 40.66992], "type": "Point"}}, {"id": 9299, "properties": {"id": "46004-43150-022-GRNT0213", "locationName": "Ghafurov District", "title": "REGIONAL POWER TRANSMISSION PROJECT", "status": "Implementation", "sectors": ["Energy"]}, "type": "Feature", "geometry": {"coordinates": [69.74396, 40.42716], "type": "Point"}}, {"id": 9300, "properties": {"id": "46004-43150-022-GRNT0213", "locationName": "Nohiyai Asht", "title": "REGIONAL POWER TRANSMISSION PROJECT", "status": "Implementation", "sectors": ["Energy"]}, "type": "Feature", "geometry": {"coordinates": [70.3502, 40.69364], "type": "Point"}}, {"id": 9301, "properties": {"id": "46004-43150-022-GRNT0213", "locationName": "Qabodiyon District", "title": "REGIONAL POWER TRANSMISSION PROJECT", "status": "Implementation", "sectors": ["Energy"]}, "type": "Feature", "geometry": {"coordinates": [68.26299, 37.49623], "type": "Point"}}, {"id": 9302, "properties": {"id": "46004-43150-022-GRNT0213", "locationName": "Qumsangir District", "title": "REGIONAL POWER TRANSMISSION PROJECT", "status": "Implementation", "sectors": ["Energy"]}, "type": "Feature", "geometry": {"coordinates": [68.70115, 37.36052], "type": "Point"}}, {"id": 9303, "properties": {"id": "46004-43150-022-GRNT0213", "locationName": "Jilikul District", "title": "REGIONAL POWER TRANSMISSION PROJECT", "status": "Implementation", "sectors": ["Energy"]}, "type": "Feature", "geometry": {"coordinates": [68.47444, 37.55438], "type": "Point"}}, {"id": 9304, "properties": {"id": "46004-43150-022-GRNT0213", "locationName": "Nuri Vakhsh", "title": "REGIONAL POWER TRANSMISSION PROJECT", "status": "Implementation", "sectors": ["Energy"]}, "type": "Feature", "geometry": {"coordinates": [68.48479, 37.5529], "type": "Point"}}, {"id": 9305, "properties": {"id": "46004-38236-022-LN2196", "locationName": "Obigarm", "title": "DUSHANBE-KYRGYZ BORDER ROAD REHABILITATION PROJECT-PHASE II(TAJ)", "status": "Completion", "sectors": ["Transport"]}, "type": "Feature", "geometry": {"coordinates": [69.70885, 38.71731], "type": "Point"}}, {"id": 9306, "properties": {"id": "46004-38236-022-LN2196", "locationName": "Nimichi-Poy\u00ebn", "title": "DUSHANBE-KYRGYZ BORDER ROAD REHABILITATION PROJECT-PHASE II(TAJ)", "status": "Completion", "sectors": ["Transport"]}, "type": "Feature", "geometry": {"coordinates": [70.67358, 39.10055], "type": "Point"}}, {"id": 9307, "properties": {"id": "46004-38236-022-LN2196", "locationName": "Novobod", "title": "DUSHANBE-KYRGYZ BORDER ROAD REHABILITATION PROJECT-PHASE II(TAJ)", "status": "Completion", "sectors": ["Transport"]}, "type": "Feature", "geometry": {"coordinates": [70.15082, 39.01084], "type": "Point"}}, {"id": 9308, "properties": {"id": "46004-38236-022-LN2196", "locationName": "Kaznok", "title": "DUSHANBE-KYRGYZ BORDER ROAD REHABILITATION PROJECT-PHASE II(TAJ)", "status": "Completion", "sectors": ["Transport"]}, "type": "Feature", "geometry": {"coordinates": [70.26273, 39.01079], "type": "Point"}}, {"id": 9309, "properties": {"id": "46004-38236-022-LN2196", "locationName": "Kalanak", "title": "DUSHANBE-KYRGYZ BORDER ROAD REHABILITATION PROJECT-PHASE II(TAJ)", "status": "Completion", "sectors": ["Transport"]}, "type": "Feature", "geometry": {"coordinates": [70.50538, 39.08611], "type": "Point"}}, {"id": 9310, "properties": {"id": "46004-38236-022-LN2196", "locationName": "Kadara", "title": "DUSHANBE-KYRGYZ BORDER ROAD REHABILITATION PROJECT-PHASE II(TAJ)", "status": "Completion", "sectors": ["Transport"]}, "type": "Feature", "geometry": {"coordinates": [70.28867, 38.98381], "type": "Point"}}, {"id": 9311, "properties": {"id": "46004-38236-022-LN2196", "locationName": "Dushanbe", "title": "DUSHANBE-KYRGYZ BORDER ROAD REHABILITATION PROJECT-PHASE II(TAJ)", "status": "Completion", "sectors": ["Transport"]}, "type": "Feature", "geometry": {"coordinates": [68.77905, 38.53575], "type": "Point"}}, {"id": 9312, "properties": {"id": "46004-38236-022-LN2196", "locationName": "Roghun", "title": "DUSHANBE-KYRGYZ BORDER ROAD REHABILITATION PROJECT-PHASE II(TAJ)", "status": "Completion", "sectors": ["Transport"]}, "type": "Feature", "geometry": {"coordinates": [69.73692, 38.69331], "type": "Point"}}, {"id": 9313, "properties": {"id": "46004-38236-022-LN2196", "locationName": "Tojikobod District", "title": "DUSHANBE-KYRGYZ BORDER ROAD REHABILITATION PROJECT-PHASE II(TAJ)", "status": "Completion", "sectors": ["Transport"]}, "type": "Feature", "geometry": {"coordinates": [70.8, 39.2], "type": "Point"}}, {"id": 9314, "properties": {"id": "46004-38236-022-LN2196", "locationName": "Roghun District", "title": "DUSHANBE-KYRGYZ BORDER ROAD REHABILITATION PROJECT-PHASE II(TAJ)", "status": "Completion", "sectors": ["Transport"]}, "type": "Feature", "geometry": {"coordinates": [69.77, 38.75], "type": "Point"}}, {"id": 9315, "properties": {"id": "46004-38236-022-LN2196", "locationName": "Nohiyai Rasht", "title": "DUSHANBE-KYRGYZ BORDER ROAD REHABILITATION PROJECT-PHASE II(TAJ)", "status": "Completion", "sectors": ["Transport"]}, "type": "Feature", "geometry": {"coordinates": [70.35998, 39.23491], "type": "Point"}}, {"id": 9316, "properties": {"id": "46004-38236-022-LN2196", "locationName": "Nohiyai Nurobod", "title": "DUSHANBE-KYRGYZ BORDER ROAD REHABILITATION PROJECT-PHASE II(TAJ)", "status": "Completion", "sectors": ["Transport"]}, "type": "Feature", "geometry": {"coordinates": [70.08629, 38.87272], "type": "Point"}}, {"id": 9317, "properties": {"id": "46004-38236-022-LN2196", "locationName": "Nohiyai R\u016bdak\u00ed", "title": "DUSHANBE-KYRGYZ BORDER ROAD REHABILITATION PROJECT-PHASE II(TAJ)", "status": "Completion", "sectors": ["Transport"]}, "type": "Feature", "geometry": {"coordinates": [68.58544, 38.35096], "type": "Point"}}, {"id": 9318, "properties": {"id": "46004-38236-022-GRNT0023", "locationName": "Obigarm", "title": "HIV/AIDS AND MIGRATION (ADF)", "status": "Completion", "sectors": ["Health"]}, "type": "Feature", "geometry": {"coordinates": [69.70885, 38.71731], "type": "Point"}}, {"id": 9319, "properties": {"id": "46004-38236-022-GRNT0023", "locationName": "Nimichi-Poy\u00ebn", "title": "HIV/AIDS AND MIGRATION (ADF)", "status": "Completion", "sectors": ["Health"]}, "type": "Feature", "geometry": {"coordinates": [70.67358, 39.10055], "type": "Point"}}, {"id": 9320, "properties": {"id": "46004-38236-022-GRNT0023", "locationName": "Novobod", "title": "HIV/AIDS AND MIGRATION (ADF)", "status": "Completion", "sectors": ["Health"]}, "type": "Feature", "geometry": {"coordinates": [70.15082, 39.01084], "type": "Point"}}, {"id": 9321, "properties": {"id": "46004-38236-022-GRNT0023", "locationName": "Kaznok", "title": "HIV/AIDS AND MIGRATION (ADF)", "status": "Completion", "sectors": ["Health"]}, "type": "Feature", "geometry": {"coordinates": [70.26273, 39.01079], "type": "Point"}}, {"id": 9322, "properties": {"id": "46004-38236-022-GRNT0023", "locationName": "Kalanak", "title": "HIV/AIDS AND MIGRATION (ADF)", "status": "Completion", "sectors": ["Health"]}, "type": "Feature", "geometry": {"coordinates": [70.50538, 39.08611], "type": "Point"}}, {"id": 9323, "properties": {"id": "46004-38236-022-GRNT0023", "locationName": "Kadara", "title": "HIV/AIDS AND MIGRATION (ADF)", "status": "Completion", "sectors": ["Health"]}, "type": "Feature", "geometry": {"coordinates": [70.28867, 38.98381], "type": "Point"}}, {"id": 9324, "properties": {"id": "46004-38236-022-GRNT0023", "locationName": "Dushanbe", "title": "HIV/AIDS AND MIGRATION (ADF)", "status": "Completion", "sectors": ["Health"]}, "type": "Feature", "geometry": {"coordinates": [68.77905, 38.53575], "type": "Point"}}, {"id": 9325, "properties": {"id": "46004-38236-022-GRNT0023", "locationName": "Roghun", "title": "HIV/AIDS AND MIGRATION (ADF)", "status": "Completion", "sectors": ["Health"]}, "type": "Feature", "geometry": {"coordinates": [69.73692, 38.69331], "type": "Point"}}, {"id": 9326, "properties": {"id": "46004-38236-022-GRNT0023", "locationName": "Tojikobod District", "title": "HIV/AIDS AND MIGRATION (ADF)", "status": "Completion", "sectors": ["Health"]}, "type": "Feature", "geometry": {"coordinates": [70.8, 39.2], "type": "Point"}}, {"id": 9327, "properties": {"id": "46004-38236-022-GRNT0023", "locationName": "Roghun District", "title": "HIV/AIDS AND MIGRATION (ADF)", "status": "Completion", "sectors": ["Health"]}, "type": "Feature", "geometry": {"coordinates": [69.77, 38.75], "type": "Point"}}, {"id": 9328, "properties": {"id": "46004-38236-022-GRNT0023", "locationName": "Nohiyai Rasht", "title": "HIV/AIDS AND MIGRATION (ADF)", "status": "Completion", "sectors": ["Health"]}, "type": "Feature", "geometry": {"coordinates": [70.35998, 39.23491], "type": "Point"}}, {"id": 9329, "properties": {"id": "46004-38236-022-GRNT0023", "locationName": "Nohiyai Nurobod", "title": "HIV/AIDS AND MIGRATION (ADF)", "status": "Completion", "sectors": ["Health"]}, "type": "Feature", "geometry": {"coordinates": [70.08629, 38.87272], "type": "Point"}}, {"id": 9330, "properties": {"id": "46004-38236-022-GRNT0023", "locationName": "Nohiyai R\u016bdak\u00ed", "title": "HIV/AIDS AND MIGRATION (ADF)", "status": "Completion", "sectors": ["Health"]}, "type": "Feature", "geometry": {"coordinates": [68.58544, 38.35096], "type": "Point"}}, {"id": 9331, "properties": {"id": "46004-40043-013-LN2303", "locationName": "Qizil Qal\u2018ah", "title": "REGIONAL POWR TRANSMISSION INTERCONNECTION PROJ (TAJIK COMPONENT)", "status": "Completion", "sectors": ["Energy"]}, "type": "Feature", "geometry": {"coordinates": [68.61126, 37.19041], "type": "Point"}}, {"id": 9332, "properties": {"id": "46004-40043-013-LN2303", "locationName": "Kunduz", "title": "REGIONAL POWR TRANSMISSION INTERCONNECTION PROJ (TAJIK COMPONENT)", "status": "Completion", "sectors": ["Energy"]}, "type": "Feature", "geometry": {"coordinates": [68.857, 36.72896], "type": "Point"}}, {"id": 9333, "properties": {"id": "46004-40043-013-LN2303", "locationName": "Puli Khumri", "title": "REGIONAL POWR TRANSMISSION INTERCONNECTION PROJ (TAJIK COMPONENT)", "status": "Completion", "sectors": ["Energy"]}, "type": "Feature", "geometry": {"coordinates": [68.64001, 36.00118], "type": "Point"}}, {"id": 9334, "properties": {"id": "46004-37530-013-LN2313", "locationName": "Vahdat", "title": "RURAL DEVELOPMENT PROJECT", "status": "Implementation", "sectors": ["Finance"]}, "type": "Feature", "geometry": {"coordinates": [69.33333, 38.83333], "type": "Point"}}, {"id": 9335, "properties": {"id": "46004-37530-013-LN2313", "locationName": "Roghun District", "title": "RURAL DEVELOPMENT PROJECT", "status": "Implementation", "sectors": ["Finance"]}, "type": "Feature", "geometry": {"coordinates": [69.77, 38.75], "type": "Point"}}, {"id": 9336, "properties": {"id": "46004-37530-013-LN2313", "locationName": "Varzob District", "title": "RURAL DEVELOPMENT PROJECT", "status": "Implementation", "sectors": ["Finance"]}, "type": "Feature", "geometry": {"coordinates": [68.75, 38.75], "type": "Point"}}, {"id": 9337, "properties": {"id": "46004-37530-013-LN2313", "locationName": "Nohiyai R\u016bdak\u00ed", "title": "RURAL DEVELOPMENT PROJECT", "status": "Implementation", "sectors": ["Finance"]}, "type": "Feature", "geometry": {"coordinates": [68.58544, 38.35096], "type": "Point"}}, {"id": 9338, "properties": {"id": "46004-37530-013-LN2313", "locationName": "Faizobod District", "title": "RURAL DEVELOPMENT PROJECT", "status": "Implementation", "sectors": ["Finance"]}, "type": "Feature", "geometry": {"coordinates": [69.3167, 38.55], "type": "Point"}}, {"id": 9339, "properties": {"id": "46004-40046-013-LN2356", "locationName": "Yokhsu", "title": "KHATLON PROVINCE FLOOD RISK MANAGEMENT PROJECT", "status": "Completion", "sectors": ["Agriculture, natural resources and rural development"]}, "type": "Feature", "geometry": {"coordinates": [69.56667, 37.7747], "type": "Point"}}, {"id": 9340, "properties": {"id": "46004-40046-013-LN2356", "locationName": "Sayod", "title": "KHATLON PROVINCE FLOOD RISK MANAGEMENT PROJECT", "status": "Completion", "sectors": ["Agriculture, natural resources and rural development"]}, "type": "Feature", "geometry": {"coordinates": [70.64424, 38.77634], "type": "Point"}}, {"id": 9341, "properties": {"id": "46004-40046-013-LN2356", "locationName": "Somonch\u00ed", "title": "KHATLON PROVINCE FLOOD RISK MANAGEMENT PROJECT", "status": "Completion", "sectors": ["Agriculture, natural resources and rural development"]}, "type": "Feature", "geometry": {"coordinates": [69.41456, 37.65191], "type": "Point"}}, {"id": 9342, "properties": {"id": "46004-40046-013-LN2356", "locationName": "Qurbonshahid", "title": "KHATLON PROVINCE FLOOD RISK MANAGEMENT PROJECT", "status": "Completion", "sectors": ["Agriculture, natural resources and rural development"]}, "type": "Feature", "geometry": {"coordinates": [69.55488, 37.7788], "type": "Point"}}, {"id": 9343, "properties": {"id": "46004-40046-013-LN2356", "locationName": "Metint\u016dqay", "title": "KHATLON PROVINCE FLOOD RISK MANAGEMENT PROJECT", "status": "Completion", "sectors": ["Agriculture, natural resources and rural development"]}, "type": "Feature", "geometry": {"coordinates": [69.56057, 37.61293], "type": "Point"}}, {"id": 9344, "properties": {"id": "46004-40046-013-LN2356", "locationName": "Vose' District", "title": "KHATLON PROVINCE FLOOD RISK MANAGEMENT PROJECT", "status": "Completion", "sectors": ["Agriculture, natural resources and rural development"]}, "type": "Feature", "geometry": {"coordinates": [69.62226, 37.92785], "type": "Point"}}, {"id": 9345, "properties": {"id": "46004-40046-013-LN2356", "locationName": "Kulob District", "title": "KHATLON PROVINCE FLOOD RISK MANAGEMENT PROJECT", "status": "Completion", "sectors": ["Agriculture, natural resources and rural development"]}, "type": "Feature", "geometry": {"coordinates": [69.8086, 38.01318], "type": "Point"}}, {"id": 9346, "properties": {"id": "46004-40046-013-LN2356", "locationName": "Farkhor District", "title": "KHATLON PROVINCE FLOOD RISK MANAGEMENT PROJECT", "status": "Completion", "sectors": ["Agriculture, natural resources and rural development"]}, "type": "Feature", "geometry": {"coordinates": [69.33277, 37.52526], "type": "Point"}}, {"id": 9347, "properties": {"id": "46004-40046-013-LN2356", "locationName": "Pyanj River", "title": "KHATLON PROVINCE FLOOD RISK MANAGEMENT PROJECT", "status": "Completion", "sectors": ["Agriculture, natural resources and rural development"]}, "type": "Feature", "geometry": {"coordinates": [72.6615, 37.0176], "type": "Point"}}, {"id": 9348, "properties": {"id": "46004-39676-023-LN2359", "locationName": "Tajikistan", "title": "CAREC REGIONAL ROAD CORRIDOR IMPROVEMENT PROJECT", "status": "Completion", "sectors": ["Transport"]}, "type": "Feature", "geometry": {"coordinates": [71.0, 39.0], "type": "Point"}}, {"id": 9349, "properties": {"id": "46004-39676-023-LN2359", "locationName": "Nimichi-Poy\u00ebn", "title": "CAREC REGIONAL ROAD CORRIDOR IMPROVEMENT PROJECT", "status": "Completion", "sectors": ["Transport"]}, "type": "Feature", "geometry": {"coordinates": [70.67358, 39.10055], "type": "Point"}}, {"id": 9350, "properties": {"id": "46004-39676-023-LN2359", "locationName": "Jirghatol", "title": "CAREC REGIONAL ROAD CORRIDOR IMPROVEMENT PROJECT", "status": "Completion", "sectors": ["Transport"]}, "type": "Feature", "geometry": {"coordinates": [71.19155, 39.21966], "type": "Point"}}, {"id": 9351, "properties": {"id": "46004-39676-023-LN2359", "locationName": "Dushanbe", "title": "CAREC REGIONAL ROAD CORRIDOR IMPROVEMENT PROJECT", "status": "Completion", "sectors": ["Transport"]}, "type": "Feature", "geometry": {"coordinates": [68.77905, 38.53575], "type": "Point"}}, {"id": 9352, "properties": {"id": "46004-39676-023-LN2359", "locationName": "Sary-Tash", "title": "CAREC REGIONAL ROAD CORRIDOR IMPROVEMENT PROJECT", "status": "Completion", "sectors": ["Transport"]}, "type": "Feature", "geometry": {"coordinates": [73.24836, 39.72883], "type": "Point"}}, {"id": 9353, "properties": {"id": "46004-39676-023-LN2359", "locationName": "Irkeshtam", "title": "CAREC REGIONAL ROAD CORRIDOR IMPROVEMENT PROJECT", "status": "Completion", "sectors": ["Transport"]}, "type": "Feature", "geometry": {"coordinates": [73.89872, 39.67925], "type": "Point"}}, {"id": 9354, "properties": {"id": "46004-39676-023-LN2359", "locationName": "Daroot-Korgon", "title": "CAREC REGIONAL ROAD CORRIDOR IMPROVEMENT PROJECT", "status": "Completion", "sectors": ["Transport"]}, "type": "Feature", "geometry": {"coordinates": [72.20518, 39.55274], "type": "Point"}}, {"id": 9355, "properties": {"id": "46004-39676-023-LN2359", "locationName": "Kyrgyzstan", "title": "CAREC REGIONAL ROAD CORRIDOR IMPROVEMENT PROJECT", "status": "Completion", "sectors": ["Transport"]}, "type": "Feature", "geometry": {"coordinates": [75.0, 41.5], "type": "Point"}}, {"id": 9356, "properties": {"id": "46004-39676-023-LN2359", "locationName": "China", "title": "CAREC REGIONAL ROAD CORRIDOR IMPROVEMENT PROJECT", "status": "Completion", "sectors": ["Transport"]}, "type": "Feature", "geometry": {"coordinates": [105.0, 35.0], "type": "Point"}}, {"id": 9357, "properties": {"id": "46004-39676-023-LN2359", "locationName": "Nohiyai Rasht", "title": "CAREC REGIONAL ROAD CORRIDOR IMPROVEMENT PROJECT", "status": "Completion", "sectors": ["Transport"]}, "type": "Feature", "geometry": {"coordinates": [70.35998, 39.23491], "type": "Point"}}, {"id": 9358, "properties": {"id": "46004-39676-023-LN2359", "locationName": "Nohiyai Jirghatol", "title": "CAREC REGIONAL ROAD CORRIDOR IMPROVEMENT PROJECT", "status": "Completion", "sectors": ["Transport"]}, "type": "Feature", "geometry": {"coordinates": [71.57632, 39.291], "type": "Point"}}, {"id": 9359, "properties": {"id": "46004-39676-023-LN2359", "locationName": "Karamyk", "title": "CAREC REGIONAL ROAD CORRIDOR IMPROVEMENT PROJECT", "status": "Completion", "sectors": ["Transport"]}, "type": "Feature", "geometry": {"coordinates": [71.79254, 39.48564], "type": "Point"}}, {"id": 9360, "properties": {"id": "46004-39676-023-LN2359", "locationName": "Alay District", "title": "CAREC REGIONAL ROAD CORRIDOR IMPROVEMENT PROJECT", "status": "Completion", "sectors": ["Transport"]}, "type": "Feature", "geometry": {"coordinates": [73.55941, 39.85862], "type": "Point"}}, {"id": 9361, "properties": {"id": "46004-39676-023-LN2359", "locationName": "Chong-Alay", "title": "CAREC REGIONAL ROAD CORRIDOR IMPROVEMENT PROJECT", "status": "Completion", "sectors": ["Transport"]}, "type": "Feature", "geometry": {"coordinates": [72.2001, 39.552], "type": "Point"}}, {"id": 9362, "properties": {"id": "46004-42052-022-GRNT0245", "locationName": "Tursunzoda District", "title": "CAREC CORRIDOR 3(DUSHANBE-UZBEKISTAN BORDER)IMPROV", "status": "Implementation", "sectors": ["Transport"]}, "type": "Feature", "geometry": {"coordinates": [68.16667, 38.58333], "type": "Point"}}, {"id": 9363, "properties": {"id": "46004-42052-022-GRNT0245", "locationName": "Tajikistan", "title": "CAREC CORRIDOR 3(DUSHANBE-UZBEKISTAN BORDER)IMPROV", "status": "Implementation", "sectors": ["Transport"]}, "type": "Feature", "geometry": {"coordinates": [71.0, 39.0], "type": "Point"}}, {"id": 9364, "properties": {"id": "46004-42052-022-GRNT0245", "locationName": "Dushanbe", "title": "CAREC CORRIDOR 3(DUSHANBE-UZBEKISTAN BORDER)IMPROV", "status": "Implementation", "sectors": ["Transport"]}, "type": "Feature", "geometry": {"coordinates": [68.77905, 38.53575], "type": "Point"}}, {"id": 9365, "properties": {"id": "46004-42052-022-GRNT0245", "locationName": "Tursunzoda", "title": "CAREC CORRIDOR 3(DUSHANBE-UZBEKISTAN BORDER)IMPROV", "status": "Implementation", "sectors": ["Transport"]}, "type": "Feature", "geometry": {"coordinates": [68.23163, 38.51271], "type": "Point"}}, {"id": 9366, "properties": {"id": "46004-42052-022-GRNT0245", "locationName": "Dushanbe", "title": "CAREC CORRIDOR 3(DUSHANBE-UZBEKISTAN BORDER)IMPROV", "status": "Implementation", "sectors": ["Transport"]}, "type": "Feature", "geometry": {"coordinates": [68.77974, 38.5577], "type": "Point"}}, {"id": 9367, "properties": {"id": "46004-42052-022-GRNT0245", "locationName": "Shahrinaw District", "title": "CAREC CORRIDOR 3(DUSHANBE-UZBEKISTAN BORDER)IMPROV", "status": "Implementation", "sectors": ["Transport"]}, "type": "Feature", "geometry": {"coordinates": [68.42, 38.7], "type": "Point"}}, {"id": 9368, "properties": {"id": "46004-42052-022-GRNT0245", "locationName": "Nohiyai Hisor", "title": "CAREC CORRIDOR 3(DUSHANBE-UZBEKISTAN BORDER)IMPROV", "status": "Implementation", "sectors": ["Transport"]}, "type": "Feature", "geometry": {"coordinates": [68.50698, 38.66909], "type": "Point"}}, {"id": 9369, "properties": {"id": "46004-42052-022-GRNT0245", "locationName": "Nohiyai R\u016bdak\u00ed", "title": "CAREC CORRIDOR 3(DUSHANBE-UZBEKISTAN BORDER)IMPROV", "status": "Implementation", "sectors": ["Transport"]}, "type": "Feature", "geometry": {"coordinates": [68.58544, 38.35096], "type": "Point"}}, {"id": 9370, "properties": {"id": "46004-44061-012-GRNT0251", "locationName": "Tajikistan", "title": "STRENGTHENING PUBLIC RESOURCE MANAGEMENT PROGRAM", "status": "Completion", "sectors": ["Public sector management"]}, "type": "Feature", "geometry": {"coordinates": [71.0, 39.0], "type": "Point"}}, {"id": 9371, "properties": {"id": "46004-45432-002-GRNT0301", "locationName": "Panjakent", "title": "CAREC CORRIDOR 6 (AYNI-UZBEKISTAN BORDER ROAD) IMP", "status": "Implementation", "sectors": ["Transport"]}, "type": "Feature", "geometry": {"coordinates": [67.60931, 39.49524], "type": "Point"}}, {"id": 9372, "properties": {"id": "46004-45432-002-GRNT0301", "locationName": "Khushikat", "title": "CAREC CORRIDOR 6 (AYNI-UZBEKISTAN BORDER ROAD) IMP", "status": "Implementation", "sectors": ["Transport"]}, "type": "Feature", "geometry": {"coordinates": [68.51182, 39.41831], "type": "Point"}}, {"id": 9373, "properties": {"id": "46004-45432-002-GRNT0301", "locationName": "Ayn\u00ed", "title": "CAREC CORRIDOR 6 (AYNI-UZBEKISTAN BORDER ROAD) IMP", "status": "Implementation", "sectors": ["Transport"]}, "type": "Feature", "geometry": {"coordinates": [68.53766, 39.39406], "type": "Point"}}, {"id": 9374, "properties": {"id": "46004-45432-002-GRNT0301", "locationName": "Aini District", "title": "CAREC CORRIDOR 6 (AYNI-UZBEKISTAN BORDER ROAD) IMP", "status": "Implementation", "sectors": ["Transport"]}, "type": "Feature", "geometry": {"coordinates": [68.78884, 39.29536], "type": "Point"}}, {"id": 9375, "properties": {"id": "46004-45432-002-GRNT0301", "locationName": "Panjakent District", "title": "CAREC CORRIDOR 6 (AYNI-UZBEKISTAN BORDER ROAD) IMP", "status": "Implementation", "sectors": ["Transport"]}, "type": "Feature", "geometry": {"coordinates": [67.79159, 39.37452], "type": "Point"}}, {"id": 9376, "properties": {"id": "46004-45432-002-GRNT0301", "locationName": "Sarazm", "title": "CAREC CORRIDOR 6 (AYNI-UZBEKISTAN BORDER ROAD) IMP", "status": "Implementation", "sectors": ["Transport"]}, "type": "Feature", "geometry": {"coordinates": [67.56667, 39.51667], "type": "Point"}}, {"id": 9377, "properties": {"id": "46004-46124-001-GRNT0341", "locationName": "Karamyk", "title": "CAREC REGIONAL IMPROVEMENT OF BORDER SERVICES PROJ", "status": "Implementation", "sectors": ["Finance"]}, "type": "Feature", "geometry": {"coordinates": [71.79254, 39.48564], "type": "Point"}}, {"id": 9378, "properties": {"id": "46004-46124-001-GRNT0341", "locationName": "Guliston", "title": "CAREC REGIONAL IMPROVEMENT OF BORDER SERVICES PROJ", "status": "Implementation", "sectors": ["Finance"]}, "type": "Feature", "geometry": {"coordinates": [70.7265, 40.12238], "type": "Point"}}, {"id": 9379, "properties": {"id": "46004-45229-001-GRNT0346", "locationName": "Tajikistan", "title": "ACCESS TO GREEN FINANCE PROJECT", "status": "Implementation", "sectors": ["Finance"]}, "type": "Feature", "geometry": {"coordinates": [71.0, 39.0], "type": "Point"}}, {"id": 9380, "properties": {"id": "46004-46543-002-GRNT0356", "locationName": "Vose\u2019", "title": "CAREC CORRIDORS 3 & 5 ENHANCEMENT PROJECT", "status": "Implementation", "sectors": ["Transport"]}, "type": "Feature", "geometry": {"coordinates": [69.64416, 37.80396], "type": "Point"}}, {"id": 9381, "properties": {"id": "46004-46543-002-GRNT0356", "locationName": "Khovaling", "title": "CAREC CORRIDORS 3 & 5 ENHANCEMENT PROJECT", "status": "Implementation", "sectors": ["Transport"]}, "type": "Feature", "geometry": {"coordinates": [69.97531, 38.34194], "type": "Point"}}, {"id": 9382, "properties": {"id": "46004-46543-002-GRNT0356", "locationName": "Vose' District", "title": "CAREC CORRIDORS 3 & 5 ENHANCEMENT PROJECT", "status": "Implementation", "sectors": ["Transport"]}, "type": "Feature", "geometry": {"coordinates": [69.62226, 37.92785], "type": "Point"}}, {"id": 9383, "properties": {"id": "46004-46543-002-GRNT0356", "locationName": "Khovaling District", "title": "CAREC CORRIDORS 3 & 5 ENHANCEMENT PROJECT", "status": "Implementation", "sectors": ["Transport"]}, "type": "Feature", "geometry": {"coordinates": [70.10587, 38.40851], "type": "Point"}}, {"id": 9384, "properties": {"id": "46004-46543-002-GRNT0356", "locationName": "Nohiyai Jirghatol", "title": "CAREC CORRIDORS 3 & 5 ENHANCEMENT PROJECT", "status": "Implementation", "sectors": ["Transport"]}, "type": "Feature", "geometry": {"coordinates": [71.57632, 39.291], "type": "Point"}}, {"id": 9385, "properties": {"id": "46004-46418-001-GRNT0376", "locationName": "Golovnaya Power Plant", "title": "GOLOVNAYA 240-MEGAWATT HYDROPOWER PLANT REHABILITA", "status": "Implementation", "sectors": ["Energy"]}, "type": "Feature", "geometry": {"coordinates": [68.937, 37.8839], "type": "Point"}}, {"id": 9386, "properties": {"id": "46004-37530-013-GRNT0072", "locationName": "Vahdat", "title": "RURAL DEVELOPMENT", "status": "Implementation", "sectors": ["Finance"]}, "type": "Feature", "geometry": {"coordinates": [69.33333, 38.83333], "type": "Point"}}, {"id": 9387, "properties": {"id": "46004-37530-013-GRNT0072", "locationName": "Roghun District", "title": "RURAL DEVELOPMENT", "status": "Implementation", "sectors": ["Finance"]}, "type": "Feature", "geometry": {"coordinates": [69.77, 38.75], "type": "Point"}}, {"id": 9388, "properties": {"id": "46004-37530-013-GRNT0072", "locationName": "Varzob District", "title": "RURAL DEVELOPMENT", "status": "Implementation", "sectors": ["Finance"]}, "type": "Feature", "geometry": {"coordinates": [68.75, 38.75], "type": "Point"}}, {"id": 9389, "properties": {"id": "46004-37530-013-GRNT0072", "locationName": "Nohiyai R\u016bdak\u00ed", "title": "RURAL DEVELOPMENT", "status": "Implementation", "sectors": ["Finance"]}, "type": "Feature", "geometry": {"coordinates": [68.58544, 38.35096], "type": "Point"}}, {"id": 9390, "properties": {"id": "46004-37530-013-GRNT0072", "locationName": "Faizobod District", "title": "RURAL DEVELOPMENT", "status": "Implementation", "sectors": ["Finance"]}, "type": "Feature", "geometry": {"coordinates": [69.3167, 38.55], "type": "Point"}}, {"id": 9391, "properties": {"id": "46004-39676-023-GRNT0085", "locationName": "Tajikistan", "title": "CAREC REGIONAL ROAD CORRIDOR IMPROVEMENT PROJECT (", "status": "Completion", "sectors": ["Transport"]}, "type": "Feature", "geometry": {"coordinates": [71.0, 39.0], "type": "Point"}}, {"id": 9392, "properties": {"id": "46004-39676-023-GRNT0085", "locationName": "Nimichi-Poy\u00ebn", "title": "CAREC REGIONAL ROAD CORRIDOR IMPROVEMENT PROJECT (", "status": "Completion", "sectors": ["Transport"]}, "type": "Feature", "geometry": {"coordinates": [70.67358, 39.10055], "type": "Point"}}, {"id": 9393, "properties": {"id": "46004-39676-023-GRNT0085", "locationName": "Jirghatol", "title": "CAREC REGIONAL ROAD CORRIDOR IMPROVEMENT PROJECT (", "status": "Completion", "sectors": ["Transport"]}, "type": "Feature", "geometry": {"coordinates": [71.19155, 39.21966], "type": "Point"}}, {"id": 9394, "properties": {"id": "46004-39676-023-GRNT0085", "locationName": "Dushanbe", "title": "CAREC REGIONAL ROAD CORRIDOR IMPROVEMENT PROJECT (", "status": "Completion", "sectors": ["Transport"]}, "type": "Feature", "geometry": {"coordinates": [68.77905, 38.53575], "type": "Point"}}, {"id": 9395, "properties": {"id": "46004-39676-023-GRNT0085", "locationName": "Sary-Tash", "title": "CAREC REGIONAL ROAD CORRIDOR IMPROVEMENT PROJECT (", "status": "Completion", "sectors": ["Transport"]}, "type": "Feature", "geometry": {"coordinates": [73.24836, 39.72883], "type": "Point"}}, {"id": 9396, "properties": {"id": "46004-39676-023-GRNT0085", "locationName": "Irkeshtam", "title": "CAREC REGIONAL ROAD CORRIDOR IMPROVEMENT PROJECT (", "status": "Completion", "sectors": ["Transport"]}, "type": "Feature", "geometry": {"coordinates": [73.89872, 39.67925], "type": "Point"}}, {"id": 9397, "properties": {"id": "46004-39676-023-GRNT0085", "locationName": "Daroot-Korgon", "title": "CAREC REGIONAL ROAD CORRIDOR IMPROVEMENT PROJECT (", "status": "Completion", "sectors": ["Transport"]}, "type": "Feature", "geometry": {"coordinates": [72.20518, 39.55274], "type": "Point"}}, {"id": 9398, "properties": {"id": "46004-39676-023-GRNT0085", "locationName": "Kyrgyzstan", "title": "CAREC REGIONAL ROAD CORRIDOR IMPROVEMENT PROJECT (", "status": "Completion", "sectors": ["Transport"]}, "type": "Feature", "geometry": {"coordinates": [75.0, 41.5], "type": "Point"}}, {"id": 9399, "properties": {"id": "46004-39676-023-GRNT0085", "locationName": "China", "title": "CAREC REGIONAL ROAD CORRIDOR IMPROVEMENT PROJECT (", "status": "Completion", "sectors": ["Transport"]}, "type": "Feature", "geometry": {"coordinates": [105.0, 35.0], "type": "Point"}}, {"id": 9400, "properties": {"id": "46004-39676-023-GRNT0085", "locationName": "Nohiyai Rasht", "title": "CAREC REGIONAL ROAD CORRIDOR IMPROVEMENT PROJECT (", "status": "Completion", "sectors": ["Transport"]}, "type": "Feature", "geometry": {"coordinates": [70.35998, 39.23491], "type": "Point"}}, {"id": 9401, "properties": {"id": "46004-39676-023-GRNT0085", "locationName": "Nohiyai Jirghatol", "title": "CAREC REGIONAL ROAD CORRIDOR IMPROVEMENT PROJECT (", "status": "Completion", "sectors": ["Transport"]}, "type": "Feature", "geometry": {"coordinates": [71.57632, 39.291], "type": "Point"}}, {"id": 9402, "properties": {"id": "46004-39676-023-GRNT0085", "locationName": "Karamyk", "title": "CAREC REGIONAL ROAD CORRIDOR IMPROVEMENT PROJECT (", "status": "Completion", "sectors": ["Transport"]}, "type": "Feature", "geometry": {"coordinates": [71.79254, 39.48564], "type": "Point"}}, {"id": 9403, "properties": {"id": "46004-39676-023-GRNT0085", "locationName": "Alay District", "title": "CAREC REGIONAL ROAD CORRIDOR IMPROVEMENT PROJECT (", "status": "Completion", "sectors": ["Transport"]}, "type": "Feature", "geometry": {"coordinates": [73.55941, 39.85862], "type": "Point"}}, {"id": 9404, "properties": {"id": "46004-39676-023-GRNT0085", "locationName": "Chong-Alay", "title": "CAREC REGIONAL ROAD CORRIDOR IMPROVEMENT PROJECT (", "status": "Completion", "sectors": ["Transport"]}, "type": "Feature", "geometry": {"coordinates": [72.2001, 39.552], "type": "Point"}}]}