{"type": "FeatureCollection", "id": "CN", "features": [{"geometry": {"type": "Point", "coordinates": [102.70554, 29.74133]}, "id": "1029", "type": "Feature", "properties": {"id": "46004-34174-013-LN2181", "status": "Completion", "title": "Central Sichuan Roads Development", "approvalYear": "2006", "sectors": ["Transport", "Information and communication technology"], "locationName": "Yingjing Xian"}}, {"geometry": {"type": "Point", "coordinates": [103.01696, 29.96431]}, "id": "1030", "type": "Feature", "properties": {"id": "46004-34174-013-LN2181", "status": "Completion", "title": "Central Sichuan Roads Development", "approvalYear": "2006", "sectors": ["Transport", "Information and communication technology"], "locationName": "Yucheng Qu"}}, {"geometry": {"type": "Point", "coordinates": [103.0, 29.98]}, "id": "1031", "type": "Feature", "properties": {"id": "46004-34174-013-LN2181", "status": "Completion", "title": "Central Sichuan Roads Development", "approvalYear": "2006", "sectors": ["Transport", "Information and communication technology"], "locationName": "Ya'an Shi"}}, {"geometry": {"type": "Point", "coordinates": [102.31927, 29.21714]}, "id": "1032", "type": "Feature", "properties": {"id": "46004-34174-013-LN2181", "status": "Completion", "title": "Central Sichuan Roads Development", "approvalYear": "2006", "sectors": ["Transport", "Information and communication technology"], "locationName": "Shimian Xian"}}, {"geometry": {"type": "Point", "coordinates": [101.95126, 28.53757]}, "id": "1033", "type": "Feature", "properties": {"id": "46004-34174-013-LN2181", "status": "Completion", "title": "Central Sichuan Roads Development", "approvalYear": "2006", "sectors": ["Transport", "Information and communication technology"], "locationName": "Mianning Xian"}}, {"geometry": {"type": "Point", "coordinates": [102.1902, 28.29782]}, "id": "1034", "type": "Feature", "properties": {"id": "46004-34174-013-LN2181", "status": "Completion", "title": "Central Sichuan Roads Development", "approvalYear": "2006", "sectors": ["Transport", "Information and communication technology"], "locationName": "Lugu"}}, {"geometry": {"type": "Point", "coordinates": [102.28188, 28.99682]}, "id": "1035", "type": "Feature", "properties": {"id": "46004-34174-013-LN2181", "status": "Completion", "title": "Central Sichuan Roads Development", "approvalYear": "2006", "sectors": ["Transport", "Information and communication technology"], "locationName": "Liziping"}}, {"geometry": {"type": "Point", "coordinates": [102.1018, 27.87644]}, "id": "1036", "type": "Feature", "properties": {"id": "46004-34174-013-LN2181", "status": "Completion", "title": "Central Sichuan Roads Development", "approvalYear": "2006", "sectors": ["Transport", "Information and communication technology"], "locationName": "Liangshan Yizu Zizhizhou"}}, {"geometry": {"type": "Point", "coordinates": [102.62528, 29.49512]}, "id": "1037", "type": "Feature", "properties": {"id": "46004-34174-013-LN2181", "status": "Completion", "title": "Central Sichuan Roads Development", "approvalYear": "2006", "sectors": ["Transport", "Information and communication technology"], "locationName": "Jiuxiang"}}, {"geometry": {"type": "Point", "coordinates": [102.6378, 29.4398]}, "id": "1038", "type": "Feature", "properties": {"id": "46004-34174-013-LN2181", "status": "Completion", "title": "Central Sichuan Roads Development", "approvalYear": "2006", "sectors": ["Transport", "Information and communication technology"], "locationName": "Hanyuan Xian"}}, {"geometry": {"type": "Point", "coordinates": [113.55417, 34.68833]}, "id": "1039", "type": "Feature", "properties": {"id": "46004-37487-013-LN2182", "status": "Implementation", "title": "ZHENGZHOU-XI'AN RAILWAY PROJECT", "approvalYear": "2006", "sectors": ["Transport", "Information and communication technology"], "locationName": "Zhengzhou"}}, {"geometry": {"type": "Point", "coordinates": [113.64861, 34.75778]}, "id": "1040", "type": "Feature", "properties": {"id": "46004-37487-013-LN2182", "status": "Implementation", "title": "ZHENGZHOU-XI'AN RAILWAY PROJECT", "approvalYear": "2006", "sectors": ["Transport", "Information and communication technology"], "locationName": "Zhengzhou"}}, {"geometry": {"type": "Point", "coordinates": [111.37278, 34.71944]}, "id": "1041", "type": "Feature", "properties": {"id": "46004-37487-013-LN2182", "status": "Implementation", "title": "ZHENGZHOU-XI'AN RAILWAY PROJECT", "approvalYear": "2006", "sectors": ["Transport", "Information and communication technology"], "locationName": "Zhangmao"}}, {"geometry": {"type": "Point", "coordinates": [113.35806, 34.78722]}, "id": "1042", "type": "Feature", "properties": {"id": "46004-37487-013-LN2182", "status": "Implementation", "title": "ZHENGZHOU-XI'AN RAILWAY PROJECT", "approvalYear": "2006", "sectors": ["Transport", "Information and communication technology"], "locationName": "Xingyang"}}, {"geometry": {"type": "Point", "coordinates": [109.26364, 34.42664]}, "id": "1043", "type": "Feature", "properties": {"id": "46004-37487-013-LN2182", "status": "Implementation", "title": "ZHENGZHOU-XI'AN RAILWAY PROJECT", "approvalYear": "2006", "sectors": ["Transport", "Information and communication technology"], "locationName": "Xinfeng"}}, {"geometry": {"type": "Point", "coordinates": [107.01, 33.70806]}, "id": "1044", "type": "Feature", "properties": {"id": "46004-37487-013-LN2182", "status": "Implementation", "title": "ZHENGZHOU-XI'AN RAILWAY PROJECT", "approvalYear": "2006", "sectors": ["Transport", "Information and communication technology"], "locationName": "Xi He"}}, {"geometry": {"type": "Point", "coordinates": [112.97139, 34.76]}, "id": "1045", "type": "Feature", "properties": {"id": "46004-37487-013-LN2182", "status": "Implementation", "title": "ZHENGZHOU-XI'AN RAILWAY PROJECT", "approvalYear": "2006", "sectors": ["Transport", "Information and communication technology"], "locationName": "Gongyi"}}, {"geometry": {"type": "Point", "coordinates": [108.78583, 34.06889]}, "id": "1046", "type": "Feature", "properties": {"id": "46004-37487-013-LN2182", "status": "Implementation", "title": "ZHENGZHOU-XI'AN RAILWAY PROJECT", "approvalYear": "2006", "sectors": ["Transport", "Information and communication technology"], "locationName": "Xi'an Shi"}}, {"geometry": {"type": "Point", "coordinates": [108.92861, 34.25833]}, "id": "1047", "type": "Feature", "properties": {"id": "46004-37487-013-LN2182", "status": "Implementation", "title": "ZHENGZHOU-XI'AN RAILWAY PROJECT", "approvalYear": "2006", "sectors": ["Transport", "Information and communication technology"], "locationName": "Xi'an"}}, {"geometry": {"type": "Point", "coordinates": [109.735, 34.93694]}, "id": "1048", "type": "Feature", "properties": {"id": "46004-37487-013-LN2182", "status": "Implementation", "title": "ZHENGZHOU-XI'AN RAILWAY PROJECT", "approvalYear": "2006", "sectors": ["Transport", "Information and communication technology"], "locationName": "weinan shi"}}, {"geometry": {"type": "Point", "coordinates": [109.50891, 34.50355]}, "id": "1049", "type": "Feature", "properties": {"id": "46004-37487-013-LN2182", "status": "Implementation", "title": "ZHENGZHOU-XI'AN RAILWAY PROJECT", "approvalYear": "2006", "sectors": ["Transport", "Information and communication technology"], "locationName": "Weinan"}}, {"geometry": {"type": "Point", "coordinates": [110.27528, 34.61167]}, "id": "1050", "type": "Feature", "properties": {"id": "46004-37487-013-LN2182", "status": "Implementation", "title": "ZHENGZHOU-XI'AN RAILWAY PROJECT", "approvalYear": "2006", "sectors": ["Transport", "Information and communication technology"], "locationName": "Wei He"}}, {"geometry": {"type": "Point", "coordinates": [111.39861, 34.69278]}, "id": "1051", "type": "Feature", "properties": {"id": "46004-37487-013-LN2182", "status": "Implementation", "title": "ZHENGZHOU-XI'AN RAILWAY PROJECT", "approvalYear": "2006", "sectors": ["Transport", "Information and communication technology"], "locationName": "Shan Xian"}}, {"geometry": {"type": "Point", "coordinates": [109.0, 36.0]}, "id": "1052", "type": "Feature", "properties": {"id": "46004-37487-013-LN2182", "status": "Implementation", "title": "ZHENGZHOU-XI'AN RAILWAY PROJECT", "approvalYear": "2006", "sectors": ["Transport", "Information and communication technology"], "locationName": "Shaanxi"}}, {"geometry": {"type": "Point", "coordinates": [110.915, 34.52611]}, "id": "1053", "type": "Feature", "properties": {"id": "46004-37487-013-LN2182", "status": "Implementation", "title": "ZHENGZHOU-XI'AN RAILWAY PROJECT", "approvalYear": "2006", "sectors": ["Transport", "Information and communication technology"], "locationName": "Sanmenxia Shi"}}, {"geometry": {"type": "Point", "coordinates": [111.18139, 34.77472]}, "id": "1054", "type": "Feature", "properties": {"id": "46004-37487-013-LN2182", "status": "Implementation", "title": "ZHENGZHOU-XI'AN RAILWAY PROJECT", "approvalYear": "2006", "sectors": ["Transport", "Information and communication technology"], "locationName": "Sanmenxia"}}, {"geometry": {"type": "Point", "coordinates": [111.73139, 34.87694]}, "id": "1055", "type": "Feature", "properties": {"id": "46004-37487-013-LN2182", "status": "Implementation", "title": "ZHENGZHOU-XI'AN RAILWAY PROJECT", "approvalYear": "2006", "sectors": ["Transport", "Information and communication technology"], "locationName": "Potou"}}, {"geometry": {"type": "Point", "coordinates": [109.17105, 34.28037]}, "id": "1056", "type": "Feature", "properties": {"id": "46004-37487-013-LN2182", "status": "Implementation", "title": "ZHENGZHOU-XI'AN RAILWAY PROJECT", "approvalYear": "2006", "sectors": ["Transport", "Information and communication technology"], "locationName": "Zhangjiawan"}}, {"geometry": {"type": "Point", "coordinates": [108.83959, 34.20998]}, "id": "1057", "type": "Feature", "properties": {"id": "46004-37487-013-LN2182", "status": "Implementation", "title": "ZHENGZHOU-XI'AN RAILWAY PROJECT", "approvalYear": "2006", "sectors": ["Transport", "Information and communication technology"], "locationName": "Hejiazhuang"}}, {"geometry": {"type": "Point", "coordinates": [112.42247, 36.19269]}, "id": "1058", "type": "Feature", "properties": {"id": "46004-37487-013-LN2182", "status": "Implementation", "title": "ZHENGZHOU-XI'AN RAILWAY PROJECT", "approvalYear": "2006", "sectors": ["Transport", "Information and communication technology"], "locationName": "Sishui River"}}, {"geometry": {"type": "Point", "coordinates": [111.27248, 34.69194]}, "id": "1059", "type": "Feature", "properties": {"id": "46004-37487-013-LN2182", "status": "Implementation", "title": "ZHENGZHOU-XI'AN RAILWAY PROJECT", "approvalYear": "2006", "sectors": ["Transport", "Information and communication technology"], "locationName": "Qinglongjian River"}}, {"geometry": {"type": "Point", "coordinates": [110.99717, 34.62286]}, "id": "1060", "type": "Feature", "properties": {"id": "46004-37487-013-LN2182", "status": "Implementation", "title": "ZHENGZHOU-XI'AN RAILWAY PROJECT", "approvalYear": "2006", "sectors": ["Transport", "Information and communication technology"], "locationName": "Haoyang River"}}, {"geometry": {"type": "Point", "coordinates": [109.99841, 34.59232]}, "id": "1061", "type": "Feature", "properties": {"id": "46004-37487-013-LN2182", "status": "Implementation", "title": "ZHENGZHOU-XI'AN RAILWAY PROJECT", "approvalYear": "2006", "sectors": ["Transport", "Information and communication technology"], "locationName": "Luofu River"}}, {"geometry": {"type": "Point", "coordinates": [110.30655, 34.59645]}, "id": "1062", "type": "Feature", "properties": {"id": "46004-37487-013-LN2182", "status": "Implementation", "title": "ZHENGZHOU-XI'AN RAILWAY PROJECT", "approvalYear": "2006", "sectors": ["Transport", "Information and communication technology"], "locationName": "Qindong"}}, {"geometry": {"type": "Point", "coordinates": [111.75944, 34.75417]}, "id": "1063", "type": "Feature", "properties": {"id": "46004-37487-013-LN2182", "status": "Implementation", "title": "ZHENGZHOU-XI'AN RAILWAY PROJECT", "approvalYear": "2006", "sectors": ["Transport", "Information and communication technology"], "locationName": "Mianchi"}}, {"geometry": {"type": "Point", "coordinates": [112.0625, 34.35806]}, "id": "1064", "type": "Feature", "properties": {"id": "46004-37487-013-LN2182", "status": "Implementation", "title": "ZHENGZHOU-XI'AN RAILWAY PROJECT", "approvalYear": "2006", "sectors": ["Transport", "Information and communication technology"], "locationName": "Luoyang Shi"}}, {"geometry": {"type": "Point", "coordinates": [112.45361, 34.68361]}, "id": "1065", "type": "Feature", "properties": {"id": "46004-37487-013-LN2182", "status": "Implementation", "title": "ZHENGZHOU-XI'AN RAILWAY PROJECT", "approvalYear": "2006", "sectors": ["Transport", "Information and communication technology"], "locationName": "Luoyang"}}, {"geometry": {"type": "Point", "coordinates": [113.06667, 34.8]}, "id": "1066", "type": "Feature", "properties": {"id": "46004-37487-013-LN2182", "status": "Implementation", "title": "ZHENGZHOU-XI'AN RAILWAY PROJECT", "approvalYear": "2006", "sectors": ["Transport", "Information and communication technology"], "locationName": "Luo He"}}, {"geometry": {"type": "Point", "coordinates": [109.20892, 34.37803]}, "id": "1067", "type": "Feature", "properties": {"id": "46004-37487-013-LN2182", "status": "Implementation", "title": "ZHENGZHOU-XI'AN RAILWAY PROJECT", "approvalYear": "2006", "sectors": ["Transport", "Information and communication technology"], "locationName": "Lintong"}}, {"geometry": {"type": "Point", "coordinates": [110.08333, 34.53333]}, "id": "1068", "type": "Feature", "properties": {"id": "46004-37487-013-LN2182", "status": "Implementation", "title": "ZHENGZHOU-XI'AN RAILWAY PROJECT", "approvalYear": "2006", "sectors": ["Transport", "Information and communication technology"], "locationName": "Huashan"}}, {"geometry": {"type": "Point", "coordinates": [112.80944, 34.71556]}, "id": "1069", "type": "Feature", "properties": {"id": "46004-37487-013-LN2182", "status": "Implementation", "title": "ZHENGZHOU-XI'AN RAILWAY PROJECT", "approvalYear": "2006", "sectors": ["Transport", "Information and communication technology"], "locationName": "Yanshi"}}, {"geometry": {"type": "Point", "coordinates": [114.0, 34.0]}, "id": "1070", "type": "Feature", "properties": {"id": "46004-37487-013-LN2182", "status": "Implementation", "title": "ZHENGZHOU-XI'AN RAILWAY PROJECT", "approvalYear": "2006", "sectors": ["Transport", "Information and communication technology"], "locationName": "Henan Sheng"}}, {"geometry": {"type": "Point", "coordinates": [110.86444, 34.51972]}, "id": "1071", "type": "Feature", "properties": {"id": "46004-37487-013-LN2182", "status": "Implementation", "title": "ZHENGZHOU-XI'AN RAILWAY PROJECT", "approvalYear": "2006", "sectors": ["Transport", "Information and communication technology"], "locationName": "Lingbao"}}, {"geometry": {"type": "Point", "coordinates": [111.55194, 34.71083]}, "id": "1072", "type": "Feature", "properties": {"id": "46004-37487-013-LN2182", "status": "Implementation", "title": "ZHENGZHOU-XI'AN RAILWAY PROJECT", "approvalYear": "2006", "sectors": ["Transport", "Information and communication technology"], "locationName": "Guanyintang"}}, {"geometry": {"type": "Point", "coordinates": [113.08889, 34.71444]}, "id": "1073", "type": "Feature", "properties": {"id": "46004-37487-013-LN2182", "status": "Implementation", "title": "ZHENGZHOU-XI'AN RAILWAY PROJECT", "approvalYear": "2006", "sectors": ["Transport", "Information and communication technology"], "locationName": "Dayugou"}}, {"geometry": {"type": "Point", "coordinates": [121.14139, 31.78667]}, "id": "1074", "type": "Feature", "properties": {"id": "46004-37487-013-LN2182", "status": "Implementation", "title": "ZHENGZHOU-XI'AN RAILWAY PROJECT", "approvalYear": "2006", "sectors": ["Transport", "Information and communication technology"], "locationName": "Yangtze River"}}, {"geometry": {"type": "Point", "coordinates": [109.06114, 34.19742]}, "id": "1075", "type": "Feature", "properties": {"id": "46004-37487-013-LN2182", "status": "Implementation", "title": "ZHENGZHOU-XI'AN RAILWAY PROJECT", "approvalYear": "2006", "sectors": ["Transport", "Information and communication technology"], "locationName": "Gaoqiao"}}, {"geometry": {"type": "Point", "coordinates": [110.89833, 34.6375]}, "id": "1076", "type": "Feature", "properties": {"id": "46004-37487-013-LN2182", "status": "Implementation", "title": "ZHENGZHOU-XI'AN RAILWAY PROJECT", "approvalYear": "2006", "sectors": ["Transport", "Information and communication technology"], "locationName": "Hanguguan"}}, {"geometry": {"type": "Point", "coordinates": [109.1477, 34.86893]}, "id": "1077", "type": "Feature", "properties": {"id": "46004-37487-013-LN2182", "status": "Implementation", "title": "ZHENGZHOU-XI'AN RAILWAY PROJECT", "approvalYear": "2006", "sectors": ["Transport", "Information and communication technology"], "locationName": "Fenghuang Shan"}}, {"geometry": {"type": "Point", "coordinates": [109.1477, 34.86893]}, "id": "1078", "type": "Feature", "properties": {"id": "46004-37487-013-LN2182", "status": "Implementation", "title": "ZHENGZHOU-XI'AN RAILWAY PROJECT", "approvalYear": "2006", "sectors": ["Transport", "Information and communication technology"], "locationName": "Fenghuang Shan"}}, {"geometry": {"type": "Point", "coordinates": [109.41974, 28.41684]}, "id": "1079", "type": "Feature", "properties": {"id": "46004-37494-013-LN2219", "status": "Completion", "title": "HUNAN ROAD DEVELOPMENT III (JISHOU-HUAYUAN)", "approvalYear": "2006", "sectors": ["Transport", "Information and communication technology"], "locationName": "Yaqiao"}}, {"geometry": {"type": "Point", "coordinates": [109.69855, 28.66443]}, "id": "1080", "type": "Feature", "properties": {"id": "46004-37494-013-LN2219", "status": "Completion", "title": "HUNAN ROAD DEVELOPMENT III (JISHOU-HUAYUAN)", "approvalYear": "2006", "sectors": ["Transport", "Information and communication technology"], "locationName": "Yangchao"}}, {"geometry": {"type": "Point", "coordinates": [109.94333, 28.74111]}, "id": "1081", "type": "Feature", "properties": {"id": "46004-37494-013-LN2219", "status": "Completion", "title": "HUNAN ROAD DEVELOPMENT III (JISHOU-HUAYUAN)", "approvalYear": "2006", "sectors": ["Transport", "Information and communication technology"], "locationName": "Wangcun"}}, {"geometry": {"type": "Point", "coordinates": [109.56798, 27.95472]}, "id": "1082", "type": "Feature", "properties": {"id": "46004-37494-013-LN2219", "status": "Completion", "title": "HUNAN ROAD DEVELOPMENT III (JISHOU-HUAYUAN)", "approvalYear": "2006", "sectors": ["Transport", "Information and communication technology"], "locationName": "Tuojiang"}}, {"geometry": {"type": "Point", "coordinates": [109.87692, 28.71046]}, "id": "1083", "type": "Feature", "properties": {"id": "46004-37494-013-LN2219", "status": "Completion", "title": "HUNAN ROAD DEVELOPMENT III (JISHOU-HUAYUAN)", "approvalYear": "2006", "sectors": ["Transport", "Information and communication technology"], "locationName": "Qietong"}}, {"geometry": {"type": "Point", "coordinates": [109.64597, 28.71187]}, "id": "1084", "type": "Feature", "properties": {"id": "46004-37494-013-LN2219", "status": "Completion", "title": "HUNAN ROAD DEVELOPMENT III (JISHOU-HUAYUAN)", "approvalYear": "2006", "sectors": ["Transport", "Information and communication technology"], "locationName": "Qianling"}}, {"geometry": {"type": "Point", "coordinates": [109.38225, 28.0845]}, "id": "1085", "type": "Feature", "properties": {"id": "46004-37494-013-LN2219", "status": "Completion", "title": "HUNAN ROAD DEVELOPMENT III (JISHOU-HUAYUAN)", "approvalYear": "2006", "sectors": ["Transport", "Information and communication technology"], "locationName": "La'ershan"}}, {"geometry": {"type": "Point", "coordinates": [109.41788, 28.33344]}, "id": "1086", "type": "Feature", "properties": {"id": "46004-37494-013-LN2219", "status": "Completion", "title": "HUNAN ROAD DEVELOPMENT III (JISHOU-HUAYUAN)", "approvalYear": "2006", "sectors": ["Transport", "Information and communication technology"], "locationName": "Jiwei"}}, {"geometry": {"type": "Point", "coordinates": [109.73346, 28.31926]}, "id": "1087", "type": "Feature", "properties": {"id": "46004-37494-013-LN2219", "status": "Completion", "title": "HUNAN ROAD DEVELOPMENT III (JISHOU-HUAYUAN)", "approvalYear": "2006", "sectors": ["Transport", "Information and communication technology"], "locationName": "Jishou"}}, {"geometry": {"type": "Point", "coordinates": [109.42372, 28.43118]}, "id": "1088", "type": "Feature", "properties": {"id": "46004-37494-013-LN2219", "status": "Completion", "title": "HUNAN ROAD DEVELOPMENT III (JISHOU-HUAYUAN)", "approvalYear": "2006", "sectors": ["Transport", "Information and communication technology"], "locationName": "Huayuan Xian"}}, {"geometry": {"type": "Point", "coordinates": [109.81196, 28.22327]}, "id": "1089", "type": "Feature", "properties": {"id": "46004-37494-013-LN2219", "status": "Completion", "title": "HUNAN ROAD DEVELOPMENT III (JISHOU-HUAYUAN)", "approvalYear": "2006", "sectors": ["Transport", "Information and communication technology"], "locationName": "Hexi"}}, {"geometry": {"type": "Point", "coordinates": [110.00431, 28.59432]}, "id": "1090", "type": "Feature", "properties": {"id": "46004-37494-013-LN2219", "status": "Completion", "title": "HUNAN ROAD DEVELOPMENT III (JISHOU-HUAYUAN)", "approvalYear": "2006", "sectors": ["Transport", "Information and communication technology"], "locationName": "Guzhang Xian"}}, {"geometry": {"type": "Point", "coordinates": [109.53213, 28.01058]}, "id": "1091", "type": "Feature", "properties": {"id": "46004-37494-013-LN2219", "status": "Completion", "title": "HUNAN ROAD DEVELOPMENT III (JISHOU-HUAYUAN)", "approvalYear": "2006", "sectors": ["Transport", "Information and communication technology"], "locationName": "Fenghuang Xian"}}, {"geometry": {"type": "Point", "coordinates": [109.81054, 28.68329]}, "id": "1092", "type": "Feature", "properties": {"id": "46004-37494-013-LN2219", "status": "Completion", "title": "HUNAN ROAD DEVELOPMENT III (JISHOU-HUAYUAN)", "approvalYear": "2006", "sectors": ["Transport", "Information and communication technology"], "locationName": "Duanlongshan"}}, {"geometry": {"type": "Point", "coordinates": [109.29482, 28.5175]}, "id": "1093", "type": "Feature", "properties": {"id": "46004-37494-013-LN2219", "status": "Completion", "title": "HUNAN ROAD DEVELOPMENT III (JISHOU-HUAYUAN)", "approvalYear": "2006", "sectors": ["Transport", "Information and communication technology"], "locationName": "Chadong"}}, {"geometry": {"type": "Point", "coordinates": [109.60968, 28.67956]}, "id": "1094", "type": "Feature", "properties": {"id": "46004-37494-013-LN2219", "status": "Completion", "title": "HUNAN ROAD DEVELOPMENT III (JISHOU-HUAYUAN)", "approvalYear": "2006", "sectors": ["Transport", "Information and communication technology"], "locationName": "Baojing Xian"}}, {"geometry": {"type": "Point", "coordinates": [109.38385, 28.15778]}, "id": "1095", "type": "Feature", "properties": {"id": "46004-37494-013-LN2219", "status": "Completion", "title": "HUNAN ROAD DEVELOPMENT III (JISHOU-HUAYUAN)", "approvalYear": "2006", "sectors": ["Transport", "Information and communication technology"], "locationName": "Lianglin"}}, {"geometry": {"type": "Point", "coordinates": [109.50186, 28.03007]}, "id": "1096", "type": "Feature", "properties": {"id": "46004-37494-013-LN2219", "status": "Completion", "title": "HUNAN ROAD DEVELOPMENT III (JISHOU-HUAYUAN)", "approvalYear": "2006", "sectors": ["Transport", "Information and communication technology"], "locationName": "Qiangongping"}}, {"geometry": {"type": "Point", "coordinates": [109.46303, 28.0465]}, "id": "1097", "type": "Feature", "properties": {"id": "46004-37494-013-LN2219", "status": "Completion", "title": "HUNAN ROAD DEVELOPMENT III (JISHOU-HUAYUAN)", "approvalYear": "2006", "sectors": ["Transport", "Information and communication technology"], "locationName": "Shanjiang"}}, {"geometry": {"type": "Point", "coordinates": [109.42036, 28.29289]}, "id": "1098", "type": "Feature", "properties": {"id": "46004-37494-013-LN2219", "status": "Completion", "title": "HUNAN ROAD DEVELOPMENT III (JISHOU-HUAYUAN)", "approvalYear": "2006", "sectors": ["Transport", "Information and communication technology"], "locationName": "Buchou"}}, {"geometry": {"type": "Point", "coordinates": [117.70417, 36.94639]}, "id": "1099", "type": "Feature", "properties": {"id": "46004-36505-013-LN2237", "status": "Completion", "title": "SHANDONG HAI RIVER POLLUTION CONTROL PROJECT", "approvalYear": "2006", "sectors": ["Water supply and other urban infrastructure and services"], "locationName": "Zouping Xian"}}, {"geometry": {"type": "Point", "coordinates": [117.63333, 37.05]}, "id": "1100", "type": "Feature", "properties": {"id": "46004-36505-013-LN2237", "status": "Completion", "title": "SHANDONG HAI RIVER POLLUTION CONTROL PROJECT", "approvalYear": "2006", "sectors": ["Water supply and other urban infrastructure and services"], "locationName": "Sunzhen"}}, {"geometry": {"type": "Point", "coordinates": [117.22694, 37.31028]}, "id": "1101", "type": "Feature", "properties": {"id": "46004-36505-013-LN2237", "status": "Completion", "title": "SHANDONG HAI RIVER POLLUTION CONTROL PROJECT", "approvalYear": "2006", "sectors": ["Water supply and other urban infrastructure and services"], "locationName": "Shanghe Xian"}}, {"geometry": {"type": "Point", "coordinates": [117.15722, 37.30667]}, "id": "1102", "type": "Feature", "properties": {"id": "46004-36505-013-LN2237", "status": "Completion", "title": "SHANDONG HAI RIVER POLLUTION CONTROL PROJECT", "approvalYear": "2006", "sectors": ["Water supply and other urban infrastructure and services"], "locationName": "Shanghe"}}, {"geometry": {"type": "Point", "coordinates": [116.91639, 37.22389]}, "id": "1103", "type": "Feature", "properties": {"id": "46004-36505-013-LN2237", "status": "Completion", "title": "SHANDONG HAI RIVER POLLUTION CONTROL PROJECT", "approvalYear": "2006", "sectors": ["Water supply and other urban infrastructure and services"], "locationName": "Linyi Xian"}}, {"geometry": {"type": "Point", "coordinates": [115.71167, 36.84556]}, "id": "1104", "type": "Feature", "properties": {"id": "46004-36505-013-LN2237", "status": "Completion", "title": "SHANDONG HAI RIVER POLLUTION CONTROL PROJECT", "approvalYear": "2006", "sectors": ["Water supply and other urban infrastructure and services"], "locationName": "Linqing"}}, {"geometry": {"type": "Point", "coordinates": [116.26806, 36.85444]}, "id": "1105", "type": "Feature", "properties": {"id": "46004-36505-013-LN2237", "status": "Completion", "title": "SHANDONG HAI RIVER POLLUTION CONTROL PROJECT", "approvalYear": "2006", "sectors": ["Water supply and other urban infrastructure and services"], "locationName": "Gaotang Xian"}}, {"geometry": {"type": "Point", "coordinates": [118.01667, 37.36667]}, "id": "1106", "type": "Feature", "properties": {"id": "46004-36505-013-LN2237", "status": "Completion", "title": "SHANDONG HAI RIVER POLLUTION CONTROL PROJECT", "approvalYear": "2006", "sectors": ["Water supply and other urban infrastructure and services"], "locationName": "Binzhou"}}, {"geometry": {"type": "Point", "coordinates": [117.135, 37.32222]}, "id": "1107", "type": "Feature", "properties": {"id": "46004-36505-013-LN2237", "status": "Completion", "title": "SHANDONG HAI RIVER POLLUTION CONTROL PROJECT", "approvalYear": "2006", "sectors": ["Water supply and other urban infrastructure and services"], "locationName": "Wulimiao"}}, {"geometry": {"type": "Point", "coordinates": [116.86444, 37.23333]}, "id": "1108", "type": "Feature", "properties": {"id": "46004-36505-013-LN2237", "status": "Completion", "title": "SHANDONG HAI RIVER POLLUTION CONTROL PROJECT", "approvalYear": "2006", "sectors": ["Water supply and other urban infrastructure and services"], "locationName": "Zhaojia"}}, {"geometry": {"type": "Point", "coordinates": [120.24941, 29.28646]}, "id": "1109", "type": "Feature", "properties": {"id": "46004-36505-013-LN2237", "status": "Completion", "title": "SHANDONG HAI RIVER POLLUTION CONTROL PROJECT", "approvalYear": "2006", "sectors": ["Water supply and other urban infrastructure and services"], "locationName": "Chanyuan"}}, {"geometry": {"type": "Point", "coordinates": [117.491, 35.6328]}, "id": "1110", "type": "Feature", "properties": {"id": "46004-36505-013-LN2237", "status": "Completion", "title": "SHANDONG HAI RIVER POLLUTION CONTROL PROJECT", "approvalYear": "2006", "sectors": ["Water supply and other urban infrastructure and services"], "locationName": "Quanlin"}}, {"geometry": {"type": "Point", "coordinates": [108.31667, 22.81667]}, "id": "1111", "type": "Feature", "properties": {"id": "46004-37596-013-LN2239", "status": "Completion", "title": "GUANGXI NANNING URBAN ENVIRONMENTAL UPGRADING PROJECT", "approvalYear": "2006", "sectors": ["Water supply and other urban infrastructure and services"], "locationName": "Nanning"}}, {"geometry": {"type": "Point", "coordinates": [108.39558, 22.78805]}, "id": "1112", "type": "Feature", "properties": {"id": "46004-37596-013-LN2239", "status": "Completion", "title": "GUANGXI NANNING URBAN ENVIRONMENTAL UPGRADING PROJECT", "approvalYear": "2006", "sectors": ["Water supply and other urban infrastructure and services"], "locationName": "Qingxiushan Park"}}, {"geometry": {"type": "Point", "coordinates": [114.38946, 30.72619]}, "id": "1113", "type": "Feature", "properties": {"id": "46004-37597-013-LN2240", "status": "Completion", "title": "WUHAN WASTEWATER AND STORMWATER MANAGEMENT PROJECT", "approvalYear": "2006", "sectors": ["Water supply and other urban infrastructure and services"], "locationName": "Wuhan Shi"}}, {"geometry": {"type": "Point", "coordinates": [114.26667, 30.58333]}, "id": "1114", "type": "Feature", "properties": {"id": "46004-37597-013-LN2240", "status": "Completion", "title": "WUHAN WASTEWATER AND STORMWATER MANAGEMENT PROJECT", "approvalYear": "2006", "sectors": ["Water supply and other urban infrastructure and services"], "locationName": "Wuhan"}}, {"geometry": {"type": "Point", "coordinates": [114.3, 30.53333]}, "id": "1115", "type": "Feature", "properties": {"id": "46004-37597-013-LN2240", "status": "Completion", "title": "WUHAN WASTEWATER AND STORMWATER MANAGEMENT PROJECT", "approvalYear": "2006", "sectors": ["Water supply and other urban infrastructure and services"], "locationName": "Wuchang"}}, {"geometry": {"type": "Point", "coordinates": [114.26667, 30.55]}, "id": "1116", "type": "Feature", "properties": {"id": "46004-37597-013-LN2240", "status": "Completion", "title": "WUHAN WASTEWATER AND STORMWATER MANAGEMENT PROJECT", "approvalYear": "2006", "sectors": ["Water supply and other urban infrastructure and services"], "locationName": "Hanyang"}}, {"geometry": {"type": "Point", "coordinates": [114.2734, 30.58012]}, "id": "1117", "type": "Feature", "properties": {"id": "46004-37597-013-LN2240", "status": "Completion", "title": "WUHAN WASTEWATER AND STORMWATER MANAGEMENT PROJECT", "approvalYear": "2006", "sectors": ["Water supply and other urban infrastructure and services"], "locationName": "Hankou"}}, {"geometry": {"type": "Point", "coordinates": [114.03333, 30.58333]}, "id": "1118", "type": "Feature", "properties": {"id": "46004-37597-013-LN2240", "status": "Completion", "title": "WUHAN WASTEWATER AND STORMWATER MANAGEMENT PROJECT", "approvalYear": "2006", "sectors": ["Water supply and other urban infrastructure and services"], "locationName": "Caidian"}}, {"geometry": {"type": "Point", "coordinates": [116.55911, 30.66266]}, "id": "1119", "type": "Feature", "properties": {"id": "46004-37597-013-LN2240", "status": "Completion", "title": "WUHAN WASTEWATER AND STORMWATER MANAGEMENT PROJECT", "approvalYear": "2006", "sectors": ["Water supply and other urban infrastructure and services"], "locationName": "Anqing Shi"}}, {"geometry": {"type": "Point", "coordinates": [114.17465, 30.68606]}, "id": "1120", "type": "Feature", "properties": {"id": "46004-37597-013-LN2240", "status": "Completion", "title": "WUHAN WASTEWATER AND STORMWATER MANAGEMENT PROJECT", "approvalYear": "2006", "sectors": ["Water supply and other urban infrastructure and services"], "locationName": "Dongxihu Qu"}}, {"geometry": {"type": "Point", "coordinates": [114.11716, 30.61447]}, "id": "1121", "type": "Feature", "properties": {"id": "46004-37597-013-LN2240", "status": "Completion", "title": "WUHAN WASTEWATER AND STORMWATER MANAGEMENT PROJECT", "approvalYear": "2006", "sectors": ["Water supply and other urban infrastructure and services"], "locationName": "Changqing"}}, {"geometry": {"type": "Point", "coordinates": [111.9747, 31.11895]}, "id": "1122", "type": "Feature", "properties": {"id": "46004-37597-013-LN2240", "status": "Completion", "title": "WUHAN WASTEWATER AND STORMWATER MANAGEMENT PROJECT", "approvalYear": "2006", "sectors": ["Water supply and other urban infrastructure and services"], "locationName": "Luojiagang"}}, {"geometry": {"type": "Point", "coordinates": [116.83, 31.0508]}, "id": "1123", "type": "Feature", "properties": {"id": "46004-37597-013-LN2240", "status": "Completion", "title": "WUHAN WASTEWATER AND STORMWATER MANAGEMENT PROJECT", "approvalYear": "2006", "sectors": ["Water supply and other urban infrastructure and services"], "locationName": "Huangpu"}}, {"geometry": {"type": "Point", "coordinates": [113.13659, 27.69906]}, "id": "1124", "type": "Feature", "properties": {"id": "46004-37641-013-LN2244", "status": "Implementation", "title": "HUNAN FLOOD MANAGEMENT SECTOR PROJECT", "approvalYear": "2006", "sectors": ["Agriculture, natural resources and rural development"], "locationName": "Zhuzhou County"}}, {"geometry": {"type": "Point", "coordinates": [113.35329, 26.99383]}, "id": "1125", "type": "Feature", "properties": {"id": "46004-37641-013-LN2244", "status": "Implementation", "title": "HUNAN FLOOD MANAGEMENT SECTOR PROJECT", "approvalYear": "2006", "sectors": ["Agriculture, natural resources and rural development"], "locationName": "Youxian County"}}, {"geometry": {"type": "Point", "coordinates": [111.61306, 26.42389]}, "id": "1126", "type": "Feature", "properties": {"id": "46004-37641-013-LN2244", "status": "Implementation", "title": "HUNAN FLOOD MANAGEMENT SECTOR PROJECT", "approvalYear": "2006", "sectors": ["Agriculture, natural resources and rural development"], "locationName": "Yongzhou City"}}, {"geometry": {"type": "Point", "coordinates": [110.59893, 27.9073]}, "id": "1127", "type": "Feature", "properties": {"id": "46004-37641-013-LN2244", "status": "Implementation", "title": "HUNAN FLOOD MANAGEMENT SECTOR PROJECT", "approvalYear": "2006", "sectors": ["Agriculture, natural resources and rural development"], "locationName": "Xupu County"}}, {"geometry": {"type": "Point", "coordinates": [112.20831, 25.90424]}, "id": "1128", "type": "Feature", "properties": {"id": "46004-37641-013-LN2244", "status": "Implementation", "title": "HUNAN FLOOD MANAGEMENT SECTOR PROJECT", "approvalYear": "2006", "sectors": ["Agriculture, natural resources and rural development"], "locationName": "Xintian County"}}, {"geometry": {"type": "Point", "coordinates": [111.32888, 27.70974]}, "id": "1129", "type": "Feature", "properties": {"id": "46004-37641-013-LN2244", "status": "Implementation", "title": "HUNAN FLOOD MANAGEMENT SECTOR PROJECT", "approvalYear": "2006", "sectors": ["Agriculture, natural resources and rural development"], "locationName": "Xinhua County"}}, {"geometry": {"type": "Point", "coordinates": [112.89676, 27.80754]}, "id": "1130", "type": "Feature", "properties": {"id": "46004-37641-013-LN2244", "status": "Implementation", "title": "HUNAN FLOOD MANAGEMENT SECTOR PROJECT", "approvalYear": "2006", "sectors": ["Agriculture, natural resources and rural development"], "locationName": "Ziangtan City"}}, {"geometry": {"type": "Point", "coordinates": [110.633, 26.71758]}, "id": "1131", "type": "Feature", "properties": {"id": "46004-37641-013-LN2244", "status": "Implementation", "title": "HUNAN FLOOD MANAGEMENT SECTOR PROJECT", "approvalYear": "2006", "sectors": ["Agriculture, natural resources and rural development"], "locationName": "Wugang City"}}, {"geometry": {"type": "Point", "coordinates": [112.15334, 27.46456]}, "id": "1132", "type": "Feature", "properties": {"id": "46004-37641-013-LN2244", "status": "Implementation", "title": "HUNAN FLOOD MANAGEMENT SECTOR PROJECT", "approvalYear": "2006", "sectors": ["Agriculture, natural resources and rural development"], "locationName": "Shuangfeng County"}}, {"geometry": {"type": "Point", "coordinates": [111.36825, 29.57259]}, "id": "1133", "type": "Feature", "properties": {"id": "46004-37641-013-LN2244", "status": "Implementation", "title": "HUNAN FLOOD MANAGEMENT SECTOR PROJECT", "approvalYear": "2006", "sectors": ["Agriculture, natural resources and rural development"], "locationName": "Shimen County"}}, {"geometry": {"type": "Point", "coordinates": [111.77729, 27.24064]}, "id": "1134", "type": "Feature", "properties": {"id": "46004-37641-013-LN2244", "status": "Implementation", "title": "HUNAN FLOOD MANAGEMENT SECTOR PROJECT", "approvalYear": "2006", "sectors": ["Agriculture, natural resources and rural development"], "locationName": "Shodong County"}}, {"geometry": {"type": "Point", "coordinates": [110.1447, 29.40176]}, "id": "1135", "type": "Feature", "properties": {"id": "46004-37641-013-LN2244", "status": "Implementation", "title": "HUNAN FLOOD MANAGEMENT SECTOR PROJECT", "approvalYear": "2006", "sectors": ["Agriculture, natural resources and rural development"], "locationName": "Sangzhi County"}}, {"geometry": {"type": "Point", "coordinates": [111.8407, 26.57934]}, "id": "1136", "type": "Feature", "properties": {"id": "46004-37641-013-LN2244", "status": "Implementation", "title": "HUNAN FLOOD MANAGEMENT SECTOR PROJECT", "approvalYear": "2006", "sectors": ["Agriculture, natural resources and rural development"], "locationName": "Qiyang County"}}, {"geometry": {"type": "Point", "coordinates": [111.94986, 25.58359]}, "id": "1137", "type": "Feature", "properties": {"id": "46004-37641-013-LN2244", "status": "Implementation", "title": "HUNAN FLOOD MANAGEMENT SECTOR PROJECT", "approvalYear": "2006", "sectors": ["Agriculture, natural resources and rural development"], "locationName": "Ningyuan County"}}, {"geometry": {"type": "Point", "coordinates": [110.21503, 28.20815]}, "id": "1138", "type": "Feature", "properties": {"id": "46004-37641-013-LN2244", "status": "Implementation", "title": "HUNAN FLOOD MANAGEMENT SECTOR PROJECT", "approvalYear": "2006", "sectors": ["Agriculture, natural resources and rural development"], "locationName": "Luxi County"}}, {"geometry": {"type": "Point", "coordinates": [111.99582, 27.69277]}, "id": "1139", "type": "Feature", "properties": {"id": "46004-37641-013-LN2244", "status": "Implementation", "title": "HUNAN FLOOD MANAGEMENT SECTOR PROJECT", "approvalYear": "2006", "sectors": ["Agriculture, natural resources and rural development"], "locationName": "Loudi City"}}, {"geometry": {"type": "Point", "coordinates": [113.49926, 27.64976]}, "id": "1140", "type": "Feature", "properties": {"id": "46004-37641-013-LN2244", "status": "Implementation", "title": "HUNAN FLOOD MANAGEMENT SECTOR PROJECT", "approvalYear": "2006", "sectors": ["Agriculture, natural resources and rural development"], "locationName": "Liling City"}}, {"geometry": {"type": "Point", "coordinates": [113.11801, 27.83662]}, "id": "1141", "type": "Feature", "properties": {"id": "46004-37641-013-LN2244", "status": "Implementation", "title": "HUNAN FLOOD MANAGEMENT SECTOR PROJECT", "approvalYear": "2006", "sectors": ["Agriculture, natural resources and rural development"], "locationName": "Zhuzhou City"}}, {"geometry": {"type": "Point", "coordinates": [111.43541, 27.67693]}, "id": "1142", "type": "Feature", "properties": {"id": "46004-37641-013-LN2244", "status": "Implementation", "title": "HUNAN FLOOD MANAGEMENT SECTOR PROJECT", "approvalYear": "2006", "sectors": ["Agriculture, natural resources and rural development"], "locationName": "Lengshuijiang City"}}, {"geometry": {"type": "Point", "coordinates": [112.85908, 26.40238]}, "id": "1143", "type": "Feature", "properties": {"id": "46004-37641-013-LN2244", "status": "Implementation", "title": "HUNAN FLOOD MANAGEMENT SECTOR PROJECT", "approvalYear": "2006", "sectors": ["Agriculture, natural resources and rural development"], "locationName": "Leiyang City"}}, {"geometry": {"type": "Point", "coordinates": [111.66417, 27.68833]}, "id": "1144", "type": "Feature", "properties": {"id": "46004-37641-013-LN2244", "status": "Implementation", "title": "HUNAN FLOOD MANAGEMENT SECTOR PROJECT", "approvalYear": "2006", "sectors": ["Agriculture, natural resources and rural development"], "locationName": "Lianyuan"}}, {"geometry": {"type": "Point", "coordinates": [109.71282, 28.26445]}, "id": "1145", "type": "Feature", "properties": {"id": "46004-37641-013-LN2244", "status": "Implementation", "title": "HUNAN FLOOD MANAGEMENT SECTOR PROJECT", "approvalYear": "2006", "sectors": ["Agriculture, natural resources and rural development"], "locationName": "Jishou City"}}, {"geometry": {"type": "Point", "coordinates": [111.33333, 25.26667]}, "id": "1146", "type": "Feature", "properties": {"id": "46004-37641-013-LN2244", "status": "Implementation", "title": "HUNAN FLOOD MANAGEMENT SECTOR PROJECT", "approvalYear": "2006", "sectors": ["Agriculture, natural resources and rural development"], "locationName": "Jiangyong County"}}, {"geometry": {"type": "Point", "coordinates": [111.5994, 25.19314]}, "id": "1147", "type": "Feature", "properties": {"id": "46004-37641-013-LN2244", "status": "Implementation", "title": "HUNAN FLOOD MANAGEMENT SECTOR PROJECT", "approvalYear": "2006", "sectors": ["Agriculture, natural resources and rural development"], "locationName": "Jianghua County"}}, {"geometry": {"type": "Point", "coordinates": [109.95917, 27.54944]}, "id": "1148", "type": "Feature", "properties": {"id": "46004-37641-013-LN2244", "status": "Implementation", "title": "HUNAN FLOOD MANAGEMENT SECTOR PROJECT", "approvalYear": "2006", "sectors": ["Agriculture, natural resources and rural development"], "locationName": "Huaihua City"}}, {"geometry": {"type": "Point", "coordinates": [112.38122, 26.97965]}, "id": "1149", "type": "Feature", "properties": {"id": "46004-37641-013-LN2244", "status": "Implementation", "title": "HUNAN FLOOD MANAGEMENT SECTOR PROJECT", "approvalYear": "2006", "sectors": ["Agriculture, natural resources and rural development"], "locationName": "Hengyang County"}}, {"geometry": {"type": "Point", "coordinates": [112.61888, 26.88946]}, "id": "1150", "type": "Feature", "properties": {"id": "46004-37641-013-LN2244", "status": "Implementation", "title": "HUNAN FLOOD MANAGEMENT SECTOR PROJECT", "approvalYear": "2006", "sectors": ["Agriculture, natural resources and rural development"], "locationName": "Hengyang Hengyang City"}}, {"geometry": {"type": "Point", "coordinates": [109.59965, 27.95215]}, "id": "1151", "type": "Feature", "properties": {"id": "46004-37641-013-LN2244", "status": "Implementation", "title": "HUNAN FLOOD MANAGEMENT SECTOR PROJECT", "approvalYear": "2006", "sectors": ["Agriculture, natural resources and rural development"], "locationName": "Fenghuang County"}}, {"geometry": {"type": "Point", "coordinates": [111.12991, 29.42762]}, "id": "1152", "type": "Feature", "properties": {"id": "46004-37641-013-LN2244", "status": "Implementation", "title": "HUNAN FLOOD MANAGEMENT SECTOR PROJECT", "approvalYear": "2006", "sectors": ["Agriculture, natural resources and rural development"], "locationName": "Cili County"}}, {"geometry": {"type": "Point", "coordinates": [113.04361, 25.7978]}, "id": "1153", "type": "Feature", "properties": {"id": "46004-37641-013-LN2244", "status": "Implementation", "title": "HUNAN FLOOD MANAGEMENT SECTOR PROJECT", "approvalYear": "2006", "sectors": ["Agriculture, natural resources and rural development"], "locationName": "Chenzhou City"}}, {"geometry": {"type": "Point", "coordinates": [110.20033, 27.99734]}, "id": "1154", "type": "Feature", "properties": {"id": "46004-37641-013-LN2244", "status": "Implementation", "title": "HUNAN FLOOD MANAGEMENT SECTOR PROJECT", "approvalYear": "2006", "sectors": ["Agriculture, natural resources and rural development"], "locationName": "Chenxi County"}}, {"geometry": {"type": "Point", "coordinates": [111.47389, 27.24417]}, "id": "1155", "type": "Feature", "properties": {"id": "46004-37641-013-LN2244", "status": "Implementation", "title": "HUNAN FLOOD MANAGEMENT SECTOR PROJECT", "approvalYear": "2006", "sectors": ["Agriculture, natural resources and rural development"], "locationName": "Shaoyang City"}}, {"geometry": {"type": "Point", "coordinates": [109.66393, 28.70832]}, "id": "1156", "type": "Feature", "properties": {"id": "46004-37641-013-LN2244", "status": "Implementation", "title": "HUNAN FLOOD MANAGEMENT SECTOR PROJECT", "approvalYear": "2006", "sectors": ["Agriculture, natural resources and rural development"], "locationName": "Baojing County"}}, {"geometry": {"type": "Point", "coordinates": [109.92675, 27.44238]}, "id": "1157", "type": "Feature", "properties": {"id": "46004-37641-013-LN2244", "status": "Implementation", "title": "HUNAN FLOOD MANAGEMENT SECTOR PROJECT", "approvalYear": "2006", "sectors": ["Agriculture, natural resources and rural development"], "locationName": "Zhongfang County"}}, {"geometry": {"type": "Point", "coordinates": [106.90579, 39.53827]}, "id": "1158", "type": "Feature", "properties": {"id": "46004-39019-013-LN2260", "status": "Implementation", "title": "INNER MONGOLIA AUTONOMOUS REGION ENVIRONMENT IMPROVEMENT PROJECT", "approvalYear": "2007", "sectors": ["Energy"], "locationName": "wuhai shi"}}, {"geometry": {"type": "Point", "coordinates": [106.81582, 39.68442]}, "id": "1159", "type": "Feature", "properties": {"id": "46004-39019-013-LN2260", "status": "Implementation", "title": "INNER MONGOLIA AUTONOMOUS REGION ENVIRONMENT IMPROVEMENT PROJECT", "approvalYear": "2007", "sectors": ["Energy"], "locationName": "Wuhai"}}, {"geometry": {"type": "Point", "coordinates": [108.82552, 38.59657]}, "id": "1160", "type": "Feature", "properties": {"id": "46004-39019-013-LN2260", "status": "Implementation", "title": "INNER MONGOLIA AUTONOMOUS REGION ENVIRONMENT IMPROVEMENT PROJECT", "approvalYear": "2007", "sectors": ["Energy"], "locationName": "Uxin Qi"}}, {"geometry": {"type": "Point", "coordinates": [107.75552, 39.27207]}, "id": "1161", "type": "Feature", "properties": {"id": "46004-39019-013-LN2260", "status": "Implementation", "title": "INNER MONGOLIA AUTONOMOUS REGION ENVIRONMENT IMPROVEMENT PROJECT", "approvalYear": "2007", "sectors": ["Energy"], "locationName": "Otog Qi"}}, {"geometry": {"type": "Point", "coordinates": [108.80946, 39.46142]}, "id": "1162", "type": "Feature", "properties": {"id": "46004-39019-013-LN2260", "status": "Implementation", "title": "INNER MONGOLIA AUTONOMOUS REGION ENVIRONMENT IMPROVEMENT PROJECT", "approvalYear": "2007", "sectors": ["Energy"], "locationName": "Ordos Shi"}}, {"geometry": {"type": "Point", "coordinates": [108.11221, 41.00733]}, "id": "1163", "type": "Feature", "properties": {"id": "46004-39019-013-LN2260", "status": "Implementation", "title": "INNER MONGOLIA AUTONOMOUS REGION ENVIRONMENT IMPROVEMENT PROJECT", "approvalYear": "2007", "sectors": ["Energy"], "locationName": "Wuyuan Xian"}}, {"geometry": {"type": "Point", "coordinates": [109.10132, 40.89442]}, "id": "1164", "type": "Feature", "properties": {"id": "46004-39019-013-LN2260", "status": "Implementation", "title": "INNER MONGOLIA AUTONOMOUS REGION ENVIRONMENT IMPROVEMENT PROJECT", "approvalYear": "2007", "sectors": ["Energy"], "locationName": "Urad Qianqi"}}, {"geometry": {"type": "Point", "coordinates": [106.52544, 41.45034]}, "id": "1165", "type": "Feature", "properties": {"id": "46004-39019-013-LN2260", "status": "Implementation", "title": "INNER MONGOLIA AUTONOMOUS REGION ENVIRONMENT IMPROVEMENT PROJECT", "approvalYear": "2007", "sectors": ["Energy"], "locationName": "Urad Houqi"}}, {"geometry": {"type": "Point", "coordinates": [112.0, 44.0]}, "id": "1166", "type": "Feature", "properties": {"id": "46004-39019-013-LN2260", "status": "Implementation", "title": "INNER MONGOLIA AUTONOMOUS REGION ENVIRONMENT IMPROVEMENT PROJECT", "approvalYear": "2007", "sectors": ["Energy"], "locationName": "Inner Mongolia"}}, {"geometry": {"type": "Point", "coordinates": [107.42792, 40.85393]}, "id": "1167", "type": "Feature", "properties": {"id": "46004-39019-013-LN2260", "status": "Implementation", "title": "INNER MONGOLIA AUTONOMOUS REGION ENVIRONMENT IMPROVEMENT PROJECT", "approvalYear": "2007", "sectors": ["Energy"], "locationName": "Linhe Qu"}}, {"geometry": {"type": "Point", "coordinates": [111.68875, 40.64947]}, "id": "1168", "type": "Feature", "properties": {"id": "46004-39019-013-LN2260", "status": "Implementation", "title": "INNER MONGOLIA AUTONOMOUS REGION ENVIRONMENT IMPROVEMENT PROJECT", "approvalYear": "2007", "sectors": ["Energy"], "locationName": "Hohhot Shi"}}, {"geometry": {"type": "Point", "coordinates": [111.65222, 40.81056]}, "id": "1169", "type": "Feature", "properties": {"id": "46004-39019-013-LN2260", "status": "Implementation", "title": "INNER MONGOLIA AUTONOMOUS REGION ENVIRONMENT IMPROVEMENT PROJECT", "approvalYear": "2007", "sectors": ["Energy"], "locationName": "Hohhot"}}, {"geometry": {"type": "Point", "coordinates": [107.04479, 40.88843]}, "id": "1170", "type": "Feature", "properties": {"id": "46004-39019-013-LN2260", "status": "Implementation", "title": "INNER MONGOLIA AUTONOMOUS REGION ENVIRONMENT IMPROVEMENT PROJECT", "approvalYear": "2007", "sectors": ["Energy"], "locationName": "Hangginhou Qi"}}, {"geometry": {"type": "Point", "coordinates": [106.73878, 40.45188]}, "id": "1171", "type": "Feature", "properties": {"id": "46004-39019-013-LN2260", "status": "Implementation", "title": "INNER MONGOLIA AUTONOMOUS REGION ENVIRONMENT IMPROVEMENT PROJECT", "approvalYear": "2007", "sectors": ["Energy"], "locationName": "Dengkou Xian"}}, {"geometry": {"type": "Point", "coordinates": [107.49485, 41.56958]}, "id": "1172", "type": "Feature", "properties": {"id": "46004-39019-013-LN2260", "status": "Implementation", "title": "INNER MONGOLIA AUTONOMOUS REGION ENVIRONMENT IMPROVEMENT PROJECT", "approvalYear": "2007", "sectors": ["Energy"], "locationName": "Bayannur Shi"}}, {"geometry": {"type": "Point", "coordinates": [108.74472, 40.665]}, "id": "1173", "type": "Feature", "properties": {"id": "46004-39019-013-LN2260", "status": "Implementation", "title": "INNER MONGOLIA AUTONOMOUS REGION ENVIRONMENT IMPROVEMENT PROJECT", "approvalYear": "2007", "sectors": ["Energy"], "locationName": "Ulashan"}}, {"geometry": {"type": "Point", "coordinates": [106.89132, 39.44545]}, "id": "1174", "type": "Feature", "properties": {"id": "46004-39019-013-LN2260", "status": "Implementation", "title": "INNER MONGOLIA AUTONOMOUS REGION ENVIRONMENT IMPROVEMENT PROJECT", "approvalYear": "2007", "sectors": ["Energy"], "locationName": "Hainan Qu"}}, {"geometry": {"type": "Point", "coordinates": [106.84704, 39.64982]}, "id": "1175", "type": "Feature", "properties": {"id": "46004-39019-013-LN2260", "status": "Implementation", "title": "INNER MONGOLIA AUTONOMOUS REGION ENVIRONMENT IMPROVEMENT PROJECT", "approvalYear": "2007", "sectors": ["Energy"], "locationName": "Haibowan Qu"}}, {"geometry": {"type": "Point", "coordinates": [106.72697, 39.50421]}, "id": "1176", "type": "Feature", "properties": {"id": "46004-39019-013-LN2260", "status": "Implementation", "title": "INNER MONGOLIA AUTONOMOUS REGION ENVIRONMENT IMPROVEMENT PROJECT", "approvalYear": "2007", "sectors": ["Energy"], "locationName": "Wuda Qu"}}, {"geometry": {"type": "Point", "coordinates": [107.037, 39.3941]}, "id": "1177", "type": "Feature", "properties": {"id": "46004-39019-013-LN2260", "status": "Implementation", "title": "INNER MONGOLIA AUTONOMOUS REGION ENVIRONMENT IMPROVEMENT PROJECT", "approvalYear": "2007", "sectors": ["Energy"], "locationName": "Qipanjing"}}, {"geometry": {"type": "Point", "coordinates": [122.001, 44.7254]}, "id": "1178", "type": "Feature", "properties": {"id": "46004-39019-013-LN2260", "status": "Implementation", "title": "INNER MONGOLIA AUTONOMOUS REGION ENVIRONMENT IMPROVEMENT PROJECT", "approvalYear": "2007", "sectors": ["Energy"], "locationName": "Bayannao'er"}}, {"geometry": {"type": "Point", "coordinates": [105.56094, 33.08399]}, "id": "1179", "type": "Feature", "properties": {"id": "46004-38174-013-LN2295", "status": "Implementation", "title": "SOUTHERN GANSU ROADS DEVELOPMENT PROJECT", "approvalYear": "2007", "sectors": ["Transport", "Information and communication technology"], "locationName": "Ganjiangba"}}, {"geometry": {"type": "Point", "coordinates": [105.50325, 33.18429]}, "id": "1180", "type": "Feature", "properties": {"id": "46004-38174-013-LN2295", "status": "Implementation", "title": "SOUTHERN GANSU ROADS DEVELOPMENT PROJECT", "approvalYear": "2007", "sectors": ["Transport", "Information and communication technology"], "locationName": "Changheba"}}, {"geometry": {"type": "Point", "coordinates": [105.0673, 33.50508]}, "id": "1181", "type": "Feature", "properties": {"id": "46004-38174-013-LN2295", "status": "Implementation", "title": "SOUTHERN GANSU ROADS DEVELOPMENT PROJECT", "approvalYear": "2007", "sectors": ["Transport", "Information and communication technology"], "locationName": "Sijiaba"}}, {"geometry": {"type": "Point", "coordinates": [104.92167, 33.39667]}, "id": "1182", "type": "Feature", "properties": {"id": "46004-38174-013-LN2295", "status": "Implementation", "title": "SOUTHERN GANSU ROADS DEVELOPMENT PROJECT", "approvalYear": "2007", "sectors": ["Transport", "Information and communication technology"], "locationName": "Wudu"}}, {"geometry": {"type": "Point", "coordinates": [105.36167, 33.45917]}, "id": "1183", "type": "Feature", "properties": {"id": "46004-38174-013-LN2295", "status": "Implementation", "title": "SOUTHERN GANSU ROADS DEVELOPMENT PROJECT", "approvalYear": "2007", "sectors": ["Transport", "Information and communication technology"], "locationName": "Wangguan"}}, {"geometry": {"type": "Point", "coordinates": [105.34947, 33.53451]}, "id": "1184", "type": "Feature", "properties": {"id": "46004-38174-013-LN2295", "status": "Implementation", "title": "SOUTHERN GANSU ROADS DEVELOPMENT PROJECT", "approvalYear": "2007", "sectors": ["Transport", "Information and communication technology"], "locationName": "Longnan Shi"}}, {"geometry": {"type": "Point", "coordinates": [105.1725, 34.19]}, "id": "1185", "type": "Feature", "properties": {"id": "46004-38174-013-LN2295", "status": "Implementation", "title": "SOUTHERN GANSU ROADS DEVELOPMENT PROJECT", "approvalYear": "2007", "sectors": ["Transport", "Information and communication technology"], "locationName": "Lixian"}}, {"geometry": {"type": "Point", "coordinates": [105.39, 34.40972]}, "id": "1186", "type": "Feature", "properties": {"id": "46004-38174-013-LN2295", "status": "Implementation", "title": "SOUTHERN GANSU ROADS DEVELOPMENT PROJECT", "approvalYear": "2007", "sectors": ["Transport", "Information and communication technology"], "locationName": "Honghe"}}, {"geometry": {"type": "Point", "coordinates": [105.58832, 33.83946]}, "id": "1187", "type": "Feature", "properties": {"id": "46004-38174-013-LN2295", "status": "Implementation", "title": "SOUTHERN GANSU ROADS DEVELOPMENT PROJECT", "approvalYear": "2007", "sectors": ["Transport", "Information and communication technology"], "locationName": "Erlang"}}, {"geometry": {"type": "Point", "coordinates": [105.72056, 33.74111]}, "id": "1188", "type": "Feature", "properties": {"id": "46004-38174-013-LN2295", "status": "Implementation", "title": "SOUTHERN GANSU ROADS DEVELOPMENT PROJECT", "approvalYear": "2007", "sectors": ["Transport", "Information and communication technology"], "locationName": "Chengxian Chengguanzhen"}}, {"geometry": {"type": "Point", "coordinates": [105.54111, 34.16639]}, "id": "1189", "type": "Feature", "properties": {"id": "46004-38174-013-LN2295", "status": "Implementation", "title": "SOUTHERN GANSU ROADS DEVELOPMENT PROJECT", "approvalYear": "2007", "sectors": ["Transport", "Information and communication technology"], "locationName": "Kuanchuan"}}, {"geometry": {"type": "Point", "coordinates": [105.01373, 33.37003]}, "id": "1190", "type": "Feature", "properties": {"id": "46004-38174-013-LN2295", "status": "Implementation", "title": "SOUTHERN GANSU ROADS DEVELOPMENT PROJECT", "approvalYear": "2007", "sectors": ["Transport", "Information and communication technology"], "locationName": "Zhaojiaba"}}, {"geometry": {"type": "Point", "coordinates": [104.75163, 33.22442]}, "id": "1191", "type": "Feature", "properties": {"id": "46004-38174-013-LN2295", "status": "Implementation", "title": "SOUTHERN GANSU ROADS DEVELOPMENT PROJECT", "approvalYear": "2007", "sectors": ["Transport", "Information and communication technology"], "locationName": "Tianchi"}}, {"geometry": {"type": "Point", "coordinates": [105.41912, 32.98217]}, "id": "1192", "type": "Feature", "properties": {"id": "46004-38174-013-LN2295", "status": "Implementation", "title": "SOUTHERN GANSU ROADS DEVELOPMENT PROJECT", "approvalYear": "2007", "sectors": ["Transport", "Information and communication technology"], "locationName": "Yangba"}}, {"geometry": {"type": "Point", "coordinates": [118.77778, 32.06167]}, "id": "1193", "type": "Feature", "properties": {"id": "46004-37603-013-LN2297", "status": "Implementation", "title": "NANJING QINHUAI RIVER ENVIRONMENTAL IMPROVEMENT PROJECT", "approvalYear": "2007", "sectors": ["Water supply and other urban infrastructure and services"], "locationName": "Nanjing"}}, {"geometry": {"type": "Point", "coordinates": [118.84066, 32.07091]}, "id": "1194", "type": "Feature", "properties": {"id": "46004-37603-013-LN2297", "status": "Implementation", "title": "NANJING QINHUAI RIVER ENVIRONMENTAL IMPROVEMENT PROJECT", "approvalYear": "2007", "sectors": ["Water supply and other urban infrastructure and services"], "locationName": "Xuanwu Qu"}}, {"geometry": {"type": "Point", "coordinates": [118.82645, 32.02241]}, "id": "1195", "type": "Feature", "properties": {"id": "46004-37603-013-LN2297", "status": "Implementation", "title": "NANJING QINHUAI RIVER ENVIRONMENTAL IMPROVEMENT PROJECT", "approvalYear": "2007", "sectors": ["Water supply and other urban infrastructure and services"], "locationName": "Baixia Qu"}}, {"geometry": {"type": "Point", "coordinates": [118.80064, 32.00497]}, "id": "1196", "type": "Feature", "properties": {"id": "46004-37603-013-LN2297", "status": "Implementation", "title": "NANJING QINHUAI RIVER ENVIRONMENTAL IMPROVEMENT PROJECT", "approvalYear": "2007", "sectors": ["Water supply and other urban infrastructure and services"], "locationName": "Qinhuai Qu"}}, {"geometry": {"type": "Point", "coordinates": [118.7244, 32.05018]}, "id": "1197", "type": "Feature", "properties": {"id": "46004-37603-013-LN2297", "status": "Implementation", "title": "NANJING QINHUAI RIVER ENVIRONMENTAL IMPROVEMENT PROJECT", "approvalYear": "2007", "sectors": ["Water supply and other urban infrastructure and services"], "locationName": "Gulou Qu"}}, {"geometry": {"type": "Point", "coordinates": [118.74781, 32.10113]}, "id": "1198", "type": "Feature", "properties": {"id": "46004-37603-013-LN2297", "status": "Implementation", "title": "NANJING QINHUAI RIVER ENVIRONMENTAL IMPROVEMENT PROJECT", "approvalYear": "2007", "sectors": ["Water supply and other urban infrastructure and services"], "locationName": "Xiaguan Qu"}}, {"geometry": {"type": "Point", "coordinates": [118.88797, 32.05522]}, "id": "1199", "type": "Feature", "properties": {"id": "46004-37603-013-LN2297", "status": "Implementation", "title": "NANJING QINHUAI RIVER ENVIRONMENTAL IMPROVEMENT PROJECT", "approvalYear": "2007", "sectors": ["Water supply and other urban infrastructure and services"], "locationName": "Ma'qun"}}, {"geometry": {"type": "Point", "coordinates": [120.20707, 31.61845]}, "id": "1200", "type": "Feature", "properties": {"id": "46004-37603-013-LN2297", "status": "Implementation", "title": "NANJING QINHUAI RIVER ENVIRONMENTAL IMPROVEMENT PROJECT", "approvalYear": "2007", "sectors": ["Water supply and other urban infrastructure and services"], "locationName": "Xibeicun"}}, {"geometry": {"type": "Point", "coordinates": [120.03751, 32.11873]}, "id": "1201", "type": "Feature", "properties": {"id": "46004-37603-013-LN2297", "status": "Implementation", "title": "NANJING QINHUAI RIVER ENVIRONMENTAL IMPROVEMENT PROJECT", "approvalYear": "2007", "sectors": ["Water supply and other urban infrastructure and services"], "locationName": "Changxiang"}}, {"geometry": {"type": "Point", "coordinates": [119.46198, 32.0585]}, "id": "1202", "type": "Feature", "properties": {"id": "46004-37603-013-LN2297", "status": "Implementation", "title": "NANJING QINHUAI RIVER ENVIRONMENTAL IMPROVEMENT PROJECT", "approvalYear": "2007", "sectors": ["Water supply and other urban infrastructure and services"], "locationName": "Liwei"}}, {"geometry": {"type": "Point", "coordinates": [118.78147, 31.98504]}, "id": "1203", "type": "Feature", "properties": {"id": "46004-37603-013-LN2297", "status": "Implementation", "title": "NANJING QINHUAI RIVER ENVIRONMENTAL IMPROVEMENT PROJECT", "approvalYear": "2007", "sectors": ["Water supply and other urban infrastructure and services"], "locationName": "Ningnan"}}, {"geometry": {"type": "Point", "coordinates": [118.79884, 32.02492]}, "id": "1204", "type": "Feature", "properties": {"id": "46004-37603-013-LN2297", "status": "Implementation", "title": "NANJING QINHUAI RIVER ENVIRONMENTAL IMPROVEMENT PROJECT", "approvalYear": "2007", "sectors": ["Water supply and other urban infrastructure and services"], "locationName": "Dazhong Qiao"}}, {"geometry": {"type": "Point", "coordinates": [118.88165, 32.01747]}, "id": "1205", "type": "Feature", "properties": {"id": "46004-37603-013-LN2297", "status": "Implementation", "title": "NANJING QINHUAI RIVER ENVIRONMENTAL IMPROVEMENT PROJECT", "approvalYear": "2007", "sectors": ["Water supply and other urban infrastructure and services"], "locationName": "Yunliang He"}}, {"geometry": {"type": "Point", "coordinates": [120.87286, 31.84694]}, "id": "1206", "type": "Feature", "properties": {"id": "46004-37603-013-LN2297", "status": "Implementation", "title": "NANJING QINHUAI RIVER ENVIRONMENTAL IMPROVEMENT PROJECT", "approvalYear": "2007", "sectors": ["Water supply and other urban infrastructure and services"], "locationName": "Hu Cheng He"}}, {"geometry": {"type": "Point", "coordinates": [118.75733, 31.9707]}, "id": "1207", "type": "Feature", "properties": {"id": "46004-37603-013-LN2297", "status": "Implementation", "title": "NANJING QINHUAI RIVER ENVIRONMENTAL IMPROVEMENT PROJECT", "approvalYear": "2007", "sectors": ["Water supply and other urban infrastructure and services"], "locationName": "Tiexinqiao"}}, {"geometry": {"type": "Point", "coordinates": [118.69489, 32.00947]}, "id": "1208", "type": "Feature", "properties": {"id": "46004-37603-013-LN2297", "status": "Implementation", "title": "NANJING QINHUAI RIVER ENVIRONMENTAL IMPROVEMENT PROJECT", "approvalYear": "2007", "sectors": ["Water supply and other urban infrastructure and services"], "locationName": "Jiangxinzhou"}}, {"geometry": {"type": "Point", "coordinates": [120.20944, 31.44669]}, "id": "1209", "type": "Feature", "properties": {"id": "46004-37603-013-LN2297", "status": "Implementation", "title": "NANJING QINHUAI RIVER ENVIRONMENTAL IMPROVEMENT PROJECT", "approvalYear": "2007", "sectors": ["Water supply and other urban infrastructure and services"], "locationName": "Wuxi Shi"}}, {"geometry": {"type": "Point", "coordinates": [118.76667, 31.79167]}, "id": "1210", "type": "Feature", "properties": {"id": "46004-37603-013-LN2297", "status": "Implementation", "title": "NANJING QINHUAI RIVER ENVIRONMENTAL IMPROVEMENT PROJECT", "approvalYear": "2007", "sectors": ["Water supply and other urban infrastructure and services"], "locationName": "Feng Huang Shan"}}, {"geometry": {"type": "Point", "coordinates": [118.39221, 31.43802]}, "id": "1211", "type": "Feature", "properties": {"id": "46004-37603-013-LN2297", "status": "Implementation", "title": "NANJING QINHUAI RIVER ENVIRONMENTAL IMPROVEMENT PROJECT", "approvalYear": "2007", "sectors": ["Water supply and other urban infrastructure and services"], "locationName": "Qing Jiang"}}, {"geometry": {"type": "Point", "coordinates": [118.81056, 32.02927]}, "id": "1212", "type": "Feature", "properties": {"id": "46004-37603-013-LN2297", "status": "Implementation", "title": "NANJING QINHUAI RIVER ENVIRONMENTAL IMPROVEMENT PROJECT", "approvalYear": "2007", "sectors": ["Water supply and other urban infrastructure and services"], "locationName": "Ming Yu He"}}, {"geometry": {"type": "Point", "coordinates": [118.82658, 32.00914]}, "id": "1213", "type": "Feature", "properties": {"id": "46004-37603-013-LN2297", "status": "Implementation", "title": "NANJING QINHUAI RIVER ENVIRONMENTAL IMPROVEMENT PROJECT", "approvalYear": "2007", "sectors": ["Water supply and other urban infrastructure and services"], "locationName": "Qi Qiao Weng"}}, {"geometry": {"type": "Point", "coordinates": [118.828, 32.03208]}, "id": "1214", "type": "Feature", "properties": {"id": "46004-37603-013-LN2297", "status": "Implementation", "title": "NANJING QINHUAI RIVER ENVIRONMENTAL IMPROVEMENT PROJECT", "approvalYear": "2007", "sectors": ["Water supply and other urban infrastructure and services"], "locationName": "Yueya Hu"}}, {"geometry": {"type": "Point", "coordinates": [118.72121, 31.99438]}, "id": "1215", "type": "Feature", "properties": {"id": "46004-37603-013-LN2297", "status": "Implementation", "title": "NANJING QINHUAI RIVER ENVIRONMENTAL IMPROVEMENT PROJECT", "approvalYear": "2007", "sectors": ["Water supply and other urban infrastructure and services"], "locationName": "Hexi District"}}, {"geometry": {"type": "Point", "coordinates": [119.43435, 32.4073]}, "id": "1216", "type": "Feature", "properties": {"id": "46004-37603-013-LN2297", "status": "Implementation", "title": "NANJING QINHUAI RIVER ENVIRONMENTAL IMPROVEMENT PROJECT", "approvalYear": "2007", "sectors": ["Water supply and other urban infrastructure and services"], "locationName": "Yudai River"}}, {"geometry": {"type": "Point", "coordinates": [118.80647, 32.01907]}, "id": "1217", "type": "Feature", "properties": {"id": "46004-37603-013-LN2297", "status": "Implementation", "title": "NANJING QINHUAI RIVER ENVIRONMENTAL IMPROVEMENT PROJECT", "approvalYear": "2007", "sectors": ["Water supply and other urban infrastructure and services"], "locationName": "Xiangfangcun"}}, {"geometry": {"type": "Point", "coordinates": [117.28083, 31.86389]}, "id": "1218", "type": "Feature", "properties": {"id": "46004-36595-013-LN2328", "status": "Completion", "title": "ANHUI HEFEI URBAN ENVIRONMENT IMPROVEMENT PROJECT", "approvalYear": "2007", "sectors": ["Water supply and other urban infrastructure and services"], "locationName": "Hefei"}}, {"geometry": {"type": "Point", "coordinates": [117.05225, 31.72671]}, "id": "1219", "type": "Feature", "properties": {"id": "46004-36595-013-LN2328", "status": "Completion", "title": "ANHUI HEFEI URBAN ENVIRONMENT IMPROVEMENT PROJECT", "approvalYear": "2007", "sectors": ["Water supply and other urban infrastructure and services"], "locationName": "Feixi Xian"}}, {"geometry": {"type": "Point", "coordinates": [117.57236, 31.99496]}, "id": "1220", "type": "Feature", "properties": {"id": "46004-36595-013-LN2328", "status": "Completion", "title": "ANHUI HEFEI URBAN ENVIRONMENT IMPROVEMENT PROJECT", "approvalYear": "2007", "sectors": ["Water supply and other urban infrastructure and services"], "locationName": "Feidong Xian"}}, {"geometry": {"type": "Point", "coordinates": [117.55, 31.51667]}, "id": "1221", "type": "Feature", "properties": {"id": "46004-36595-013-LN2328", "status": "Completion", "title": "ANHUI HEFEI URBAN ENVIRONMENT IMPROVEMENT PROJECT", "approvalYear": "2007", "sectors": ["Water supply and other urban infrastructure and services"], "locationName": "Chao Lake"}}, {"geometry": {"type": "Point", "coordinates": [117.40417, 31.6975]}, "id": "1222", "type": "Feature", "properties": {"id": "46004-36595-013-LN2328", "status": "Completion", "title": "ANHUI HEFEI URBAN ENVIRONMENT IMPROVEMENT PROJECT", "approvalYear": "2007", "sectors": ["Water supply and other urban infrastructure and services"], "locationName": "Nanfei He"}}, {"geometry": {"type": "Point", "coordinates": [117.32294, 31.77959]}, "id": "1223", "type": "Feature", "properties": {"id": "46004-36595-013-LN2328", "status": "Completion", "title": "ANHUI HEFEI URBAN ENVIRONMENT IMPROVEMENT PROJECT", "approvalYear": "2007", "sectors": ["Water supply and other urban infrastructure and services"], "locationName": "Baohe Qu"}}, {"geometry": {"type": "Point", "coordinates": [117.30232, 31.95158]}, "id": "1224", "type": "Feature", "properties": {"id": "46004-36595-013-LN2328", "status": "Completion", "title": "ANHUI HEFEI URBAN ENVIRONMENT IMPROVEMENT PROJECT", "approvalYear": "2007", "sectors": ["Water supply and other urban infrastructure and services"], "locationName": "Banqiao He"}}, {"geometry": {"type": "Point", "coordinates": [117.24487, 31.89918]}, "id": "1225", "type": "Feature", "properties": {"id": "46004-36595-013-LN2328", "status": "Completion", "title": "ANHUI HEFEI URBAN ENVIRONMENT IMPROVEMENT PROJECT", "approvalYear": "2007", "sectors": ["Water supply and other urban infrastructure and services"], "locationName": "Sili He"}}, {"geometry": {"type": "Point", "coordinates": [117.34659, 31.89208]}, "id": "1226", "type": "Feature", "properties": {"id": "46004-36595-013-LN2328", "status": "Completion", "title": "ANHUI HEFEI URBAN ENVIRONMENT IMPROVEMENT PROJECT", "approvalYear": "2007", "sectors": ["Water supply and other urban infrastructure and services"], "locationName": "Ershibu He"}}, {"geometry": {"type": "Point", "coordinates": [117.2555, 31.7949]}, "id": "1227", "type": "Feature", "properties": {"id": "46004-36595-013-LN2328", "status": "Completion", "title": "ANHUI HEFEI URBAN ENVIRONMENT IMPROVEMENT PROJECT", "approvalYear": "2007", "sectors": ["Water supply and other urban infrastructure and services"], "locationName": "Shiwuli He"}}, {"geometry": {"type": "Point", "coordinates": [117.23903, 31.86731]}, "id": "1228", "type": "Feature", "properties": {"id": "46004-36595-013-LN2328", "status": "Completion", "title": "ANHUI HEFEI URBAN ENVIRONMENT IMPROVEMENT PROJECT", "approvalYear": "2007", "sectors": ["Water supply and other urban infrastructure and services"], "locationName": "Qing Xi Lu"}}, {"geometry": {"type": "Point", "coordinates": [107.91896, 31.98954]}, "id": "1229", "type": "Feature", "properties": {"id": "46004-37490-013-LN2339", "status": "Completion", "title": "EASTERN SICHUAN ROADS DEVELOPMENT PROJECT", "approvalYear": "2008", "sectors": ["Transport", "Information and communication technology"], "locationName": "Wanyuan Shi"}}, {"geometry": {"type": "Point", "coordinates": [102.5, 30.5]}, "id": "1230", "type": "Feature", "properties": {"id": "46004-37490-013-LN2339", "status": "Completion", "title": "EASTERN SICHUAN ROADS DEVELOPMENT PROJECT", "approvalYear": "2008", "sectors": ["Transport", "Information and communication technology"], "locationName": "Sichuan Sheng"}}, {"geometry": {"type": "Point", "coordinates": [107.65068, 31.34512]}, "id": "1231", "type": "Feature", "properties": {"id": "46004-37490-013-LN2339", "status": "Completion", "title": "EASTERN SICHUAN ROADS DEVELOPMENT PROJECT", "approvalYear": "2008", "sectors": ["Transport", "Information and communication technology"], "locationName": "Dazhou Shi"}}, {"geometry": {"type": "Point", "coordinates": [107.50092, 31.21592]}, "id": "1232", "type": "Feature", "properties": {"id": "46004-37490-013-LN2339", "status": "Completion", "title": "EASTERN SICHUAN ROADS DEVELOPMENT PROJECT", "approvalYear": "2008", "sectors": ["Transport", "Information and communication technology"], "locationName": "Dazhou"}}, {"geometry": {"type": "Point", "coordinates": [108.03375, 32.07931]}, "id": "1233", "type": "Feature", "properties": {"id": "46004-37490-013-LN2339", "status": "Completion", "title": "EASTERN SICHUAN ROADS DEVELOPMENT PROJECT", "approvalYear": "2008", "sectors": ["Transport", "Information and communication technology"], "locationName": "Wanyuan"}}, {"geometry": {"type": "Point", "coordinates": [106.41667, 23.13333]}, "id": "1234", "type": "Feature", "properties": {"id": "46004-39149-013-LN2345", "status": "Completion", "title": "WESTERN GUANGXI ROADS DEVELOPMENT PROJECT", "approvalYear": "2008", "sectors": ["Transport", "Information and communication technology"], "locationName": "Jingxi Xian"}}, {"geometry": {"type": "Point", "coordinates": [106.46667, 24.63333]}, "id": "1235", "type": "Feature", "properties": {"id": "46004-39149-013-LN2345", "status": "Completion", "title": "WESTERN GUANGXI ROADS DEVELOPMENT PROJECT", "approvalYear": "2008", "sectors": ["Transport", "Information and communication technology"], "locationName": "Gantian"}}, {"geometry": {"type": "Point", "coordinates": [106.35917, 23.00361]}, "id": "1236", "type": "Feature", "properties": {"id": "46004-39149-013-LN2345", "status": "Completion", "title": "WESTERN GUANGXI ROADS DEVELOPMENT PROJECT", "approvalYear": "2008", "sectors": ["Transport", "Information and communication technology"], "locationName": "Dizhou"}}, {"geometry": {"type": "Point", "coordinates": [105.16667, 24.65]}, "id": "1237", "type": "Feature", "properties": {"id": "46004-39149-013-LN2345", "status": "Completion", "title": "WESTERN GUANGXI ROADS DEVELOPMENT PROJECT", "approvalYear": "2008", "sectors": ["Transport", "Information and communication technology"], "locationName": "De'e"}}, {"geometry": {"type": "Point", "coordinates": [106.61667, 23.33333]}, "id": "1238", "type": "Feature", "properties": {"id": "46004-39149-013-LN2345", "status": "Completion", "title": "WESTERN GUANGXI ROADS DEVELOPMENT PROJECT", "approvalYear": "2008", "sectors": ["Transport", "Information and communication technology"], "locationName": "Debao Xian"}}, {"geometry": {"type": "Point", "coordinates": [106.61667, 23.9]}, "id": "1239", "type": "Feature", "properties": {"id": "46004-39149-013-LN2345", "status": "Completion", "title": "WESTERN GUANGXI ROADS DEVELOPMENT PROJECT", "approvalYear": "2008", "sectors": ["Transport", "Information and communication technology"], "locationName": "Youjiang Qu"}}, {"geometry": {"type": "Point", "coordinates": [106.61333, 23.89972]}, "id": "1240", "type": "Feature", "properties": {"id": "46004-39149-013-LN2345", "status": "Completion", "title": "WESTERN GUANGXI ROADS DEVELOPMENT PROJECT", "approvalYear": "2008", "sectors": ["Transport", "Information and communication technology"], "locationName": "Baise City"}}, {"geometry": {"type": "Point", "coordinates": [106.86614, 23.51728]}, "id": "1241", "type": "Feature", "properties": {"id": "46004-39149-013-LN2345", "status": "Completion", "title": "WESTERN GUANGXI ROADS DEVELOPMENT PROJECT", "approvalYear": "2008", "sectors": ["Transport", "Information and communication technology"], "locationName": "Dingye"}}, {"geometry": {"type": "Point", "coordinates": [105.8, 23.38333]}, "id": "1242", "type": "Feature", "properties": {"id": "46004-39149-013-LN2345", "status": "Completion", "title": "WESTERN GUANGXI ROADS DEVELOPMENT PROJECT", "approvalYear": "2008", "sectors": ["Transport", "Information and communication technology"], "locationName": "Napo Xian"}}, {"geometry": {"type": "Point", "coordinates": [106.81833, 23.73056]}, "id": "1243", "type": "Feature", "properties": {"id": "46004-39149-013-LN2345", "status": "Completion", "title": "WESTERN GUANGXI ROADS DEVELOPMENT PROJECT", "approvalYear": "2008", "sectors": ["Transport", "Information and communication technology"], "locationName": "Napo"}}, {"geometry": {"type": "Point", "coordinates": [106.08333, 24.43333]}, "id": "1244", "type": "Feature", "properties": {"id": "46004-39149-013-LN2345", "status": "Completion", "title": "WESTERN GUANGXI ROADS DEVELOPMENT PROJECT", "approvalYear": "2008", "sectors": ["Transport", "Information and communication technology"], "locationName": "Lucheng"}}, {"geometry": {"type": "Point", "coordinates": [105.61667, 24.6]}, "id": "1245", "type": "Feature", "properties": {"id": "46004-39149-013-LN2345", "status": "Completion", "title": "WESTERN GUANGXI ROADS DEVELOPMENT PROJECT", "approvalYear": "2008", "sectors": ["Transport", "Information and communication technology"], "locationName": "Longhuo"}}, {"geometry": {"type": "Point", "coordinates": [106.33333, 22.9]}, "id": "1246", "type": "Feature", "properties": {"id": "46004-39149-013-LN2345", "status": "Completion", "title": "WESTERN GUANGXI ROADS DEVELOPMENT PROJECT", "approvalYear": "2008", "sectors": ["Transport", "Information and communication technology"], "locationName": "Longbang"}}, {"geometry": {"type": "Point", "coordinates": [106.51667, 24.4]}, "id": "1247", "type": "Feature", "properties": {"id": "46004-39149-013-LN2345", "status": "Completion", "title": "WESTERN GUANGXI ROADS DEVELOPMENT PROJECT", "approvalYear": "2008", "sectors": ["Transport", "Information and communication technology"], "locationName": "Lingyun Xian"}}, {"geometry": {"type": "Point", "coordinates": [106.56667, 24.8]}, "id": "1248", "type": "Feature", "properties": {"id": "46004-39149-013-LN2345", "status": "Completion", "title": "WESTERN GUANGXI ROADS DEVELOPMENT PROJECT", "approvalYear": "2008", "sectors": ["Transport", "Information and communication technology"], "locationName": "Leye Xian"}}, {"geometry": {"type": "Point", "coordinates": [106.2437, 24.35406]}, "id": "1249", "type": "Feature", "properties": {"id": "46004-39149-013-LN2345", "status": "Completion", "title": "WESTERN GUANGXI ROADS DEVELOPMENT PROJECT", "approvalYear": "2008", "sectors": ["Transport", "Information and communication technology"], "locationName": "Leli"}}, {"geometry": {"type": "Point", "coordinates": [105.4, 24.58333]}, "id": "1250", "type": "Feature", "properties": {"id": "46004-39149-013-LN2345", "status": "Completion", "title": "WESTERN GUANGXI ROADS DEVELOPMENT PROJECT", "approvalYear": "2008", "sectors": ["Transport", "Information and communication technology"], "locationName": "Kechang"}}, {"geometry": {"type": "Point", "coordinates": [106.52472, 22.96583]}, "id": "1251", "type": "Feature", "properties": {"id": "46004-39149-013-LN2345", "status": "Completion", "title": "WESTERN GUANGXI ROADS DEVELOPMENT PROJECT", "approvalYear": "2008", "sectors": ["Transport", "Information and communication technology"], "locationName": "Yuexu"}}, {"geometry": {"type": "Point", "coordinates": [106.59778, 23.99]}, "id": "1252", "type": "Feature", "properties": {"id": "46004-39149-013-LN2345", "status": "Completion", "title": "WESTERN GUANGXI ROADS DEVELOPMENT PROJECT", "approvalYear": "2008", "sectors": ["Transport", "Information and communication technology"], "locationName": "Yongle"}}, {"geometry": {"type": "Point", "coordinates": [105.05, 24.5]}, "id": "1253", "type": "Feature", "properties": {"id": "46004-39149-013-LN2345", "status": "Completion", "title": "WESTERN GUANGXI ROADS DEVELOPMENT PROJECT", "approvalYear": "2008", "sectors": ["Transport", "Information and communication technology"], "locationName": "Xilin Xian"}}, {"geometry": {"type": "Point", "coordinates": [106.82916, 23.55341]}, "id": "1254", "type": "Feature", "properties": {"id": "46004-39149-013-LN2345", "status": "Completion", "title": "WESTERN GUANGXI ROADS DEVELOPMENT PROJECT", "approvalYear": "2008", "sectors": ["Transport", "Information and communication technology"], "locationName": "Wucun"}}, {"geometry": {"type": "Point", "coordinates": [106.9, 23.75]}, "id": "1255", "type": "Feature", "properties": {"id": "46004-39149-013-LN2345", "status": "Completion", "title": "WESTERN GUANGXI ROADS DEVELOPMENT PROJECT", "approvalYear": "2008", "sectors": ["Transport", "Information and communication technology"], "locationName": "Tianyang Xian"}}, {"geometry": {"type": "Point", "coordinates": [106.21667, 24.3]}, "id": "1256", "type": "Feature", "properties": {"id": "46004-39149-013-LN2345", "status": "Completion", "title": "WESTERN GUANGXI ROADS DEVELOPMENT PROJECT", "approvalYear": "2008", "sectors": ["Transport", "Information and communication technology"], "locationName": "Tianlin Xian"}}, {"geometry": {"type": "Point", "coordinates": [107.13333, 23.6]}, "id": "1257", "type": "Feature", "properties": {"id": "46004-39149-013-LN2345", "status": "Completion", "title": "WESTERN GUANGXI ROADS DEVELOPMENT PROJECT", "approvalYear": "2008", "sectors": ["Transport", "Information and communication technology"], "locationName": "Tiandong Xian"}}, {"geometry": {"type": "Point", "coordinates": [105.61667, 24.71667]}, "id": "1258", "type": "Feature", "properties": {"id": "46004-39149-013-LN2345", "status": "Completion", "title": "WESTERN GUANGXI ROADS DEVELOPMENT PROJECT", "approvalYear": "2008", "sectors": ["Transport", "Information and communication technology"], "locationName": "Shali"}}, {"geometry": {"type": "Point", "coordinates": [106.73303, 23.64402]}, "id": "1259", "type": "Feature", "properties": {"id": "46004-39149-013-LN2345", "status": "Completion", "title": "WESTERN GUANGXI ROADS DEVELOPMENT PROJECT", "approvalYear": "2008", "sectors": ["Transport", "Information and communication technology"], "locationName": "Pohong"}}, {"geometry": {"type": "Point", "coordinates": [107.56667, 23.33333]}, "id": "1260", "type": "Feature", "properties": {"id": "46004-39149-013-LN2345", "status": "Completion", "title": "WESTERN GUANGXI ROADS DEVELOPMENT PROJECT", "approvalYear": "2008", "sectors": ["Transport", "Information and communication technology"], "locationName": "Pingguo Xian"}}, {"geometry": {"type": "Point", "coordinates": [129.51667, 42.88333]}, "id": "1261", "type": "Feature", "properties": {"id": "46004-40050-013-LN2360", "status": "Completion", "title": "JILIN URBAN ENVIRONMENT IMPROVEMENT PROJECT", "approvalYear": "2008", "sectors": ["Water supply and other urban infrastructure and services"], "locationName": "Yanji Shi"}}, {"geometry": {"type": "Point", "coordinates": [125.32278, 43.88]}, "id": "1262", "type": "Feature", "properties": {"id": "46004-40050-013-LN2360", "status": "Completion", "title": "JILIN URBAN ENVIRONMENT IMPROVEMENT PROJECT", "approvalYear": "2008", "sectors": ["Water supply and other urban infrastructure and services"], "locationName": "Changchun"}}, {"geometry": {"type": "Point", "coordinates": [102.81853, 25.29437]}, "id": "1263", "type": "Feature", "properties": {"id": "46004-40052-013-LN2388", "status": "Completion", "title": "KUNMING QINGSHUIHAI WATER SUPPLY PROJECT", "approvalYear": "2008", "sectors": ["Water supply and other urban infrastructure and services"], "locationName": "Kunming Shi"}}, {"geometry": {"type": "Point", "coordinates": [102.71833, 25.03889]}, "id": "1264", "type": "Feature", "properties": {"id": "46004-40052-013-LN2388", "status": "Completion", "title": "KUNMING QINGSHUIHAI WATER SUPPLY PROJECT", "approvalYear": "2008", "sectors": ["Water supply and other urban infrastructure and services"], "locationName": "Kunming"}}, {"geometry": {"type": "Point", "coordinates": [103.10722, 25.60167]}, "id": "1265", "type": "Feature", "properties": {"id": "46004-40052-013-LN2388", "status": "Completion", "title": "KUNMING QINGSHUIHAI WATER SUPPLY PROJECT", "approvalYear": "2008", "sectors": ["Water supply and other urban infrastructure and services"], "locationName": "Qingshui Hai"}}, {"geometry": {"type": "Point", "coordinates": [105.0, 35.0]}, "id": "1266", "type": "Feature", "properties": {"id": "46004-39153-023-LN2390", "status": "Implementation", "title": "RAILWAY SAFETY ENHANCEMENT PROJECT", "approvalYear": "2008", "sectors": ["Transport", "Information and communication technology"], "locationName": "China"}}, {"geometry": {"type": "Point", "coordinates": [84.24417, 41.77389]}, "id": "1267", "type": "Feature", "properties": {"id": "46004-39655-013-LN2393", "status": "Completion", "title": "XINJIANG REGIONAL ROAD IMPROVEMENT PROJ (KORLA-KUQA SECTION)", "approvalYear": "2008", "sectors": ["Transport", "Information and communication technology"], "locationName": "Luntai"}}, {"geometry": {"type": "Point", "coordinates": [82.93639, 41.72778]}, "id": "1268", "type": "Feature", "properties": {"id": "46004-39655-013-LN2393", "status": "Completion", "title": "XINJIANG REGIONAL ROAD IMPROVEMENT PROJ (KORLA-KUQA SECTION)", "approvalYear": "2008", "sectors": ["Transport", "Information and communication technology"], "locationName": "Kucha"}}, {"geometry": {"type": "Point", "coordinates": [86.15231, 41.76055]}, "id": "1269", "type": "Feature", "properties": {"id": "46004-39655-013-LN2393", "status": "Completion", "title": "XINJIANG REGIONAL ROAD IMPROVEMENT PROJ (KORLA-KUQA SECTION)", "approvalYear": "2008", "sectors": ["Transport", "Information and communication technology"], "locationName": "Korla"}}, {"geometry": {"type": "Point", "coordinates": [110.915, 34.52611]}, "id": "1270", "type": "Feature", "properties": {"id": "46004-38662-023-LN2395", "status": "Implementation", "title": "HENAN SUSTAINABLE AGRICULTURAL AND PRODUCTIVITY IMPROVEMENT PROJ", "approvalYear": "2008", "sectors": ["Agriculture, natural resources and rural development"], "locationName": "Sanmenxia Shi"}}, {"geometry": {"type": "Point", "coordinates": [104.17023, 36.54696]}, "id": "1271", "type": "Feature", "properties": {"id": "46004-40051-013-LN2407", "status": "Completion", "title": "GANSU BAIYIN URBAN DEVELOPMENT PROJECT", "approvalYear": "2008", "sectors": ["Water supply and other urban infrastructure and services"], "locationName": "Baiyin"}}, {"geometry": {"type": "Point", "coordinates": [81.51804, 43.97799]}, "id": "1272", "type": "Feature", "properties": {"id": "46004-39228-033-LN2420", "status": "Completion", "title": "XINJIANG MUNICIPAL INFRASTRUCTURE & ENVIRONMENTAL IMPROVEMENT PRO", "approvalYear": "2008", "sectors": ["Water supply and other urban infrastructure and services"], "locationName": "Yining"}}, {"geometry": {"type": "Point", "coordinates": [87.03333, 48.81667]}, "id": "1273", "type": "Feature", "properties": {"id": "46004-39228-033-LN2420", "status": "Completion", "title": "XINJIANG MUNICIPAL INFRASTRUCTURE & ENVIRONMENTAL IMPROVEMENT PRO", "approvalYear": "2008", "sectors": ["Water supply and other urban infrastructure and services"], "locationName": "Kanas Lake"}}, {"geometry": {"type": "Point", "coordinates": [115.93333, 38.91667]}, "id": "1274", "type": "Feature", "properties": {"id": "46004-36437-013-LN2428", "status": "Implementation", "title": "INTEGRATED ECOSYSTEM & WATER RESOURCES MGT IN BAIYANGDIAN BASIN P", "approvalYear": "2008", "sectors": ["Agriculture, natural resources and rural development"], "locationName": "Anxin Xian"}}, {"geometry": {"type": "Point", "coordinates": [115.21528, 39.28361]}, "id": "1275", "type": "Feature", "properties": {"id": "46004-36437-013-LN2428", "status": "Implementation", "title": "INTEGRATED ECOSYSTEM & WATER RESOURCES MGT IN BAIYANGDIAN BASIN P", "approvalYear": "2008", "sectors": ["Agriculture, natural resources and rural development"], "locationName": "Angezhuang Shuiku"}}, {"geometry": {"type": "Point", "coordinates": [115.48333, 39.35]}, "id": "1276", "type": "Feature", "properties": {"id": "46004-36437-013-LN2428", "status": "Implementation", "title": "INTEGRATED ECOSYSTEM & WATER RESOURCES MGT IN BAIYANGDIAN BASIN P", "approvalYear": "2008", "sectors": ["Agriculture, natural resources and rural development"], "locationName": "Yi Xian"}}, {"geometry": {"type": "Point", "coordinates": [115.65, 39.01667]}, "id": "1277", "type": "Feature", "properties": {"id": "46004-36437-013-LN2428", "status": "Implementation", "title": "INTEGRATED ECOSYSTEM & WATER RESOURCES MGT IN BAIYANGDIAN BASIN P", "approvalYear": "2008", "sectors": ["Agriculture, natural resources and rural development"], "locationName": "Xushui Xian"}}, {"geometry": {"type": "Point", "coordinates": [115.63361, 38.5575]}, "id": "1278", "type": "Feature", "properties": {"id": "46004-36437-013-LN2428", "status": "Implementation", "title": "INTEGRATED ECOSYSTEM & WATER RESOURCES MGT IN BAIYANGDIAN BASIN P", "approvalYear": "2008", "sectors": ["Agriculture, natural resources and rural development"], "locationName": "Xinxing"}}, {"geometry": {"type": "Point", "coordinates": [114.42749, 38.78557]}, "id": "1279", "type": "Feature", "properties": {"id": "46004-36437-013-LN2428", "status": "Implementation", "title": "INTEGRATED ECOSYSTEM & WATER RESOURCES MGT IN BAIYANGDIAN BASIN P", "approvalYear": "2008", "sectors": ["Agriculture, natural resources and rural development"], "locationName": "Wangkuai"}}, {"geometry": {"type": "Point", "coordinates": [114.96861, 38.73972]}, "id": "1280", "type": "Feature", "properties": {"id": "46004-36437-013-LN2428", "status": "Implementation", "title": "INTEGRATED ECOSYSTEM & WATER RESOURCES MGT IN BAIYANGDIAN BASIN P", "approvalYear": "2008", "sectors": ["Agriculture, natural resources and rural development"], "locationName": "Tang Xian"}}, {"geometry": {"type": "Point", "coordinates": [115.33333, 38.95]}, "id": "1281", "type": "Feature", "properties": {"id": "46004-36437-013-LN2428", "status": "Implementation", "title": "INTEGRATED ECOSYSTEM & WATER RESOURCES MGT IN BAIYANGDIAN BASIN P", "approvalYear": "2008", "sectors": ["Agriculture, natural resources and rural development"], "locationName": "Mancheng Xian"}}, {"geometry": {"type": "Point", "coordinates": [115.56667, 38.48333]}, "id": "1282", "type": "Feature", "properties": {"id": "46004-36437-013-LN2428", "status": "Implementation", "title": "INTEGRATED ECOSYSTEM & WATER RESOURCES MGT IN BAIYANGDIAN BASIN P", "approvalYear": "2008", "sectors": ["Agriculture, natural resources and rural development"], "locationName": "Li Xian"}}, {"geometry": {"type": "Point", "coordinates": [115.73778, 38.53389]}, "id": "1283", "type": "Feature", "properties": {"id": "46004-36437-013-LN2428", "status": "Implementation", "title": "INTEGRATED ECOSYSTEM & WATER RESOURCES MGT IN BAIYANGDIAN BASIN P", "approvalYear": "2008", "sectors": ["Agriculture, natural resources and rural development"], "locationName": "Liushi"}}, {"geometry": {"type": "Point", "coordinates": [114.99556, 38.51306]}, "id": "1284", "type": "Feature", "properties": {"id": "46004-36437-013-LN2428", "status": "Implementation", "title": "INTEGRATED ECOSYSTEM & WATER RESOURCES MGT IN BAIYANGDIAN BASIN P", "approvalYear": "2008", "sectors": ["Agriculture, natural resources and rural development"], "locationName": "Dingzhou"}}, {"geometry": {"type": "Point", "coordinates": [115.76667, 39.28333]}, "id": "1285", "type": "Feature", "properties": {"id": "46004-36437-013-LN2428", "status": "Implementation", "title": "INTEGRATED ECOSYSTEM & WATER RESOURCES MGT IN BAIYANGDIAN BASIN P", "approvalYear": "2008", "sectors": ["Agriculture, natural resources and rural development"], "locationName": "Dingxing Xian"}}, {"geometry": {"type": "Point", "coordinates": [115.48333, 38.86667]}, "id": "1286", "type": "Feature", "properties": {"id": "46004-36437-013-LN2428", "status": "Implementation", "title": "INTEGRATED ECOSYSTEM & WATER RESOURCES MGT IN BAIYANGDIAN BASIN P", "approvalYear": "2008", "sectors": ["Agriculture, natural resources and rural development"], "locationName": "Baoding Shi"}}, {"geometry": {"type": "Point", "coordinates": [116.01806, 38.89278]}, "id": "1287", "type": "Feature", "properties": {"id": "46004-36437-013-LN2428", "status": "Implementation", "title": "INTEGRATED ECOSYSTEM & WATER RESOURCES MGT IN BAIYANGDIAN BASIN P", "approvalYear": "2008", "sectors": ["Agriculture, natural resources and rural development"], "locationName": "Baiyangdian Lake"}}, {"geometry": {"type": "Point", "coordinates": [116.01333, 39.10889]}, "id": "1288", "type": "Feature", "properties": {"id": "46004-36437-013-LN2428", "status": "Implementation", "title": "INTEGRATED ECOSYSTEM & WATER RESOURCES MGT IN BAIYANGDIAN BASIN P", "approvalYear": "2008", "sectors": ["Agriculture, natural resources and rural development"], "locationName": "Baigou"}}, {"geometry": {"type": "Point", "coordinates": [106.0893, 38.27662]}, "id": "1289", "type": "Feature", "properties": {"id": "46004-38660-023-LN2436", "status": "Implementation", "title": "NINGXIA INTEGRATED ECOSYSTEM & AGRICULTURAL DEVT PROJECT", "approvalYear": "2009", "sectors": ["Agriculture, natural resources and rural development"], "locationName": "Yongning Xian"}}, {"geometry": {"type": "Point", "coordinates": [106.31667, 38.46667]}, "id": "1290", "type": "Feature", "properties": {"id": "46004-38660-023-LN2436", "status": "Implementation", "title": "NINGXIA INTEGRATED ECOSYSTEM & AGRICULTURAL DEVT PROJECT", "approvalYear": "2009", "sectors": ["Agriculture, natural resources and rural development"], "locationName": "Yinchuan Shi"}}, {"geometry": {"type": "Point", "coordinates": [106.28108, 38.71573]}, "id": "1291", "type": "Feature", "properties": {"id": "46004-38660-023-LN2436", "status": "Implementation", "title": "NINGXIA INTEGRATED ECOSYSTEM & AGRICULTURAL DEVT PROJECT", "approvalYear": "2009", "sectors": ["Agriculture, natural resources and rural development"], "locationName": "Helan Xian"}}, {"geometry": {"type": "Point", "coordinates": [106.1397, 38.49193]}, "id": "1292", "type": "Feature", "properties": {"id": "46004-38660-023-LN2436", "status": "Implementation", "title": "NINGXIA INTEGRATED ECOSYSTEM & AGRICULTURAL DEVT PROJECT", "approvalYear": "2009", "sectors": ["Agriculture, natural resources and rural development"], "locationName": "Xixia Qu"}}, {"geometry": {"type": "Point", "coordinates": [106.24021, 38.47477]}, "id": "1293", "type": "Feature", "properties": {"id": "46004-38660-023-LN2436", "status": "Implementation", "title": "NINGXIA INTEGRATED ECOSYSTEM & AGRICULTURAL DEVT PROJECT", "approvalYear": "2009", "sectors": ["Agriculture, natural resources and rural development"], "locationName": "Jinfeng Qu"}}, {"geometry": {"type": "Point", "coordinates": [106.28679, 38.4854]}, "id": "1294", "type": "Feature", "properties": {"id": "46004-38660-023-LN2436", "status": "Implementation", "title": "NINGXIA INTEGRATED ECOSYSTEM & AGRICULTURAL DEVT PROJECT", "approvalYear": "2009", "sectors": ["Agriculture, natural resources and rural development"], "locationName": "Xingqing Qu"}}, {"geometry": {"type": "Point", "coordinates": [102.0, 25.0]}, "id": "1295", "type": "Feature", "properties": {"id": "46004-36455-013-LN2448", "status": "Completion", "title": "CENTRAL YUNNAN ROADS DEVELOPMENT PROJECT", "approvalYear": "2009", "sectors": ["Transport", "Information and communication technology"], "locationName": "Yunnan"}}, {"geometry": {"type": "Point", "coordinates": [102.17361, 25.67986]}, "id": "1296", "type": "Feature", "properties": {"id": "46004-36455-013-LN2448", "status": "Completion", "title": "CENTRAL YUNNAN ROADS DEVELOPMENT PROJECT", "approvalYear": "2009", "sectors": ["Transport", "Information and communication technology"], "locationName": "Wuding Xian"}}, {"geometry": {"type": "Point", "coordinates": [102.81853, 25.29437]}, "id": "1297", "type": "Feature", "properties": {"id": "46004-36455-013-LN2448", "status": "Completion", "title": "CENTRAL YUNNAN ROADS DEVELOPMENT PROJECT", "approvalYear": "2009", "sectors": ["Transport", "Information and communication technology"], "locationName": "Kunming Shi"}}, {"geometry": {"type": "Point", "coordinates": [102.71833, 25.03889]}, "id": "1298", "type": "Feature", "properties": {"id": "46004-36455-013-LN2448", "status": "Completion", "title": "CENTRAL YUNNAN ROADS DEVELOPMENT PROJECT", "approvalYear": "2009", "sectors": ["Transport", "Information and communication technology"], "locationName": "Kunming"}}, {"geometry": {"type": "Point", "coordinates": [102.19333, 25.60472]}, "id": "1299", "type": "Feature", "properties": {"id": "46004-36455-013-LN2448", "status": "Completion", "title": "CENTRAL YUNNAN ROADS DEVELOPMENT PROJECT", "approvalYear": "2009", "sectors": ["Transport", "Information and communication technology"], "locationName": "Gaoqiao"}}, {"geometry": {"type": "Point", "coordinates": [102.48511, 25.28848]}, "id": "1300", "type": "Feature", "properties": {"id": "46004-36455-013-LN2448", "status": "Completion", "title": "CENTRAL YUNNAN ROADS DEVELOPMENT PROJECT", "approvalYear": "2009", "sectors": ["Transport", "Information and communication technology"], "locationName": "Fumin Xian"}}, {"geometry": {"type": "Point", "coordinates": [102.08611, 25.90472]}, "id": "1301", "type": "Feature", "properties": {"id": "46004-36455-013-LN2448", "status": "Completion", "title": "CENTRAL YUNNAN ROADS DEVELOPMENT PROJECT", "approvalYear": "2009", "sectors": ["Transport", "Information and communication technology"], "locationName": "Dongpo"}}, {"geometry": {"type": "Point", "coordinates": [101.70479, 25.43204]}, "id": "1302", "type": "Feature", "properties": {"id": "46004-36455-013-LN2448", "status": "Completion", "title": "CENTRAL YUNNAN ROADS DEVELOPMENT PROJECT", "approvalYear": "2009", "sectors": ["Transport", "Information and communication technology"], "locationName": "Chuxiong Yizu Zizhizhou"}}, {"geometry": {"type": "Point", "coordinates": [102.59541, 24.90226]}, "id": "1303", "type": "Feature", "properties": {"id": "46004-36455-013-LN2448", "status": "Completion", "title": "CENTRAL YUNNAN ROADS DEVELOPMENT PROJECT", "approvalYear": "2009", "sectors": ["Transport", "Information and communication technology"], "locationName": "Tuomu"}}, {"geometry": {"type": "Point", "coordinates": [102.61803, 24.93272]}, "id": "1304", "type": "Feature", "properties": {"id": "46004-36455-013-LN2448", "status": "Completion", "title": "CENTRAL YUNNAN ROADS DEVELOPMENT PROJECT", "approvalYear": "2009", "sectors": ["Transport", "Information and communication technology"], "locationName": "Maomaoqing"}}, {"geometry": {"type": "Point", "coordinates": [96.0, 36.0]}, "id": "1305", "type": "Feature", "properties": {"id": "46004-35354-013-LN2471", "status": "Implementation", "title": "LANZHOU-CHONGQING RAILWAY DEVELOPMENT PROJECT", "approvalYear": "2009", "sectors": ["Transport", "Information and communication technology"], "locationName": "Qinghai Sheng"}}, {"geometry": {"type": "Point", "coordinates": [102.0, 25.0]}, "id": "1306", "type": "Feature", "properties": {"id": "46004-35354-013-LN2471", "status": "Implementation", "title": "LANZHOU-CHONGQING RAILWAY DEVELOPMENT PROJECT", "approvalYear": "2009", "sectors": ["Transport", "Information and communication technology"], "locationName": "Yunnan"}}, {"geometry": {"type": "Point", "coordinates": [111.05372, 35.21804]}, "id": "1307", "type": "Feature", "properties": {"id": "46004-35354-013-LN2471", "status": "Implementation", "title": "LANZHOU-CHONGQING RAILWAY DEVELOPMENT PROJECT", "approvalYear": "2009", "sectors": ["Transport", "Information and communication technology"], "locationName": "Yuncheng Shi"}}, {"geometry": {"type": "Point", "coordinates": [106.27306, 38.46806]}, "id": "1308", "type": "Feature", "properties": {"id": "46004-35354-013-LN2471", "status": "Implementation", "title": "LANZHOU-CHONGQING RAILWAY DEVELOPMENT PROJECT", "approvalYear": "2009", "sectors": ["Transport", "Information and communication technology"], "locationName": "Yinchuan"}}, {"geometry": {"type": "Point", "coordinates": [111.1629, 35.60787]},