{"type": "FeatureCollection", "id": "GE", "features": [{"geometry": {"type": "Point", "coordinates": [42.72611, 42.78556]}, "id": "1963", "type": "Feature", "properties": {"id": "46004-41198-013-LN2441", "status": "Completion", "title": "MUNICIPAL SERVICES DEVELOPMENT PROJECT", "approvalYear": "2008", "sectors": ["Water supply and other urban infrastructure and services"], "locationName": "Lentekhi"}}, {"geometry": {"type": "Point", "coordinates": [43.4425, 42.57944]}, "id": "1964", "type": "Feature", "properties": {"id": "46004-41198-013-LN2441", "status": "Completion", "title": "MUNICIPAL SERVICES DEVELOPMENT PROJECT", "approvalYear": "2008", "sectors": ["Water supply and other urban infrastructure and services"], "locationName": "Oni"}}, {"geometry": {"type": "Point", "coordinates": [42.755, 42.60611]}, "id": "1965", "type": "Feature", "properties": {"id": "46004-41198-013-LN2441", "status": "Completion", "title": "MUNICIPAL SERVICES DEVELOPMENT PROJECT", "approvalYear": "2008", "sectors": ["Water supply and other urban infrastructure and services"], "locationName": "Tsagheri"}}, {"geometry": {"type": "Point", "coordinates": [42.2, 42.2]}, "id": "1966", "type": "Feature", "properties": {"id": "46004-41198-013-LN2441", "status": "Completion", "title": "MUNICIPAL SERVICES DEVELOPMENT PROJECT", "approvalYear": "2008", "sectors": ["Water supply and other urban infrastructure and services"], "locationName": "Abacha"}}, {"geometry": {"type": "Point", "coordinates": [41.8, 42.25]}, "id": "1967", "type": "Feature", "properties": {"id": "46004-41198-013-LN2441", "status": "Completion", "title": "MUNICIPAL SERVICES DEVELOPMENT PROJECT", "approvalYear": "2008", "sectors": ["Water supply and other urban infrastructure and services"], "locationName": "Khobi"}}, {"geometry": {"type": "Point", "coordinates": [42.37988, 42.47125]}, "id": "1968", "type": "Feature", "properties": {"id": "46004-41198-013-LN2441", "status": "Completion", "title": "MUNICIPAL SERVICES DEVELOPMENT PROJECT", "approvalYear": "2008", "sectors": ["Water supply and other urban infrastructure and services"], "locationName": "Martvili"}}, {"geometry": {"type": "Point", "coordinates": [42.75, 43.0]}, "id": "1969", "type": "Feature", "properties": {"id": "46004-41198-013-LN2441", "status": "Completion", "title": "MUNICIPAL SERVICES DEVELOPMENT PROJECT", "approvalYear": "2008", "sectors": ["Water supply and other urban infrastructure and services"], "locationName": "Mestia"}}, {"geometry": {"type": "Point", "coordinates": [42.12917, 42.51028]}, "id": "1970", "type": "Feature", "properties": {"id": "46004-41198-013-LN2441", "status": "Completion", "title": "MUNICIPAL SERVICES DEVELOPMENT PROJECT", "approvalYear": "2008", "sectors": ["Water supply and other urban infrastructure and services"], "locationName": "Tchkhorotsku"}}, {"geometry": {"type": "Point", "coordinates": [42.052, 42.71692]}, "id": "1971", "type": "Feature", "properties": {"id": "46004-41198-013-LN2441", "status": "Completion", "title": "MUNICIPAL SERVICES DEVELOPMENT PROJECT", "approvalYear": "2008", "sectors": ["Water supply and other urban infrastructure and services"], "locationName": "Tsalendjikha"}}, {"geometry": {"type": "Point", "coordinates": [42.0675, 42.27042]}, "id": "1972", "type": "Feature", "properties": {"id": "46004-41198-013-LN2441", "status": "Completion", "title": "MUNICIPAL SERVICES DEVELOPMENT PROJECT", "approvalYear": "2008", "sectors": ["Water supply and other urban infrastructure and services"], "locationName": "Tskhakaia"}}, {"geometry": {"type": "Point", "coordinates": [41.7983, 42.46743]}, "id": "1973", "type": "Feature", "properties": {"id": "46004-41198-013-LN2441", "status": "Completion", "title": "MUNICIPAL SERVICES DEVELOPMENT PROJECT", "approvalYear": "2008", "sectors": ["Water supply and other urban infrastructure and services"], "locationName": "Zygdidi"}}, {"geometry": {"type": "Point", "coordinates": [44.60805, 41.96235]}, "id": "1974", "type": "Feature", "properties": {"id": "46004-41198-013-LN2441", "status": "Completion", "title": "MUNICIPAL SERVICES DEVELOPMENT PROJECT", "approvalYear": "2008", "sectors": ["Water supply and other urban infrastructure and services"], "locationName": "Mtskheta"}}, {"geometry": {"type": "Point", "coordinates": [44.96389, 42.10833]}, "id": "1975", "type": "Feature", "properties": {"id": "46004-41198-013-LN2441", "status": "Completion", "title": "MUNICIPAL SERVICES DEVELOPMENT PROJECT", "approvalYear": "2008", "sectors": ["Water supply and other urban infrastructure and services"], "locationName": "Tianeti"}}, {"geometry": {"type": "Point", "coordinates": [43.16222, 42.52111]}, "id": "1976", "type": "Feature", "properties": {"id": "46004-41198-013-LN2441", "status": "Completion", "title": "MUNICIPAL SERVICES DEVELOPMENT PROJECT", "approvalYear": "2008", "sectors": ["Water supply and other urban infrastructure and services"], "locationName": "Ambrolauri"}}, {"geometry": {"type": "Point", "coordinates": [43.48629, 41.40514]}, "id": "1977", "type": "Feature", "properties": {"id": "46004-41198-013-LN2441", "status": "Completion", "title": "MUNICIPAL SERVICES DEVELOPMENT PROJECT", "approvalYear": "2008", "sectors": ["Water supply and other urban infrastructure and services"], "locationName": "Akhalkalaki"}}, {"geometry": {"type": "Point", "coordinates": [42.98262, 41.63901]}, "id": "1978", "type": "Feature", "properties": {"id": "46004-41198-013-LN2441", "status": "Completion", "title": "MUNICIPAL SERVICES DEVELOPMENT PROJECT", "approvalYear": "2008", "sectors": ["Water supply and other urban infrastructure and services"], "locationName": "Akhaltsikhe"}}, {"geometry": {"type": "Point", "coordinates": [43.41284, 41.85272]}, "id": "1979", "type": "Feature", "properties": {"id": "46004-41198-013-LN2441", "status": "Completion", "title": "MUNICIPAL SERVICES DEVELOPMENT PROJECT", "approvalYear": "2008", "sectors": ["Water supply and other urban infrastructure and services"], "locationName": "Borjomi"}}, {"geometry": {"type": "Point", "coordinates": [43.90156, 42.08463]}, "id": "1980", "type": "Feature", "properties": {"id": "46004-41198-013-LN2441", "status": "Completion", "title": "MUNICIPAL SERVICES DEVELOPMENT PROJECT", "approvalYear": "2008", "sectors": ["Water supply and other urban infrastructure and services"], "locationName": "Kareli"}}, {"geometry": {"type": "Point", "coordinates": [44.42568, 41.9252]}, "id": "1981", "type": "Feature", "properties": {"id": "46004-41198-013-LN2441", "status": "Completion", "title": "MUNICIPAL SERVICES DEVELOPMENT PROJECT", "approvalYear": "2008", "sectors": ["Water supply and other urban infrastructure and services"], "locationName": "Kaspi"}}, {"geometry": {"type": "Point", "coordinates": [41.63593, 41.64159]}, "id": "1982", "type": "Feature", "properties": {"id": "46004-41198-013-LN2441", "status": "Completion", "title": "MUNICIPAL SERVICES DEVELOPMENT PROJECT", "approvalYear": "2008", "sectors": ["Water supply and other urban infrastructure and services"], "locationName": "Batumi"}}, {"geometry": {"type": "Point", "coordinates": [41.66889, 41.58556]}, "id": "1983", "type": "Feature", "properties": {"id": "46004-41198-013-LN2441", "status": "Completion", "title": "MUNICIPAL SERVICES DEVELOPMENT PROJECT", "approvalYear": "2008", "sectors": ["Water supply and other urban infrastructure and services"], "locationName": "Khelvatshauri"}}, {"geometry": {"type": "Point", "coordinates": [41.83333, 41.75]}, "id": "1984", "type": "Feature", "properties": {"id": "46004-41198-013-LN2441", "status": "Completion", "title": "MUNICIPAL SERVICES DEVELOPMENT PROJECT", "approvalYear": "2008", "sectors": ["Water supply and other urban infrastructure and services"], "locationName": "Kobouleti"}}, {"geometry": {"type": "Point", "coordinates": [42.04488, 42.08982]}, "id": "1985", "type": "Feature", "properties": {"id": "46004-41198-013-LN2441", "status": "Completion", "title": "MUNICIPAL SERVICES DEVELOPMENT PROJECT", "approvalYear": "2008", "sectors": ["Water supply and other urban infrastructure and services"], "locationName": "Lantchkhuti"}}, {"geometry": {"type": "Point", "coordinates": [42.08333, 41.95]}, "id": "1986", "type": "Feature", "properties": {"id": "46004-41198-013-LN2441", "status": "Completion", "title": "MUNICIPAL SERVICES DEVELOPMENT PROJECT", "approvalYear": "2008", "sectors": ["Water supply and other urban infrastructure and services"], "locationName": "Ozurgeti"}}, {"geometry": {"type": "Point", "coordinates": [42.2435, 42.01869]}, "id": "1987", "type": "Feature", "properties": {"id": "46004-41198-013-LN2441", "status": "Completion", "title": "MUNICIPAL SERVICES DEVELOPMENT PROJECT", "approvalYear": "2008", "sectors": ["Water supply and other urban infrastructure and services"], "locationName": "Tchokhatauri"}}, {"geometry": {"type": "Point", "coordinates": [42.82505, 42.06943]}, "id": "1988", "type": "Feature", "properties": {"id": "46004-41198-013-LN2441", "status": "Completion", "title": "MUNICIPAL SERVICES DEVELOPMENT PROJECT", "approvalYear": "2008", "sectors": ["Water supply and other urban infrastructure and services"], "locationName": "Bagdadi"}}, {"geometry": {"type": "Point", "coordinates": [43.25, 42.0]}, "id": "1989", "type": "Feature", "properties": {"id": "46004-41198-013-LN2441", "status": "Completion", "title": "MUNICIPAL SERVICES DEVELOPMENT PROJECT", "approvalYear": "2008", "sectors": ["Water supply and other urban infrastructure and services"], "locationName": "Kharagauli"}}, {"geometry": {"type": "Point", "coordinates": [42.56528, 42.4275]}, "id": "1990", "type": "Feature", "properties": {"id": "46004-41198-013-LN2441", "status": "Completion", "title": "MUNICIPAL SERVICES DEVELOPMENT PROJECT", "approvalYear": "2008", "sectors": ["Water supply and other urban infrastructure and services"], "locationName": "Khoni"}}, {"geometry": {"type": "Point", "coordinates": [42.9, 42.21667]}, "id": "1991", "type": "Feature", "properties": {"id": "46004-41198-013-LN2441", "status": "Completion", "title": "MUNICIPAL SERVICES DEVELOPMENT PROJECT", "approvalYear": "2008", "sectors": ["Water supply and other urban infrastructure and services"], "locationName": "Terdjola"}}, {"geometry": {"type": "Point", "coordinates": [42.98538, 42.33824]}, "id": "1992", "type": "Feature", "properties": {"id": "46004-41198-013-LN2441", "status": "Completion", "title": "MUNICIPAL SERVICES DEVELOPMENT PROJECT", "approvalYear": "2008", "sectors": ["Water supply and other urban infrastructure and services"], "locationName": "Tkibuli"}}, {"geometry": {"type": "Point", "coordinates": [43.25, 42.28333]}, "id": "1993", "type": "Feature", "properties": {"id": "46004-41198-013-LN2441", "status": "Completion", "title": "MUNICIPAL SERVICES DEVELOPMENT PROJECT", "approvalYear": "2008", "sectors": ["Water supply and other urban infrastructure and services"], "locationName": "Tshiatura"}}, {"geometry": {"type": "Point", "coordinates": [42.52163, 42.0832]}, "id": "1994", "type": "Feature", "properties": {"id": "46004-41198-013-LN2441", "status": "Completion", "title": "MUNICIPAL SERVICES DEVELOPMENT PROJECT", "approvalYear": "2008", "sectors": ["Water supply and other urban infrastructure and services"], "locationName": "Vani"}}, {"geometry": {"type": "Point", "coordinates": [45.33333, 42.25]}, "id": "1995", "type": "Feature", "properties": {"id": "46004-41198-013-LN2441", "status": "Completion", "title": "MUNICIPAL SERVICES DEVELOPMENT PROJECT", "approvalYear": "2008", "sectors": ["Water supply and other urban infrastructure and services"], "locationName": "Akhmeta"}}, {"geometry": {"type": "Point", "coordinates": [46.10528, 41.46556]}, "id": "1996", "type": "Feature", "properties": {"id": "46004-41198-013-LN2441", "status": "Completion", "title": "MUNICIPAL SERVICES DEVELOPMENT PROJECT", "approvalYear": "2008", "sectors": ["Water supply and other urban infrastructure and services"], "locationName": "Dedoplistskaro"}}, {"geometry": {"type": "Point", "coordinates": [45.8, 41.75]}, "id": "1997", "type": "Feature", "properties": {"id": "46004-41198-013-LN2441", "status": "Completion", "title": "MUNICIPAL SERVICES DEVELOPMENT PROJECT", "approvalYear": "2008", "sectors": ["Water supply and other urban infrastructure and services"], "locationName": "Gurdjaani"}}, {"geometry": {"type": "Point", "coordinates": [45.81716, 41.95493]}, "id": "1998", "type": "Feature", "properties": {"id": "46004-41198-013-LN2441", "status": "Completion", "title": "MUNICIPAL SERVICES DEVELOPMENT PROJECT", "approvalYear": "2008", "sectors": ["Water supply and other urban infrastructure and services"], "locationName": "Kvareli"}}, {"geometry": {"type": "Point", "coordinates": [46.16667, 41.83333]}, "id": "1999", "type": "Feature", "properties": {"id": "46004-41198-013-LN2441", "status": "Completion", "title": "MUNICIPAL SERVICES DEVELOPMENT PROJECT", "approvalYear": "2008", "sectors": ["Water supply and other urban infrastructure and services"], "locationName": "Lagodekhi"}}, {"geometry": {"type": "Point", "coordinates": [45.3241, 41.73494]}, "id": "2000", "type": "Feature", "properties": {"id": "46004-41198-013-LN2441", "status": "Completion", "title": "MUNICIPAL SERVICES DEVELOPMENT PROJECT", "approvalYear": "2008", "sectors": ["Water supply and other urban infrastructure and services"], "locationName": "Sagaredjo"}}, {"geometry": {"type": "Point", "coordinates": [45.87611, 41.55306]}, "id": "2001", "type": "Feature", "properties": {"id": "46004-41198-013-LN2441", "status": "Completion", "title": "MUNICIPAL SERVICES DEVELOPMENT PROJECT", "approvalYear": "2008", "sectors": ["Water supply and other urban infrastructure and services"], "locationName": "Signakhi"}}, {"geometry": {"type": "Point", "coordinates": [45.48333, 41.91667]}, "id": "2002", "type": "Feature", "properties": {"id": "46004-41198-013-LN2441", "status": "Completion", "title": "MUNICIPAL SERVICES DEVELOPMENT PROJECT", "approvalYear": "2008", "sectors": ["Water supply and other urban infrastructure and services"], "locationName": "Telavi"}}, {"geometry": {"type": "Point", "coordinates": [44.2, 41.32]}, "id": "2003", "type": "Feature", "properties": {"id": "46004-41198-013-LN2441", "status": "Completion", "title": "MUNICIPAL SERVICES DEVELOPMENT PROJECT", "approvalYear": "2008", "sectors": ["Water supply and other urban infrastructure and services"], "locationName": "Dmanisi"}}, {"geometry": {"type": "Point", "coordinates": [45.09283, 41.46054]}, "id": "2004", "type": "Feature", "properties": {"id": "46004-41198-013-LN2441", "status": "Completion", "title": "MUNICIPAL SERVICES DEVELOPMENT PROJECT", "approvalYear": "2008", "sectors": ["Water supply and other urban infrastructure and services"], "locationName": "Gardabani"}}, {"geometry": {"type": "Point", "coordinates": [45.0, 41.53333]}, "id": "2005", "type": "Feature", "properties": {"id": "46004-41198-013-LN2441", "status": "Completion", "title": "MUNICIPAL SERVICES DEVELOPMENT PROJECT", "approvalYear": "2008", "sectors": ["Water supply and other urban infrastructure and services"], "locationName": "Roustavi"}}, {"geometry": {"type": "Point", "coordinates": [44.38448, 41.69698]}, "id": "2006", "type": "Feature", "properties": {"id": "46004-41198-013-LN2441", "status": "Completion", "title": "MUNICIPAL SERVICES DEVELOPMENT PROJECT", "approvalYear": "2008", "sectors": ["Water supply and other urban infrastructure and services"], "locationName": "Tetritskaro"}}, {"geometry": {"type": "Point", "coordinates": [44.7, 42.08333]}, "id": "2007", "type": "Feature", "properties": {"id": "46004-41198-013-LN2441", "status": "Completion", "title": "MUNICIPAL SERVICES DEVELOPMENT PROJECT", "approvalYear": "2008", "sectors": ["Water supply and other urban infrastructure and services"], "locationName": "Ducheti"}}, {"geometry": {"type": "Point", "coordinates": [44.66339, 42.58756]}, "id": "2008", "type": "Feature", "properties": {"id": "46004-41198-013-LN2441", "status": "Completion", "title": "MUNICIPAL SERVICES DEVELOPMENT PROJECT", "approvalYear": "2008", "sectors": ["Water supply and other urban infrastructure and services"], "locationName": "Kazbegui"}}, {"geometry": {"type": "Point", "coordinates": [44.83368, 41.69411]}, "id": "2009", "type": "Feature", "properties": {"id": "46004-43171-013-LN2534", "status": "Completion", "title": "MUNICIPAL SERVICES DEVELOPMENT PROJECT - PHASE 2", "approvalYear": "2009", "sectors": ["Water supply and other urban infrastructure and services"], "locationName": "Tbilisi"}}, {"geometry": {"type": "Point", "coordinates": [42.19083, 41.63]}, "id": "2010", "type": "Feature", "properties": {"id": "46004-43171-013-LN2534", "status": "Completion", "title": "MUNICIPAL SERVICES DEVELOPMENT PROJECT - PHASE 2", "approvalYear": "2009", "sectors": ["Water supply and other urban infrastructure and services"], "locationName": "Shuakhevi"}}, {"geometry": {"type": "Point", "coordinates": [43.4425, 42.57944]}, "id": "2011", "type": "Feature", "properties": {"id": "46004-43171-013-LN2534", "status": "Completion", "title": "MUNICIPAL SERVICES DEVELOPMENT PROJECT - PHASE 2", "approvalYear": "2009", "sectors": ["Water supply and other urban infrastructure and services"], "locationName": "Oni"}}, {"geometry": {"type": "Point", "coordinates": [41.94139, 41.59694]}, "id": "2012", "type": "Feature", "properties": {"id": "46004-43171-013-LN2534", "status": "Completion", "title": "MUNICIPAL SERVICES DEVELOPMENT PROJECT - PHASE 2", "approvalYear": "2009", "sectors": ["Water supply and other urban infrastructure and services"], "locationName": "K'eda"}}, {"geometry": {"type": "Point", "coordinates": [41.83333, 41.75]}, "id": "2013", "type": "Feature", "properties": {"id": "46004-41122-023-LN2560", "status": "Implementation", "title": "MFF-ROAD CORRIDOR INVESTMENT PROGRAM - PROJECT 1", "approvalYear": "2009", "sectors": ["Transport"], "locationName": "Kobuletis Raioni"}}, {"geometry": {"type": "Point", "coordinates": [41.77528, 41.82]}, "id": "2014", "type": "Feature", "properties": {"id": "46004-41122-023-LN2560", "status": "Implementation", "title": "MFF-ROAD CORRIDOR INVESTMENT PROGRAM - PROJECT 1", "approvalYear": "2009", "sectors": ["Transport"], "locationName": "K'obulet'i"}}, {"geometry": {"type": "Point", "coordinates": [41.63593, 41.64159]}, "id": "2015", "type": "Feature", "properties": {"id": "46004-41122-023-LN2560", "status": "Implementation", "title": "MFF-ROAD CORRIDOR INVESTMENT PROGRAM - PROJECT 1", "approvalYear": "2009", "sectors": ["Transport"], "locationName": "Batumi"}}, {"geometry": {"type": "Point", "coordinates": [42.0, 41.66667]}, "id": "2016", "type": "Feature", "properties": {"id": "46004-41122-023-LN2560", "status": "Implementation", "title": "MFF-ROAD CORRIDOR INVESTMENT PROGRAM - PROJECT 1", "approvalYear": "2009", "sectors": ["Transport"], "locationName": "Ajaria"}}, {"geometry": {"type": "Point", "coordinates": [41.7983, 42.46743]}, "id": "2017", "type": "Feature", "properties": {"id": "46004-42414-023-LN2655", "status": "Implementation", "title": "MFF:SUSTAINABLE URBAN TRANSPORT INVESTMENT PROGRAM - TRANCHE 1", "approvalYear": "2010", "sectors": ["Transport"], "locationName": "Zugdidi"}}, {"geometry": {"type": "Point", "coordinates": [41.87088, 42.5088]}, "id": "2018", "type": "Feature", "properties": {"id": "46004-42414-023-LN2655", "status": "Implementation", "title": "MFF:SUSTAINABLE URBAN TRANSPORT INVESTMENT PROGRAM - TRANCHE 1", "approvalYear": "2010", "sectors": ["Transport"], "locationName": "Zugdidi"}}, {"geometry": {"type": "Point", "coordinates": [44.83368, 41.69411]}, "id": "2019", "type": "Feature", "properties": {"id": "46004-42414-023-LN2655", "status": "Implementation", "title": "MFF:SUSTAINABLE URBAN TRANSPORT INVESTMENT PROGRAM - TRANCHE 1", "approvalYear": "2010", "sectors": ["Transport"], "locationName": "Tbilisi"}}, {"geometry": {"type": "Point", "coordinates": [44.99323, 41.54949]}, "id": "2020", "type": "Feature", "properties": {"id": "46004-42414-023-LN2655", "status": "Implementation", "title": "MFF:SUSTAINABLE URBAN TRANSPORT INVESTMENT PROGRAM - TRANCHE 1", "approvalYear": "2010", "sectors": ["Transport"], "locationName": "Rustavi"}}, {"geometry": {"type": "Point", "coordinates": [42.7278, 43.04581]}, "id": "2021", "type": "Feature", "properties": {"id": "46004-42414-023-LN2655", "status": "Implementation", "title": "MFF:SUSTAINABLE URBAN TRANSPORT INVESTMENT PROGRAM - TRANCHE 1", "approvalYear": "2010", "sectors": ["Transport"], "locationName": "Mestia"}}, {"geometry": {"type": "Point", "coordinates": [42.052, 42.71692]}, "id": "2022", "type": "Feature", "properties": {"id": "46004-42414-023-LN2655", "status": "Implementation", "title": "MFF:SUSTAINABLE URBAN TRANSPORT INVESTMENT PROGRAM - TRANCHE 1", "approvalYear": "2010", "sectors": ["Transport"], "locationName": "Jvari"}}, {"geometry": {"type": "Point", "coordinates": [41.58314, 42.39821]}, "id": "2023", "type": "Feature", "properties": {"id": "46004-42414-023-LN2655", "status": "Implementation", "title": "MFF:SUSTAINABLE URBAN TRANSPORT INVESTMENT PROGRAM - TRANCHE 1", "approvalYear": "2010", "sectors": ["Transport"], "locationName": "Anaklia"}}, {"geometry": {"type": "Point", "coordinates": [42.75, 43.0]}, "id": "2024", "type": "Feature", "properties": {"id": "46004-42414-023-LN2655", "status": "Implementation", "title": "MFF:SUSTAINABLE URBAN TRANSPORT INVESTMENT PROGRAM - TRANCHE 1", "approvalYear": "2010", "sectors": ["Transport"], "locationName": "Mestia"}}, {"geometry": {"type": "Point", "coordinates": [42.07695, 42.60566]}, "id": "2025", "type": "Feature", "properties": {"id": "46004-42414-023-LN2655", "status": "Implementation", "title": "MFF:SUSTAINABLE URBAN TRANSPORT INVESTMENT PROGRAM - TRANCHE 1", "approvalYear": "2010", "sectors": ["Transport"], "locationName": "Tsalenjikha"}}, {"geometry": {"type": "Point", "coordinates": [41.87088, 42.5088]}, "id": "2026", "type": "Feature", "properties": {"id": "46004-43405-023-LN2749", "status": "Implementation", "title": "MFF-URBAN SERVICES IMPROVEMENT INVESTMENT PROG-TRANCHE I", "approvalYear": "2011", "sectors": ["Water supply and other urban infrastructure and services"], "locationName": "Zugdidi"}}, {"geometry": {"type": "Point", "coordinates": [41.67197, 42.14616]}, "id": "2027", "type": "Feature", "properties": {"id": "46004-43405-023-LN2749", "status": "Implementation", "title": "MFF-URBAN SERVICES IMPROVEMENT INVESTMENT PROG-TRANCHE I", "approvalYear": "2011", "sectors": ["Water supply and other urban infrastructure and services"], "locationName": "P'ot'i"}}, {"geometry": {"type": "Point", "coordinates": [42.7278, 43.04581]}, "id": "2028", "type": "Feature", "properties": {"id": "46004-43405-023-LN2749", "status": "Implementation", "title": "MFF-URBAN SERVICES IMPROVEMENT INVESTMENT PROG-TRANCHE I", "approvalYear": "2011", "sectors": ["Water supply and other urban infrastructure and services"], "locationName": "Mestia"}}, {"geometry": {"type": "Point", "coordinates": [44.80894, 41.47588]}, "id": "2029", "type": "Feature", "properties": {"id": "46004-43405-023-LN2749", "status": "Implementation", "title": "MFF-URBAN SERVICES IMPROVEMENT INVESTMENT PROG-TRANCHE I", "approvalYear": "2011", "sectors": ["Water supply and other urban infrastructure and services"], "locationName": "Marneuli"}}, {"geometry": {"type": "Point", "coordinates": [42.69459, 42.26791]}, "id": "2030", "type": "Feature", "properties": {"id": "46004-43405-023-LN2749", "status": "Implementation", "title": "MFF-URBAN SERVICES IMPROVEMENT INVESTMENT PROG-TRANCHE I", "approvalYear": "2011", "sectors": ["Water supply and other urban infrastructure and services"], "locationName": "Kutaisi"}}, {"geometry": {"type": "Point", "coordinates": [41.58314, 42.39821]}, "id": "2031", "type": "Feature", "properties": {"id": "46004-43405-023-LN2749", "status": "Implementation", "title": "MFF-URBAN SERVICES IMPROVEMENT INVESTMENT PROG-TRANCHE I", "approvalYear": "2011", "sectors": ["Water supply and other urban infrastructure and services"], "locationName": "Anaklia"}}, {"geometry": {"type": "Point", "coordinates": [42.7278, 43.04581]}, "id": "2032", "type": "Feature", "properties": {"id": "46004-43405-024-LN2807", "status": "Implementation", "title": "URBAN SERVICES IMPROVEMENT INVESTMENT PROGRAM-TRANCHE 2", "approvalYear": "2011", "sectors": ["Water supply and other urban infrastructure and services"], "locationName": "Mestia"}}, {"geometry": {"type": "Point", "coordinates": [41.58314, 42.39821]}, "id": "2033", "type": "Feature", "properties": {"id": "46004-43405-024-LN2807", "status": "Implementation", "title": "URBAN SERVICES IMPROVEMENT INVESTMENT PROGRAM-TRANCHE 2", "approvalYear": "2011", "sectors": ["Water supply and other urban infrastructure and services"], "locationName": "Anaklia"}}, {"geometry": {"type": "Point", "coordinates": [41.63593, 41.64159]}, "id": "2034", "type": "Feature", "properties": {"id": "46004-41122-043-LN2843", "status": "Implementation", "title": "ROAD CORRIDOR INVESTMENT PROGRAM-TRANCHE 3(ADD'L FINANCING)", "approvalYear": "2012", "sectors": ["Transport", "Information and communication technology"], "locationName": "Batumi"}}, {"geometry": {"type": "Point", "coordinates": [42.0, 41.66667]}, "id": "2035", "type": "Feature", "properties": {"id": "46004-41122-043-LN2843", "status": "Implementation", "title": "ROAD CORRIDOR INVESTMENT PROGRAM-TRANCHE 3(ADD'L FINANCING)", "approvalYear": "2012", "sectors": ["Transport", "Information and communication technology"], "locationName": "Ajaria"}}, {"geometry": {"type": "Point", "coordinates": [41.83333, 41.75]}, "id": "2036", "type": "Feature", "properties": {"id": "46004-41122-043-LN2843", "status": "Implementation", "title": "ROAD CORRIDOR INVESTMENT PROGRAM-TRANCHE 3(ADD'L FINANCING)", "approvalYear": "2012", "sectors": ["Transport", "Information and communication technology"], "locationName": "Kobuletis Raioni"}}, {"geometry": {"type": "Point", "coordinates": [41.87481, 41.80316]}, "id": "2037", "type": "Feature", "properties": {"id": "46004-41122-043-LN2843", "status": "Implementation", "title": "ROAD CORRIDOR INVESTMENT PROGRAM-TRANCHE 3(ADD'L FINANCING)", "approvalYear": "2012", "sectors": ["Transport", "Information and communication technology"], "locationName": "K'obulet'i"}}, {"geometry": {"type": "Point", "coordinates": [45.0, 41.53333]}, "id": "2038", "type": "Feature", "properties": {"id": "46004-42414-033-LN2879", "status": "Implementation", "title": "SUSTAINABLE URBAN TRANSPORT INVESTMENT PROGRAM-TRANCHE 2", "approvalYear": "2012", "sectors": ["Transport", "Information and communication technology"], "locationName": "K'alak'i Rust'avi"}}, {"geometry": {"type": "Point", "coordinates": [44.83333, 41.71667]}, "id": "2039", "type": "Feature", "properties": {"id": "46004-42414-033-LN2879", "status": "Implementation", "title": "SUSTAINABLE URBAN TRANSPORT INVESTMENT PROGRAM-TRANCHE 2", "approvalYear": "2012", "sectors": ["Transport", "Information and communication technology"], "locationName": "K'alak'i T'bilisi"}}, {"geometry": {"type": "Point", "coordinates": [44.83368, 41.69411]}, "id": "2040", "type": "Feature", "properties": {"id": "46004-42414-033-LN2879", "status": "Implementation", "title": "SUSTAINABLE URBAN TRANSPORT INVESTMENT PROGRAM-TRANCHE 2", "approvalYear": "2012", "sectors": ["Transport", "Information and communication technology"], "locationName": "Tbilisi"}}, {"geometry": {"type": "Point", "coordinates": [44.92222, 41.63833]}, "id": "2041", "type": "Feature", "properties": {"id": "46004-42414-033-LN2879", "status": "Implementation", "title": "SUSTAINABLE URBAN TRANSPORT INVESTMENT PROGRAM-TRANCHE 2", "approvalYear": "2012", "sectors": ["Transport", "Information and communication technology"], "locationName": "P'onichala"}}, {"geometry": {"type": "Point", "coordinates": [44.99323, 41.54949]}, "id": "2042", "type": "Feature", "properties": {"id": "46004-42414-033-LN2879", "status": "Implementation", "title": "SUSTAINABLE URBAN TRANSPORT INVESTMENT PROGRAM-TRANCHE 2", "approvalYear": "2012", "sectors": ["Transport", "Information and communication technology"], "locationName": "Rustavi"}}, {"geometry": {"type": "Point", "coordinates": [42.7278, 43.04581]}, "id": "2043", "type": "Feature", "properties": {"id": "46004-42414-033-LN2879", "status": "Implementation", "title": "SUSTAINABLE URBAN TRANSPORT INVESTMENT PROGRAM-TRANCHE 2", "approvalYear": "2012", "sectors": ["Transport", "Information and communication technology"], "locationName": "Mestia"}}, {"geometry": {"type": "Point", "coordinates": [45.0, 41.61667]}, "id": "2044", "type": "Feature", "properties": {"id": "46004-42414-033-LN2879", "status": "Implementation", "title": "SUSTAINABLE URBAN TRANSPORT INVESTMENT PROGRAM-TRANCHE 2", "approvalYear": "2012", "sectors": ["Transport", "Information and communication technology"], "locationName": "Gardabanis Raioni"}}, {"geometry": {"type": "Point", "coordinates": [45.0, 41.53333]}, "id": "2045", "type": "Feature", "properties": {"id": "46004-42414-033-LN2880", "status": "Implementation", "title": "SUSTAINABLE URBAN TRANSPORT INVESTMENT PROGRAM-TRANCEH 2 (SF)", "approvalYear": "2012", "sectors": ["Transport"], "locationName": "K'alak'i Rust'avi"}}, {"geometry": {"type": "Point", "coordinates": [44.83333, 41.71667]}, "id": "2046", "type": "Feature", "properties": {"id": "46004-42414-033-LN2880", "status": "Implementation", "title": "SUSTAINABLE URBAN TRANSPORT INVESTMENT PROGRAM-TRANCEH 2 (SF)", "approvalYear": "2012", "sectors": ["Transport"], "locationName": "K'alak'i T'bilisi"}}, {"geometry": {"type": "Point", "coordinates": [44.83368, 41.69411]}, "id": "2047", "type": "Feature", "properties": {"id": "46004-42414-033-LN2880", "status": "Implementation", "title": "SUSTAINABLE URBAN TRANSPORT INVESTMENT PROGRAM-TRANCEH 2 (SF)", "approvalYear": "2012", "sectors": ["Transport"], "locationName": "Tbilisi"}}, {"geometry": {"type": "Point", "coordinates": [44.92222, 41.63833]}, "id": "2048", "type": "Feature", "properties": {"id": "46004-42414-033-LN2880", "status": "Implementation", "title": "SUSTAINABLE URBAN TRANSPORT INVESTMENT PROGRAM-TRANCEH 2 (SF)", "approvalYear": "2012", "sectors": ["Transport"], "locationName": "P'onichala"}}, {"geometry": {"type": "Point", "coordinates": [44.99323, 41.54949]}, "id": "2049", "type": "Feature", "properties": {"id": "46004-42414-033-LN2880", "status": "Implementation", "title": "SUSTAINABLE URBAN TRANSPORT INVESTMENT PROGRAM-TRANCEH 2 (SF)", "approvalYear": "2012", "sectors": ["Transport"], "locationName": "Rustavi"}}, {"geometry": {"type": "Point", "coordinates": [42.7278, 43.04581]}, "id": "2050", "type": "Feature", "properties": {"id": "46004-42414-033-LN2880", "status": "Implementation", "title": "SUSTAINABLE URBAN TRANSPORT INVESTMENT PROGRAM-TRANCEH 2 (SF)", "approvalYear": "2012", "sectors": ["Transport"], "locationName": "Mestia"}}, {"geometry": {"type": "Point", "coordinates": [45.0, 41.61667]}, "id": "2051", "type": "Feature", "properties": {"id": "46004-42414-033-LN2880", "status": "Implementation", "title": "SUSTAINABLE URBAN TRANSPORT INVESTMENT PROGRAM-TRANCEH 2 (SF)", "approvalYear": "2012", "sectors": ["Transport"], "locationName": "Gardabanis Raioni"}}, {"geometry": {"type": "Point", "coordinates": [42.03611, 42.27778]}, "id": "2052", "type": "Feature", "properties": {"id": "46004-44183-013-LN2974", "status": "Implementation", "title": "REGIONAL POWER TRANSMISSION ENHANCEMENT PROJECT", "approvalYear": "2013", "sectors": ["Energy"], "locationName": "Mendzhi"}}, {"geometry": {"type": "Point", "coordinates": [44.80894, 41.47588]}, "id": "2053", "type": "Feature", "properties": {"id": "46004-44183-013-LN2974", "status": "Implementation", "title": "REGIONAL POWER TRANSMISSION ENHANCEMENT PROJECT", "approvalYear": "2013", "sectors": ["Energy"], "locationName": "Marneuli"}}, {"geometry": {"type": "Point", "coordinates": [44.70612, 41.84066]}, "id": "2054", "type": "Feature", "properties": {"id": "46004-44183-013-LN2974", "status": "Implementation", "title": "REGIONAL POWER TRANSMISSION ENHANCEMENT PROJECT", "approvalYear": "2013", "sectors": ["Energy"], "locationName": "Mtskheta"}}, {"geometry": {"type": "Point", "coordinates": [45.0, 41.53333]}, "id": "2055", "type": "Feature", "properties": {"id": "46004-42414-043-LN3063", "status": "Implementation", "title": "MFF:SUSTAINABLE URBAN TRANSPORT INVESTMENT PROGRAM-TRANCHE 3", "approvalYear": "2013", "sectors": ["Transport", "Information and communication technology"], "locationName": "K'alak'i Rust'avi"}}, {"geometry": {"type": "Point", "coordinates": [41.7983, 42.46743]}, "id": "2056", "type": "Feature", "properties": {"id": "46004-42414-043-LN3063", "status": "Implementation", "title": "MFF:SUSTAINABLE URBAN TRANSPORT INVESTMENT PROGRAM-TRANCHE 3", "approvalYear": "2013", "sectors": ["Transport", "Information and communication technology"], "locationName": "Zugdidi"}}, {"geometry": {"type": "Point", "coordinates": [44.99323, 41.54949]}, "id": "2057", "type": "Feature", "properties": {"id": "46004-42414-043-LN3063", "status": "Implementation", "title": "MFF:SUSTAINABLE URBAN TRANSPORT INVESTMENT PROGRAM-TRANCHE 3", "approvalYear": "2013", "sectors": ["Transport", "Information and communication technology"], "locationName": "Rustavi"}}, {"geometry": {"type": "Point", "coordinates": [41.58314, 42.39821]}, "id": "2058", "type": "Feature", "properties": {"id": "46004-42414-043-LN3063", "status": "Implementation", "title": "MFF:SUSTAINABLE URBAN TRANSPORT INVESTMENT PROGRAM-TRANCHE 3", "approvalYear": "2013", "sectors": ["Transport", "Information and communication technology"], "locationName": "Anaklia"}}, {"geometry": {"type": "Point", "coordinates": [41.77861, 41.99556]}, "id": "2059", "type": "Feature", "properties": {"id": "46004-43405-025-LN3078", "status": "Implementation", "title": "MFF:URBAN SERVICES IMPROVEMENT INVESTMENT PROGRAM-TRANCHE 3", "approvalYear": "2013", "sectors": ["Water supply and other urban infrastructure and services"], "locationName": "Ureki"}}, {"geometry": {"type": "Point", "coordinates": [42.69459, 42.26791]}, "id": "2060", "type": "Feature", "properties": {"id": "46004-43405-025-LN3078", "status": "Implementation", "title": "MFF:URBAN SERVICES IMPROVEMENT INVESTMENT PROGRAM-TRANCHE 3", "approvalYear": "2013", "sectors": ["Water supply and other urban infrastructure and services"], "locationName": "Kutaisi"}}], "properties": {"name": "Georgia", "bounds": [39.985976355423105, 41.044110820000114, 46.694803101000076, 43.57584259000011]}}