{"type": "FeatureCollection", "id": "KG", "features": [{"geometry": {"type": "Point", "coordinates": [73.0, 40.0]}, "id": "3566", "type": "Feature", "properties": {"id": "46004-31197-032-GRNT0122", "status": "Completion", "title": "COMMUNITY-BASED INFRASTRUCTURE SERVICES SECTOR PRO", "approvalYear": "2008", "sectors": ["Water supply and other urban infrastructure and services"], "locationName": "Osh Oblasty"}}, {"geometry": {"type": "Point", "coordinates": [71.0, 39.83333]}, "id": "3567", "type": "Feature", "properties": {"id": "46004-31197-032-GRNT0122", "status": "Completion", "title": "COMMUNITY-BASED INFRASTRUCTURE SERVICES SECTOR PRO", "approvalYear": "2008", "sectors": ["Water supply and other urban infrastructure and services"], "locationName": "Batken"}}, {"geometry": {"type": "Point", "coordinates": [72.5, 41.5]}, "id": "3568", "type": "Feature", "properties": {"id": "46004-31197-032-GRNT0122", "status": "Completion", "title": "COMMUNITY-BASED INFRASTRUCTURE SERVICES SECTOR PRO", "approvalYear": "2008", "sectors": ["Water supply and other urban infrastructure and services"], "locationName": "Jalal-Abad"}}, {"geometry": {"type": "Point", "coordinates": [74.5, 42.41667]}, "id": "3569", "type": "Feature", "properties": {"id": "46004-31197-032-GRNT0122", "status": "Completion", "title": "COMMUNITY-BASED INFRASTRUCTURE SERVICES SECTOR PRO", "approvalYear": "2008", "sectors": ["Water supply and other urban infrastructure and services"], "locationName": "Chuyskaya Oblast'"}}, {"geometry": {"type": "Point", "coordinates": [76.18709, 42.46017]}, "id": "3570", "type": "Feature", "properties": {"id": "46004-39674-022-GRNT0123", "status": "Completion", "title": "CAREC TRANSPORT CORRIDOR 1 (BISHKEK-TORUGART ROAD)", "approvalYear": "2008", "sectors": ["Transport"], "locationName": "Balykchy"}}, {"geometry": {"type": "Point", "coordinates": [75.30149, 42.84194]}, "id": "3571", "type": "Feature", "properties": {"id": "46004-39674-022-GRNT0123", "status": "Completion", "title": "CAREC TRANSPORT CORRIDOR 1 (BISHKEK-TORUGART ROAD)", "approvalYear": "2008", "sectors": ["Transport"], "locationName": "Tokmok"}}, {"geometry": {"type": "Point", "coordinates": [75.99111, 41.42866]}, "id": "3572", "type": "Feature", "properties": {"id": "46004-39674-022-GRNT0123", "status": "Completion", "title": "CAREC TRANSPORT CORRIDOR 1 (BISHKEK-TORUGART ROAD)", "approvalYear": "2008", "sectors": ["Transport"], "locationName": "Naryn"}}, {"geometry": {"type": "Point", "coordinates": [75.75659, 42.21552]}, "id": "3573", "type": "Feature", "properties": {"id": "46004-39674-022-GRNT0123", "status": "Completion", "title": "CAREC TRANSPORT CORRIDOR 1 (BISHKEK-TORUGART ROAD)", "approvalYear": "2008", "sectors": ["Transport"], "locationName": "Kochkor"}}, {"geometry": {"type": "Point", "coordinates": [76.3326, 42.83349]}, "id": "3574", "type": "Feature", "properties": {"id": "46004-39674-022-GRNT0123", "status": "Completion", "title": "CAREC TRANSPORT CORRIDOR 1 (BISHKEK-TORUGART ROAD)", "approvalYear": "2008", "sectors": ["Transport"], "locationName": "Kemin"}}, {"geometry": {"type": "Point", "coordinates": [75.33333, 42.66667]}, "id": "3575", "type": "Feature", "properties": {"id": "46004-39674-022-GRNT0123", "status": "Completion", "title": "CAREC TRANSPORT CORRIDOR 1 (BISHKEK-TORUGART ROAD)", "approvalYear": "2008", "sectors": ["Transport"], "locationName": "Chuyskiy Rayon"}}, {"geometry": {"type": "Point", "coordinates": [74.59, 42.87]}, "id": "3576", "type": "Feature", "properties": {"id": "46004-39674-022-GRNT0123", "status": "Completion", "title": "CAREC TRANSPORT CORRIDOR 1 (BISHKEK-TORUGART ROAD)", "approvalYear": "2008", "sectors": ["Transport"], "locationName": "Bishkek"}}, {"geometry": {"type": "Point", "coordinates": [75.81058, 41.17017]}, "id": "3577", "type": "Feature", "properties": {"id": "46004-39674-022-GRNT0123", "status": "Completion", "title": "CAREC TRANSPORT CORRIDOR 1 (BISHKEK-TORUGART ROAD)", "approvalYear": "2008", "sectors": ["Transport"], "locationName": "At-Bashi"}}, {"geometry": {"type": "Point", "coordinates": [74.63333, 42.9]}, "id": "3578", "type": "Feature", "properties": {"id": "46004-39674-022-GRNT0123", "status": "Completion", "title": "CAREC TRANSPORT CORRIDOR 1 (BISHKEK-TORUGART ROAD)", "approvalYear": "2008", "sectors": ["Transport"], "locationName": "Alamedinskiy Rayon"}}, {"geometry": {"type": "Point", "coordinates": [77.17805, 42.59496]}, "id": "3579", "type": "Feature", "properties": {"id": "46004-39674-022-GRNT0123", "status": "Completion", "title": "CAREC TRANSPORT CORRIDOR 1 (BISHKEK-TORUGART ROAD)", "approvalYear": "2008", "sectors": ["Transport"], "locationName": "Issyk - Kulskaya"}}, {"geometry": {"type": "Point", "coordinates": [76.27108, 41.56807]}, "id": "3580", "type": "Feature", "properties": {"id": "46004-39674-022-GRNT0123", "status": "Completion", "title": "CAREC TRANSPORT CORRIDOR 1 (BISHKEK-TORUGART ROAD)", "approvalYear": "2008", "sectors": ["Transport"], "locationName": "Tien Shan"}}, {"geometry": {"type": "Point", "coordinates": [74.964, 42.636]}, "id": "3581", "type": "Feature", "properties": {"id": "46004-39674-022-GRNT0123", "status": "Completion", "title": "CAREC TRANSPORT CORRIDOR 1 (BISHKEK-TORUGART ROAD)", "approvalYear": "2008", "sectors": ["Transport"], "locationName": "Ysyk-Ata"}}, {"geometry": {"type": "Point", "coordinates": [75.31115, 40.55103]}, "id": "3582", "type": "Feature", "properties": {"id": "46004-39674-022-GRNT0123", "status": "Completion", "title": "CAREC TRANSPORT CORRIDOR 1 (BISHKEK-TORUGART ROAD)", "approvalYear": "2008", "sectors": ["Transport"], "locationName": "Torugart"}}, {"geometry": {"type": "Point", "coordinates": [76.57973, 42.09757]}, "id": "3583", "type": "Feature", "properties": {"id": "46004-39674-022-GRNT0123", "status": "Completion", "title": "CAREC TRANSPORT CORRIDOR 1 (BISHKEK-TORUGART ROAD)", "approvalYear": "2008", "sectors": ["Transport"], "locationName": "Tong"}}, {"geometry": {"type": "Point", "coordinates": [75.75, 42.21667]}, "id": "3584", "type": "Feature", "properties": {"id": "46004-39674-022-GRNT0123", "status": "Completion", "title": "CAREC TRANSPORT CORRIDOR 1 (BISHKEK-TORUGART ROAD)", "approvalYear": "2008", "sectors": ["Transport"], "locationName": "Kochkor"}}, {"geometry": {"type": "Point", "coordinates": [75.8, 41.16667]}, "id": "3585", "type": "Feature", "properties": {"id": "46004-39674-022-GRNT0123", "status": "Completion", "title": "CAREC TRANSPORT CORRIDOR 1 (BISHKEK-TORUGART ROAD)", "approvalYear": "2008", "sectors": ["Transport"], "locationName": "At-Bashi"}}, {"geometry": {"type": "Point", "coordinates": [75.96667, 41.43333]}, "id": "3586", "type": "Feature", "properties": {"id": "46004-42399-013-GRNT0153", "status": "Implementation", "title": "CAREC TRANSPORT CORRIDOR 1 (BISHKEK-TORUGART ROAD)", "approvalYear": "2009", "sectors": ["Transport"], "locationName": "Naryn"}}, {"geometry": {"type": "Point", "coordinates": [75.81058, 41.17017]}, "id": "3587", "type": "Feature", "properties": {"id": "46004-42399-013-GRNT0153", "status": "Implementation", "title": "CAREC TRANSPORT CORRIDOR 1 (BISHKEK-TORUGART ROAD)", "approvalYear": "2009", "sectors": ["Transport"], "locationName": "At-Bashi"}}, {"geometry": {"type": "Point", "coordinates": [76.18709, 42.46017]}, "id": "3588", "type": "Feature", "properties": {"id": "46004-41548-013-GRNT0163", "status": "Implementation", "title": "ISSYK-KUL SUSTAINABLE DEVELOPMENT PROJECT", "approvalYear": "2009", "sectors": ["Water supply and other urban infrastructure and services"], "locationName": "Balykchy"}}, {"geometry": {"type": "Point", "coordinates": [77.25, 42.41667]}, "id": "3589", "type": "Feature", "properties": {"id": "46004-41548-013-GRNT0163", "status": "Implementation", "title": "ISSYK-KUL SUSTAINABLE DEVELOPMENT PROJECT", "approvalYear": "2009", "sectors": ["Water supply and other urban infrastructure and services"], "locationName": "Issyk Kul"}}, {"geometry": {"type": "Point", "coordinates": [78.39362, 42.49068]}, "id": "3590", "type": "Feature", "properties": {"id": "46004-41548-013-GRNT0163", "status": "Implementation", "title": "ISSYK-KUL SUSTAINABLE DEVELOPMENT PROJECT", "approvalYear": "2009", "sectors": ["Water supply and other urban infrastructure and services"], "locationName": "Karakol"}}, {"geometry": {"type": "Point", "coordinates": [77.08225, 42.64944]}, "id": "3591", "type": "Feature", "properties": {"id": "46004-41548-013-GRNT0163", "status": "Implementation", "title": "ISSYK-KUL SUSTAINABLE DEVELOPMENT PROJECT", "approvalYear": "2009", "sectors": ["Water supply and other urban infrastructure and services"], "locationName": "Cholpon-Ata"}}, {"geometry": {"type": "Point", "coordinates": [72.74586, 41.0376]}, "id": "3592", "type": "Feature", "properties": {"id": "46004-44236-013-GRNT0217", "status": "Implementation", "title": "EMERGENCY ASSISTANCE FOR RECOVERY AND RECONSTRUCTI", "approvalYear": "2010", "sectors": ["Public sector management"], "locationName": "Bazar-Korgon"}}, {"geometry": {"type": "Point", "coordinates": [75.0, 41.5]}, "id": "3593", "type": "Feature", "properties": {"id": "46004-43456-023-GRNT0218", "status": "Implementation", "title": "POWER SECTOR IMPROVEMENT PROJECT", "approvalYear": "2010", "sectors": ["Energy"], "locationName": "Kyrgyzstan"}}, {"geometry": {"type": "Point", "coordinates": [75.96667, 41.43333]}, "id": "3594", "type": "Feature", "properties": {"id": "46004-42399-013-LN2533", "status": "Implementation", "title": "CAREC TRANSPORT CORRIDOR 1 (BISHKEK-TORUGART ROAD)", "approvalYear": "2009", "sectors": ["Transport"], "locationName": "Naryn"}}, {"geometry": {"type": "Point", "coordinates": [75.81058, 41.17017]}, "id": "3595", "type": "Feature", "properties": {"id": "46004-42399-013-LN2533", "status": "Implementation", "title": "CAREC TRANSPORT CORRIDOR 1 (BISHKEK-TORUGART ROAD)", "approvalYear": "2009", "sectors": ["Transport"], "locationName": "At-Bashi"}}, {"geometry": {"type": "Point", "coordinates": [76.18709, 42.46017]}, "id": "3596", "type": "Feature", "properties": {"id": "46004-41548-013-LN2556", "status": "Implementation", "title": "ISSYK-KUL SUSTAINABLE DEVELOPMENT", "approvalYear": "2009", "sectors": ["Water supply and other urban infrastructure and services"], "locationName": "Balykchy"}}, {"geometry": {"type": "Point", "coordinates": [77.25, 42.41667]}, "id": "3597", "type": "Feature", "properties": {"id": "46004-41548-013-LN2556", "status": "Implementation", "title": "ISSYK-KUL SUSTAINABLE DEVELOPMENT", "approvalYear": "2009", "sectors": ["Water supply and other urban infrastructure and services"], "locationName": "Issyk Kul"}}, {"geometry": {"type": "Point", "coordinates": [78.39362, 42.49068]}, "id": "3598", "type": "Feature", "properties": {"id": "46004-41548-013-LN2556", "status": "Implementation", "title": "ISSYK-KUL SUSTAINABLE DEVELOPMENT", "approvalYear": "2009", "sectors": ["Water supply and other urban infrastructure and services"], "locationName": "Karakol"}}, {"geometry": {"type": "Point", "coordinates": [77.08225, 42.64944]}, "id": "3599", "type": "Feature", "properties": {"id": "46004-41548-013-LN2556", "status": "Implementation", "title": "ISSYK-KUL SUSTAINABLE DEVELOPMENT", "approvalYear": "2009", "sectors": ["Water supply and other urban infrastructure and services"], "locationName": "Cholpon-Ata"}}, {"geometry": {"type": "Point", "coordinates": [73.24836, 39.72883]}, "id": "3600", "type": "Feature", "properties": {"id": "46004-39676-033-LN2667", "status": "Completion", "title": "CAREC REGIONAL ROAD CORRIDOR IMPROVEMENT PROJECT (SUPPLEMENTARY)", "approvalYear": "2010", "sectors": ["Transport"], "locationName": "Sary-Tash"}}, {"geometry": {"type": "Point", "coordinates": [72.20518, 39.55274]}, "id": "3601", "type": "Feature", "properties": {"id": "46004-39676-033-LN2667", "status": "Completion", "title": "CAREC REGIONAL ROAD CORRIDOR IMPROVEMENT PROJECT (SUPPLEMENTARY)", "approvalYear": "2010", "sectors": ["Transport"], "locationName": "Daroot-Korgon"}}, {"geometry": {"type": "Point", "coordinates": [73.0, 40.0]}, "id": "3602", "type": "Feature", "properties": {"id": "46004-39676-033-LN2667", "status": "Completion", "title": "CAREC REGIONAL ROAD CORRIDOR IMPROVEMENT PROJECT (SUPPLEMENTARY)", "approvalYear": "2010", "sectors": ["Transport"], "locationName": "Osh Oblasty"}}, {"geometry": {"type": "Point", "coordinates": [71.79254, 39.48564]}, "id": "3603", "type": "Feature", "properties": {"id": "46004-39676-033-LN2667", "status": "Completion", "title": "CAREC REGIONAL ROAD CORRIDOR IMPROVEMENT PROJECT (SUPPLEMENTARY)", "approvalYear": "2010", "sectors": ["Transport"], "locationName": "Karamyk"}}, {"geometry": {"type": "Point", "coordinates": [72.7661, 39.92356]}, "id": "3604", "type": "Feature", "properties": {"id": "46004-39676-033-LN2667", "status": "Completion", "title": "CAREC REGIONAL ROAD CORRIDOR IMPROVEMENT PROJECT (SUPPLEMENTARY)", "approvalYear": "2010", "sectors": ["Transport"], "locationName": "Sary-Mogol"}}, {"geometry": {"type": "Point", "coordinates": [73.55941, 39.85862]}, "id": "3605", "type": "Feature", "properties": {"id": "46004-39676-033-LN2667", "status": "Completion", "title": "CAREC REGIONAL ROAD CORRIDOR IMPROVEMENT PROJECT (SUPPLEMENTARY)", "approvalYear": "2010", "sectors": ["Transport"], "locationName": "Alay District"}}, {"geometry": {"type": "Point", "coordinates": [72.2001, 39.552]}, "id": "3606", "type": "Feature", "properties": {"id": "46004-39676-033-LN2667", "status": "Completion", "title": "CAREC REGIONAL ROAD CORRIDOR IMPROVEMENT PROJECT (SUPPLEMENTARY)", "approvalYear": "2010", "sectors": ["Transport"], "locationName": "Chong-Alay"}}, {"geometry": {"type": "Point", "coordinates": [72.74586, 41.0376]}, "id": "3607", "type": "Feature", "properties": {"id": "46004-44236-013-LN2668", "status": "Implementation", "title": "EMERGENCY ASSISTANCE FOR RECOVERY AND RECONSTRUCTION", "approvalYear": "2010", "sectors": ["Public sector management"], "locationName": "Bazar-Korgon"}}, {"geometry": {"type": "Point", "coordinates": [75.0, 41.5]}, "id": "3608", "type": "Feature", "properties": {"id": "46004-43456-023-LN2671", "status": "Implementation", "title": "POWER SECTOR IMPROVEMENT PROJECT", "approvalYear": "2010", "sectors": ["Energy"], "locationName": "Kyrgyzstan"}}, {"geometry": {"type": "Point", "coordinates": [76.0, 41.0]}, "id": "3609", "type": "Feature", "properties": {"id": "46004-42399-023-LN2755", "status": "Implementation", "title": "CAREC CORRIDOR 1 (BISHKEK-TORUGART ROAD) PROJECT 3", "approvalYear": "2011", "sectors": ["Transport"], "locationName": "At-Bashinskiy Rayon"}}, {"geometry": {"type": "Point", "coordinates": [75.81058, 41.17017]}, "id": "3610", "type": "Feature", "properties": {"id": "46004-42399-023-LN2755", "status": "Implementation", "title": "CAREC CORRIDOR 1 (BISHKEK-TORUGART ROAD) PROJECT 3", "approvalYear": "2011", "sectors": ["Transport"], "locationName": "At-Bashi"}}, {"geometry": {"type": "Point", "coordinates": [75.31115, 40.55103]}, "id": "3611", "type": "Feature", "properties": {"id": "46004-42399-023-LN2755", "status": "Implementation", "title": "CAREC CORRIDOR 1 (BISHKEK-TORUGART ROAD) PROJECT 3", "approvalYear": "2011", "sectors": ["Transport"], "locationName": "Torugart"}}, {"geometry": {"type": "Point", "coordinates": [72.05924, 40.22881]}, "id": "3612", "type": "Feature", "properties": {"id": "46004-44198-013-LN2869", "status": "Implementation", "title": "POWER SECTOR REHABILITATION PROJECT(SF)", "approvalYear": "2012", "sectors": ["Energy"], "locationName": "Uch-Korgon"}}, {"geometry": {"type": "Point", "coordinates": [72.17887, 41.2006]}, "id": "3613", "type": "Feature", "properties": {"id": "46004-44198-013-LN2869", "status": "Implementation", "title": "POWER SECTOR REHABILITATION PROJECT(SF)", "approvalYear": "2012", "sectors": ["Energy"], "locationName": "Shamaldy-Say"}}, {"geometry": {"type": "Point", "coordinates": [72.9402, 41.87079]}, "id": "3614", "type": "Feature", "properties": {"id": "46004-44198-013-LN2869", "status": "Implementation", "title": "POWER SECTOR REHABILITATION PROJECT(SF)", "approvalYear": "2012", "sectors": ["Energy"], "locationName": "Toktogul"}}, {"geometry": {"type": "Point", "coordinates": [74.59, 42.87]}, "id": "3615", "type": "Feature", "properties": {"id": "46004-38298-023-LN2902", "status": "Implementation", "title": "2ND VOCATIONAL EDUCATION & SKILLS DEVELOPMENT PROJECT", "approvalYear": "2012", "sectors": ["Education"], "locationName": "Bishkek"}}, {"geometry": {"type": "Point", "coordinates": [72.80826, 40.51506]}, "id": "3616", "type": "Feature", "properties": {"id": "46004-38298-023-LN2902", "status": "Implementation", "title": "2ND VOCATIONAL EDUCATION & SKILLS DEVELOPMENT PROJECT", "approvalYear": "2012", "sectors": ["Education"], "locationName": "Osh"}}, {"geometry": {"type": "Point", "coordinates": [72.05924, 40.22881]}, "id": "3617", "type": "Feature", "properties": {"id": "46004-44198-013-GRNT0294", "status": "Implementation", "title": "POWER SECTOR REHABILITATION PROJECT", "approvalYear": "2012", "sectors": ["Energy"], "locationName": "Uch-Korgon"}}, {"geometry": {"type": "Point", "coordinates": [72.17887, 41.2006]}, "id": "3618", "type": "Feature", "properties": {"id": "46004-44198-013-GRNT0294", "status": "Implementation", "title": "POWER SECTOR REHABILITATION PROJECT", "approvalYear": "2012", "sectors": ["Energy"], "locationName": "Shamaldy-Say"}}, {"geometry": {"type": "Point", "coordinates": [72.9402, 41.87079]}, "id": "3619", "type": "Feature", "properties": {"id": "46004-44198-013-GRNT0294", "status": "Implementation", "title": "POWER SECTOR REHABILITATION PROJECT", "approvalYear": "2012", "sectors": ["Energy"], "locationName": "Toktogul"}}, {"geometry": {"type": "Point", "coordinates": [71.79254, 39.48564]}, "id": "3620", "type": "Feature", "properties": {"id": "46004-46124-001-LN2995", "status": "Implementation", "title": "CAREC REGIONAL IMPROVEMENT OF BORDER SERVICES PROJECT(SF)", "approvalYear": "2013", "sectors": ["Finance"], "locationName": "Karamyk"}}, {"geometry": {"type": "Point", "coordinates": [70.7265, 40.12238]}, "id": "3621", "type": "Feature", "properties": {"id": "46004-46124-001-LN2995", "status": "Implementation", "title": "CAREC REGIONAL IMPROVEMENT OF BORDER SERVICES PROJECT(SF)", "approvalYear": "2013", "sectors": ["Finance"], "locationName": "Guliston"}}, {"geometry": {"type": "Point", "coordinates": [73.79485, 42.74613]}, "id": "3622", "type": "Feature", "properties": {"id": "46004-45169-001-LN3056", "status": "Implementation", "title": "CAREC CORRIDOR 3(BISHKEK-OSH RD)IMPROVEMENT PROJECT,PHASE 4", "approvalYear": "2014", "sectors": ["Transport"], "locationName": "Jaiyl"}}, {"geometry": {"type": "Point", "coordinates": [72.80826, 40.51506]}, "id": "3623", "type": "Feature", "properties": {"id": "46004-45169-001-LN3056", "status": "Implementation", "title": "CAREC CORRIDOR 3(BISHKEK-OSH RD)IMPROVEMENT PROJECT,PHASE 4", "approvalYear": "2014", "sectors": ["Transport"], "locationName": "Osh"}}, {"geometry": {"type": "Point", "coordinates": [72.86674, 40.59041]}, "id": "3624", "type": "Feature", "properties": {"id": "46004-45169-001-LN3056", "status": "Implementation", "title": "CAREC CORRIDOR 3(BISHKEK-OSH RD)IMPROVEMENT PROJECT,PHASE 4", "approvalYear": "2014", "sectors": ["Transport"], "locationName": "Madaniyat"}}, {"geometry": {"type": "Point", "coordinates": [73.84813, 42.81423]}, "id": "3625", "type": "Feature", "properties": {"id": "46004-45169-001-LN3056", "status": "Implementation", "title": "CAREC CORRIDOR 3(BISHKEK-OSH RD)IMPROVEMENT PROJECT,PHASE 4", "approvalYear": "2014", "sectors": ["Transport"], "locationName": "Kara-Balta"}}, {"geometry": {"type": "Point", "coordinates": [73.0, 40.93333]}, "id": "3626", "type": "Feature", "properties": {"id": "46004-45169-001-LN3056", "status": "Implementation", "title": "CAREC CORRIDOR 3(BISHKEK-OSH RD)IMPROVEMENT PROJECT,PHASE 4", "approvalYear": "2014", "sectors": ["Transport"], "locationName": "Jalal-Abad"}}, {"geometry": {"type": "Point", "coordinates": [74.60022, 42.87781]}, "id": "3627", "type": "Feature", "properties": {"id": "46004-45169-001-LN3056", "status": "Implementation", "title": "CAREC CORRIDOR 3(BISHKEK-OSH RD)IMPROVEMENT PROJECT,PHASE 4", "approvalYear": "2014", "sectors": ["Transport"], "locationName": "Gorod Bishkek"}}, {"geometry": {"type": "Point", "coordinates": [74.59, 42.87]}, "id": "3628", "type": "Feature", "properties": {"id": "46004-45169-001-LN3056", "status": "Implementation", "title": "CAREC CORRIDOR 3(BISHKEK-OSH RD)IMPROVEMENT PROJECT,PHASE 4", "approvalYear": "2014", "sectors": ["Transport"], "locationName": "Bishkek"}}, {"geometry": {"type": "Point", "coordinates": [72.5, 41.5]}, "id": "3629", "type": "Feature", "properties": {"id": "46004-45169-001-LN3056", "status": "Implementation", "title": "CAREC CORRIDOR 3(BISHKEK-OSH RD)IMPROVEMENT PROJECT,PHASE 4", "approvalYear": "2014", "sectors": ["Transport"], "locationName": "Jalal-Abad"}}, {"geometry": {"type": "Point", "coordinates": [73.08, 40.37]}, "id": "3630", "type": "Feature", "properties": {"id": "46004-45169-001-LN3056", "status": "Implementation", "title": "CAREC CORRIDOR 3(BISHKEK-OSH RD)IMPROVEMENT PROJECT,PHASE 4", "approvalYear": "2014", "sectors": ["Transport"], "locationName": "Kara-Suu"}}, {"geometry": {"type": "Point", "coordinates": [74.59, 42.87]}, "id": "3631", "type": "Feature", "properties": {"id": "46004-38298-023-GRNT0307", "status": "Implementation", "title": "2ND VOCATIONAL EDUCATION AND SKILLS DEVELOPMENT PR", "approvalYear": "2012", "sectors": ["Education"], "locationName": "Bishkek"}}, {"geometry": {"type": "Point", "coordinates": [72.80826, 40.51506]}, "id": "3632", "type": "Feature", "properties": {"id": "46004-38298-023-GRNT0307", "status": "Implementation", "title": "2ND VOCATIONAL EDUCATION AND SKILLS DEVELOPMENT PR", "approvalYear": "2012", "sectors": ["Education"], "locationName": "Osh"}}, {"geometry": {"type": "Point", "coordinates": [73.0, 40.0]}, "id": "3633", "type": "Feature", "properties": {"id": "46004-41544-082-GRNT0319", "status": "Completion", "title": "INVESTMENT CLIMATE IMPROVEMENT PROGRAM - SUBPROGRA", "approvalYear": "2012", "sectors": ["Public sector management"], "locationName": "Osh Oblasty"}}, {"geometry": {"type": "Point", "coordinates": [71.0, 39.83333]}, "id": "3634", "type": "Feature", "properties": {"id": "46004-41544-082-GRNT0319", "status": "Completion", "title": "INVESTMENT CLIMATE IMPROVEMENT PROGRAM - SUBPROGRA", "approvalYear": "2012", "sectors": ["Public sector management"], "locationName": "Batken"}}, {"geometry": {"type": "Point", "coordinates": [72.0, 42.33333]}, "id": "3635", "type": "Feature", "properties": {"id": "46004-41544-082-GRNT0319", "status": "Completion", "title": "INVESTMENT CLIMATE IMPROVEMENT PROGRAM - SUBPROGRA", "approvalYear": "2012", "sectors": ["Public sector management"], "locationName": "Talas"}}, {"geometry": {"type": "Point", "coordinates": [75.96667, 41.43333]}, "id": "3636", "type": "Feature", "properties": {"id": "46004-41544-082-GRNT0319", "status": "Completion", "title": "INVESTMENT CLIMATE IMPROVEMENT PROGRAM - SUBPROGRA", "approvalYear": "2012", "sectors": ["Public sector management"], "locationName": "Naryn"}}, {"geometry": {"type": "Point", "coordinates": [78.0, 42.0]}, "id": "3637", "type": "Feature", "properties": {"id": "46004-41544-082-GRNT0319", "status": "Completion", "title": "INVESTMENT CLIMATE IMPROVEMENT PROGRAM - SUBPROGRA", "approvalYear": "2012", "sectors": ["Public sector management"], "locationName": "Issyk-Kul'skaya Oblast'"}}, {"geometry": {"type": "Point", "coordinates": [74.59, 42.87]}, "id": "3638", "type": "Feature", "properties": {"id": "46004-41544-082-GRNT0319", "status": "Completion", "title": "INVESTMENT CLIMATE IMPROVEMENT PROGRAM - SUBPROGRA", "approvalYear": "2012", "sectors": ["Public sector management"], "locationName": "Bishkek"}}, {"geometry": {"type": "Point", "coordinates": [72.5, 41.5]}, "id": "3639", "type": "Feature", "properties": {"id": "46004-41544-082-GRNT0319", "status": "Completion", "title": "INVESTMENT CLIMATE IMPROVEMENT PROGRAM - SUBPROGRA", "approvalYear": "2012", "sectors": ["Public sector management"], "locationName": "Jalal-Abad"}}, {"geometry": {"type": "Point", "coordinates": [74.5, 42.41667]}, "id": "3640", "type": "Feature", "properties": {"id": "46004-41544-082-GRNT0319", "status": "Completion", "title": "INVESTMENT CLIMATE IMPROVEMENT PROGRAM - SUBPROGRA", "approvalYear": "2012", "sectors": ["Public sector management"], "locationName": "Chuyskaya Oblast'"}}, {"geometry": {"type": "Point", "coordinates": [71.79254, 39.48564]}, "id": "3641", "type": "Feature", "properties": {"id": "46004-46124-001-GRNT0340", "status": "Implementation", "title": "CAREC REGIONAL IMPROVEMENT OF BORDER SERVICES PROJ", "approvalYear": "2013", "sectors": ["Finance"], "locationName": "Karamyk"}}, {"geometry": {"type": "Point", "coordinates": [70.7265, 40.12238]}, "id": "3642", "type": "Feature", "properties": {"id": "46004-46124-001-GRNT0340", "status": "Implementation", "title": "CAREC REGIONAL IMPROVEMENT OF BORDER SERVICES PROJ", "approvalYear": "2013", "sectors": ["Finance"], "locationName": "Guliston"}}, {"geometry": {"type": "Point", "coordinates": [73.79485, 42.74613]}, "id": "3643", "type": "Feature", "properties": {"id": "46004-45169-001-GRNT0366", "status": "Implementation", "title": "CAREC CORRIDOR 3(BISHKEK-OSH ROAD)IMPROVEMENT PROJ", "approvalYear": "2014", "sectors": ["Transport"], "locationName": "Jaiyl"}}, {"geometry": {"type": "Point", "coordinates": [72.80826, 40.51506]}, "id": "3644", "type": "Feature", "properties": {"id": "46004-45169-001-GRNT0366", "status": "Implementation", "title": "CAREC CORRIDOR 3(BISHKEK-OSH ROAD)IMPROVEMENT PROJ", "approvalYear": "2014", "sectors": ["Transport"], "locationName": "Osh"}}, {"geometry": {"type": "Point", "coordinates": [72.86674, 40.59041]}, "id": "3645", "type": "Feature", "properties": {"id": "46004-45169-001-GRNT0366", "status": "Implementation", "title": "CAREC CORRIDOR 3(BISHKEK-OSH ROAD)IMPROVEMENT PROJ", "approvalYear": "2014", "sectors": ["Transport"], "locationName": "Madaniyat"}}, {"geometry": {"type": "Point", "coordinates": [73.84813, 42.81423]}, "id": "3646", "type": "Feature", "properties": {"id": "46004-45169-001-GRNT0366", "status": "Implementation", "title": "CAREC CORRIDOR 3(BISHKEK-OSH ROAD)IMPROVEMENT PROJ", "approvalYear": "2014", "sectors": ["Transport"], "locationName": "Kara-Balta"}}, {"geometry": {"type": "Point", "coordinates": [73.0, 40.93333]}, "id": "3647", "type": "Feature", "properties": {"id": "46004-45169-001-GRNT0366", "status": "Implementation", "title": "CAREC CORRIDOR 3(BISHKEK-OSH ROAD)IMPROVEMENT PROJ", "approvalYear": "2014", "sectors": ["Transport"], "locationName": "Jalal-Abad"}}, {"geometry": {"type": "Point", "coordinates": [74.60022, 42.87781]}, "id": "3648", "type": "Feature", "properties": {"id": "46004-45169-001-GRNT0366", "status": "Implementation", "title": "CAREC CORRIDOR 3(BISHKEK-OSH ROAD)IMPROVEMENT PROJ", "approvalYear": "2014", "sectors": ["Transport"], "locationName": "Gorod Bishkek"}}, {"geometry": {"type": "Point", "coordinates": [74.59, 42.87]}, "id": "3649", "type": "Feature", "properties": {"id": "46004-45169-001-GRNT0366", "status": "Implementation", "title": "CAREC CORRIDOR 3(BISHKEK-OSH ROAD)IMPROVEMENT PROJ", "approvalYear": "2014", "sectors": ["Transport"], "locationName": "Bishkek"}}, {"geometry": {"type": "Point", "coordinates": [72.5, 41.5]}, "id": "3650", "type": "Feature", "properties": {"id": "46004-45169-001-GRNT0366", "status": "Implementation", "title": "CAREC CORRIDOR 3(BISHKEK-OSH ROAD)IMPROVEMENT PROJ", "approvalYear": "2014", "sectors": ["Transport"], "locationName": "Jalal-Abad"}}, {"geometry": {"type": "Point", "coordinates": [73.08, 40.37]}, "id": "3651", "type": "Feature", "properties": {"id": "46004-45169-001-GRNT0366", "status": "Implementation", "title": "CAREC CORRIDOR 3(BISHKEK-OSH ROAD)IMPROVEMENT PROJ", "approvalYear": "2014", "sectors": ["Transport"], "locationName": "Kara-Suu"}}, {"geometry": {"type": "Point", "coordinates": [69.56779, 39.93652]}, "id": "3652", "type": "Feature", "properties": {"id": "46004-38298-022-GRNT0074", "status": "Completion", "title": "VOCATIONAL EDUCATION & SKILLS DEVELOPMENT", "approvalYear": "2007", "sectors": ["Education"], "locationName": "Sulyukta"}}, {"geometry": {"type": "Point", "coordinates": [73.0, 40.0]}, "id": "3653", "type": "Feature", "properties": {"id": "46004-38298-022-GRNT0074", "status": "Completion", "title": "VOCATIONAL EDUCATION & SKILLS DEVELOPMENT", "approvalYear": "2007", "sectors": ["Education"], "locationName": "Osh Oblasty"}}, {"geometry": {"type": "Point", "coordinates": [71.0, 39.83333]}, "id": "3654", "type": "Feature", "properties": {"id": "46004-38298-022-GRNT0074", "status": "Completion", "title": "VOCATIONAL EDUCATION & SKILLS DEVELOPMENT", "approvalYear": "2007", "sectors": ["Education"], "locationName": "Batken"}}, {"geometry": {"type": "Point", "coordinates": [76.18709, 42.46017]}, "id": "3655", "type": "Feature", "properties": {"id": "46004-38298-022-GRNT0074", "status": "Completion", "title": "VOCATIONAL EDUCATION & SKILLS DEVELOPMENT", "approvalYear": "2007", "sectors": ["Education"], "locationName": "Balykchy"}}, {"geometry": {"type": "Point", "coordinates": [75.30149, 42.84194]}, "id": "3656", "type": "Feature", "properties": {"id": "46004-38298-022-GRNT0074", "status": "Completion", "title": "VOCATIONAL EDUCATION & SKILLS DEVELOPMENT", "approvalYear": "2007", "sectors": ["Education"], "locationName": "Tokmok"}}, {"geometry": {"type": "Point", "coordinates": [72.0, 42.33333]}, "id": "3657", "type": "Feature", "properties": {"id": "46004-38298-022-GRNT0074", "status": "Completion", "title": "VOCATIONAL EDUCATION & SKILLS DEVELOPMENT", "approvalYear": "2007", "sectors": ["Education"], "locationName": "Talas"}}, {"geometry": {"type": "Point", "coordinates": [72.24274, 42.52277]}, "id": "3658", "type": "Feature", "properties": {"id": "46004-38298-022-GRNT0074", "status": "Completion", "title": "VOCATIONAL EDUCATION & SKILLS DEVELOPMENT", "approvalYear": "2007", "sectors": ["Education"], "locationName": "Talas"}}, {"geometry": {"type": "Point", "coordinates": [73.30068, 40.76994]}, "id": "3659", "type": "Feature", "properties": {"id": "46004-38298-022-GRNT0074", "status": "Completion", "title": "VOCATIONAL EDUCATION & SKILLS DEVELOPMENT", "approvalYear": "2007", "sectors": ["Education"], "locationName": "Uzgen"}}, {"geometry": {"type": "Point", "coordinates": [72.80826, 40.51506]}, "id": "3660", "type": "Feature", "properties": {"id": "46004-38298-022-GRNT0074", "status": "Completion", "title": "VOCATIONAL EDUCATION & SKILLS DEVELOPMENT", "approvalYear": "2007", "sectors": ["Education"], "locationName": "Osh"}}, {"geometry": {"type": "Point", "coordinates": [75.96667, 41.43333]}, "id": "3661", "type": "Feature", "properties": {"id": "46004-38298-022-GRNT0074", "status": "Completion", "title": "VOCATIONAL EDUCATION & SKILLS DEVELOPMENT", "approvalYear": "2007", "sectors": ["Education"], "locationName": "Naryn"}}, {"geometry": {"type": "Point", "coordinates": [75.99111, 41.42866]}, "id": "3662", "type": "Feature", "properties": {"id": "46004-38298-022-GRNT0074", "status": "Completion", "title": "VOCATIONAL EDUCATION & SKILLS DEVELOPMENT", "approvalYear": "2007", "sectors": ["Education"], "locationName": "Naryn"}}, {"geometry": {"type": "Point", "coordinates": [71.21228, 42.68108]}, "id": "3663", "type": "Feature", "properties": {"id": "46004-38298-022-GRNT0074", "status": "Completion", "title": "VOCATIONAL EDUCATION & SKILLS DEVELOPMENT", "approvalYear": "2007", "sectors": ["Education"], "locationName": "Maymak"}}, {"geometry": {"type": "Point", "coordinates": [72.12793, 40.25684]}, "id": "3664", "type": "Feature", "properties": {"id": "46004-38298-022-GRNT0074", "status": "Completion", "title": "VOCATIONAL EDUCATION & SKILLS DEVELOPMENT", "approvalYear": "2007", "sectors": ["Education"], "locationName": "Kzyl-Kiya"}}, {"geometry": {"type": "Point", "coordinates": [78.39362, 42.49068]}, "id": "3665", "type": "Feature", "properties": {"id": "46004-38298-022-GRNT0074", "status": "Completion", "title": "VOCATIONAL EDUCATION & SKILLS DEVELOPMENT", "approvalYear": "2007", "sectors": ["Education"], "locationName": "Karakol"}}, {"geometry": {"type": "Point", "coordinates": [72.67027, 41.62828]}, "id": "3666", "type": "Feature", "properties": {"id": "46004-38298-022-GRNT0074", "status": "Completion", "title": "VOCATIONAL EDUCATION & SKILLS DEVELOPMENT", "approvalYear": "2007", "sectors": ["Education"], "locationName": "Kara-Kul'"}}, {"geometry": {"type": "Point", "coordinates": [73.84813, 42.81423]}, "id": "3667", "type": "Feature", "properties": {"id": "46004-38298-022-GRNT0074", "status": "Completion", "title": "VOCATIONAL EDUCATION & SKILLS DEVELOPMENT", "approvalYear": "2007", "sectors": ["Education"], "locationName": "Kara-Balta"}}, {"geometry": {"type": "Point", "coordinates": [73.67585, 42.82469]}, "id": "3668", "type": "Feature", "properties": {"id": "46004-38298-022-GRNT0074", "status": "Completion", "title": "VOCATIONAL EDUCATION & SKILLS DEVELOPMENT", "approvalYear": "2007", "sectors": ["Education"], "locationName": "Kaindy"}}, {"geometry": {"type": "Point", "coordinates": [73.0, 40.93333]}, "id": "3669", "type": "Feature", "properties": {"id": "46004-38298-022-GRNT0074", "status": "Completion", "title": "VOCATIONAL EDUCATION & SKILLS DEVELOPMENT", "approvalYear": "2007", "sectors": ["Education"], "locationName": "Jalal-Abad"}}, {"geometry": {"type": "Point", "coordinates": [78.0, 42.0]}, "id": "3670", "type": "Feature", "properties": {"id": "46004-38298-022-GRNT0074", "status": "Completion", "title": "VOCATIONAL EDUCATION & SKILLS DEVELOPMENT", "approvalYear": "2007", "sectors": ["Education"], "locationName": "Issyk-Kul'skaya Oblast'"}}, {"geometry": {"type": "Point", "coordinates": [73.44418, 40.3138]}, "id": "3671", "type": "Feature", "properties": {"id": "46004-38298-022-GRNT0074", "status": "Completion", "title": "VOCATIONAL EDUCATION & SKILLS DEVELOPMENT", "approvalYear": "2007", "sectors": ["Education"], "locationName": "Gul'cha"}}, {"geometry": {"type": "Point", "coordinates": [74.59, 42.87]}, "id": "3672", "type": "Feature", "properties": {"id": "46004-38298-022-GRNT0074", "status": "Completion", "title": "VOCATIONAL EDUCATION & SKILLS DEVELOPMENT", "approvalYear": "2007", "sectors": ["Education"], "locationName": "Bishkek"}}, {"geometry": {"type": "Point", "coordinates": [72.74586, 41.0376]}, "id": "3673", "type": "Feature", "properties": {"id": "46004-38298-022-GRNT0074", "status": "Completion", "title": "VOCATIONAL EDUCATION & SKILLS DEVELOPMENT", "approvalYear": "2007", "sectors": ["Education"], "locationName": "Bazar-Korgon"}}, {"geometry": {"type": "Point", "coordinates": [70.81939, 40.06259]}, "id": "3674", "type": "Feature", "properties": {"id": "46004-38298-022-GRNT0074", "status": "Completion", "title": "VOCATIONAL EDUCATION & SKILLS DEVELOPMENT", "approvalYear": "2007", "sectors": ["Education"], "locationName": "Batken"}}, {"geometry": {"type": "Point", "coordinates": [72.5, 41.5]}, "id": "3675", "type": "Feature", "properties": {"id": "46004-38298-022-GRNT0074", "status": "Completion", "title": "VOCATIONAL EDUCATION & SKILLS DEVELOPMENT", "approvalYear": "2007", "sectors": ["Education"], "locationName": "Jalal-Abad"}}, {"geometry": {"type": "Point", "coordinates": [72.9402, 41.87079]}, "id": "3676", "type": "Feature", "properties": {"id": "46004-38298-022-GRNT0074", "status": "Completion", "title": "VOCATIONAL EDUCATION & SKILLS DEVELOPMENT", "approvalYear": "2007", "sectors": ["Education"], "locationName": "Toktogul"}}, {"geometry": {"type": "Point", "coordinates": [74.5, 42.41667]}, "id": "3677", "type": "Feature", "properties": {"id": "46004-38298-022-GRNT0074", "status": "Completion", "title": "VOCATIONAL EDUCATION & SKILLS DEVELOPMENT", "approvalYear": "2007", "sectors": ["Education"], "locationName": "Chuyskaya Oblast'"}}, {"geometry": {"type": "Point", "coordinates": [76.27108, 41.56807]}, "id": "3678", "type": "Feature", "properties": {"id": "46004-38298-022-GRNT0074", "status": "Completion", "title": "VOCATIONAL EDUCATION & SKILLS DEVELOPMENT", "approvalYear": "2007", "sectors": ["Education"], "locationName": "Tien Shan"}}, {"geometry": {"type": "Point", "coordinates": [77.18344, 42.70959]}, "id": "3679", "type": "Feature", "properties": {"id": "46004-38298-022-GRNT0074", "status": "Completion", "title": "VOCATIONAL EDUCATION & SKILLS DEVELOPMENT", "approvalYear": "2007", "sectors": ["Education"], "locationName": "Ysyk-Kol"}}, {"geometry": {"type": "Point", "coordinates": [69.56779, 39.93652]}, "id": "3680", "type": "Feature", "properties": {"id": "46004-39015-042-GRNT0077", "status": "Completion", "title": "TAX ADMINISTRATION REFORM AND MODERNIZATION PROJEC", "approvalYear": "2007", "sectors": ["Public sector management"], "locationName": "Sulyukta"}}, {"geometry": {"type": "Point", "coordinates": [69.75, 39.83333]}, "id": "3681", "type": "Feature", "properties": {"id": "46004-39015-042-GRNT0077", "status": "Completion", "title": "TAX ADMINISTRATION REFORM AND MODERNIZATION PROJEC", "approvalYear": "2007", "sectors": ["Public sector management"], "locationName": "Lyaylyakskiy Rayon"}}, {"geometry": {"type": "Point", "coordinates": [75.99111, 41.42866]}, "id": "3682", "type": "Feature", "properties": {"id": "46004-39015-042-GRNT0077", "status": "Completion", "title": "TAX ADMINISTRATION REFORM AND MODERNIZATION PROJEC", "approvalYear": "2007", "sectors": ["Public sector management"], "locationName": "Naryn"}}, {"geometry": {"type": "Point", "coordinates": [72.12793, 40.25684]}, "id": "3683", "type": "Feature", "properties": {"id": "46004-39015-042-GRNT0077", "status": "Completion", "title": "TAX ADMINISTRATION REFORM AND MODERNIZATION PROJEC", "approvalYear": "2007", "sectors": ["Public sector management"], "locationName": "Kzyl-Kiya"}}, {"geometry": {"type": "Point", "coordinates": [76.3326, 42.83349]}, "id": "3684", "type": "Feature", "properties": {"id": "46004-39015-042-GRNT0077", "status": "Completion", "title": "TAX ADMINISTRATION REFORM AND MODERNIZATION PROJEC", "approvalYear": "2007", "sectors": ["Public sector management"], "locationName": "Kemin"}}, {"geometry": {"type": "Point", "coordinates": [78.39362, 42.49068]}, "id": "3685", "type": "Feature", "properties": {"id": "46004-39015-042-GRNT0077", "status": "Completion", "title": "TAX ADMINISTRATION REFORM AND MODERNIZATION PROJEC", "approvalYear": "2007", "sectors": ["Public sector management"], "locationName": "Karakol"}}, {"geometry": {"type": "Point", "coordinates": [73.0, 40.93333]}, "id": "3686", "type": "Feature", "properties": {"id": "46004-39015-042-GRNT0077", "status": "Completion", "title": "TAX ADMINISTRATION REFORM AND MODERNIZATION PROJEC", "approvalYear": "2007", "sectors": ["Public sector management"], "locationName": "Jalal-Abad"}}, {"geometry": {"type": "Point", "coordinates": [70.81939, 40.06259]}, "id": "3687", "type": "Feature", "properties": {"id": "46004-39015-042-GRNT0077", "status": "Completion", "title": "TAX ADMINISTRATION REFORM AND MODERNIZATION PROJEC", "approvalYear": "2007", "sectors": ["Public sector management"], "locationName": "Batken"}}, {"geometry": {"type": "Point", "coordinates": [74.63333, 42.9]}, "id": "3688", "type": "Feature", "properties": {"id": "46004-39015-042-GRNT0077", "status": "Completion", "title": "TAX ADMINISTRATION REFORM AND MODERNIZATION PROJEC", "approvalYear": "2007", "sectors": ["Public sector management"], "locationName": "Alamedinskiy Rayon"}}, {"geometry": {"type": "Point", "coordinates": [74.964, 42.636]}, "id": "3689", "type": "Feature", "properties": {"id": "46004-39015-042-GRNT0077", "status": "Completion", "title": "TAX ADMINISTRATION REFORM AND MODERNIZATION PROJEC", "approvalYear": "2007", "sectors": ["Public sector management"], "locationName": "Ysyk-Ata"}}, {"geometry": {"type": "Point", "coordinates": [73.08, 40.37]}, "id": "3690", "type": "Feature", "properties": {"id": "46004-39015-042-GRNT0077", "status": "Completion", "title": "TAX ADMINISTRATION REFORM AND MODERNIZATION PROJEC", "approvalYear": "2007", "sectors": ["Public sector management"], "locationName": "Kara-Suu"}}, {"geometry": {"type": "Point", "coordinates": [72.68, 40.07]}, "id": "3691", "type": "Feature", "properties": {"id": "46004-39015-042-GRNT0077", "status": "Completion", "title": "TAX ADMINISTRATION REFORM AND MODERNIZATION PROJEC", "approvalYear": "2007", "sectors": ["Public sector management"], "locationName": "Nookat"}}, {"geometry": {"type": "Point", "coordinates": [71.58333, 40.0]}, "id": "3692", "type": "Feature", "properties": {"id": "46004-39015-042-GRNT0077", "status": "Completion", "title": "TAX ADMINISTRATION REFORM AND MODERNIZATION PROJEC", "approvalYear": "2007", "sectors": ["Public sector management"], "locationName": "Kadamjaiskiy Raion"}}, {"geometry": {"type": "Point", "coordinates": [71.0, 39.75]}, "id": "3693", "type": "Feature", "properties": {"id": "46004-39015-042-GRNT0077", "status": "Completion", "title": "TAX ADMINISTRATION REFORM AND MODERNIZATION PROJEC", "approvalYear": "2007", "sectors": ["Public sector management"], "locationName": "Batkenskiy Rayon"}}, {"geometry": {"type": "Point", "coordinates": [78.5, 42.75]}, "id": "3694", "type": "Feature", "properties": {"id": "46004-39015-042-GRNT0077", "status": "Completion", "title": "TAX ADMINISTRATION REFORM AND MODERNIZATION PROJEC", "approvalYear": "2007", "sectors": ["Public sector management"], "locationName": "Tyupskiy Rayon"}}, {"geometry": {"type": "Point", "coordinates": [75.30149, 42.84194]}, "id": "3695", "type": "Feature", "properties": {"id": "46004-39015-042-GRNT0077", "status": "Completion", "title": "TAX ADMINISTRATION REFORM AND MODERNIZATION PROJEC", "approvalYear": "2007", "sectors": ["Public sector management"], "locationName": "Tokmok"}}, {"geometry": {"type": "Point", "coordinates": [72.24274, 42.52277]}, "id": "3696", "type": "Feature", "properties": {"id": "46004-39015-042-GRNT0077", "status": "Completion", "title": "TAX ADMINISTRATION REFORM AND MODERNIZATION PROJEC", "approvalYear": "2007", "sectors": ["Public sector management"], "locationName": "Talas"}}, {"geometry": {"type": "Point", "coordinates": [74.33333, 42.83333]}, "id": "3697", "type": "Feature", "properties": {"id": "46004-39015-042-GRNT0077", "status": "Completion", "title": "TAX ADMINISTRATION REFORM AND MODERNIZATION PROJEC", "approvalYear": "2007", "sectors": ["Public sector management"], "locationName": "Sokuluk"}}, {"geometry": {"type": "Point", "coordinates": [73.30068, 40.76994]}, "id": "3698", "type": "Feature", "properties": {"id": "46004-39015-042-GRNT0077", "status": "Completion", "title": "TAX ADMINISTRATION REFORM AND MODERNIZATION PROJEC", "approvalYear": "2007", "sectors": ["Public sector management"], "locationName": "Uzgen"}}, {"geometry": {"type": "Point", "coordinates": [72.80826, 40.51506]}, "id": "3699", "type": "Feature", "properties": {"id": "46004-39015-042-GRNT0077", "status": "Completion", "title": "TAX ADMINISTRATION REFORM AND MODERNIZATION PROJEC", "approvalYear": "2007", "sectors": ["Public sector management"], "locationName": "Osh"}}, {"geometry": {"type": "Point", "coordinates": [77.86308, 42.05302]}, "id": "3700", "type": "Feature", "properties": {"id": "46004-39015-042-GRNT0077", "status": "Completion", "title": "TAX ADMINISTRATION REFORM AND MODERNIZATION PROJEC", "approvalYear": "2007", "sectors": ["Public sector management"], "locationName": "Jety-Oguz"}}, {"geometry": {"type": "Point", "coordinates": [74.26057, 42.7957]}, "id": "3701", "type": "Feature", "properties": {"id": "46004-39015-042-GRNT0077", "status": "Completion", "title": "TAX ADMINISTRATION REFORM AND MODERNIZATION PROJEC", "approvalYear": "2007", "sectors": ["Public sector management"], "locationName": "Oktyabr'"}}, {"geometry": {"type": "Point", "coordinates": [78.99135, 42.19937]}, "id": "3702", "type": "Feature", "properties": {"id": "46004-39015-042-GRNT0077", "status": "Completion", "title": "TAX ADMINISTRATION REFORM AND MODERNIZATION PROJEC", "approvalYear": "2007", "sectors": ["Public sector management"], "locationName": "Ak-Suu"}}, {"geometry": {"type": "Point", "coordinates": [68.77905, 38.53575]}, "id": "3703", "type": "Feature", "properties": {"id": "46004-39676-023-GRNT0084", "status": "Completion", "title": "CAREC REGIONAL ROAD CORRIDOR IMPROVEMENT PROJECT (", "approvalYear": "2007", "sectors": ["Transport"], "locationName": "Dushanbe"}}, {"geometry": {"type": "Point", "coordinates": [70.35998, 39.23491]}, "id": "3704", "type": "Feature", "properties": {"id": "46004-39676-023-GRNT0084", "status": "Completion", "title": "CAREC REGIONAL ROAD CORRIDOR IMPROVEMENT PROJECT (", "approvalYear": "2007", "sectors": ["Transport"], "locationName": "Nohiyai Rasht"}}, {"geometry": {"type": "Point", "coordinates": [71.57632, 39.291]}, "id": "3705", "type": "Feature", "properties": {"id": "46004-39676-023-GRNT0084", "status": "Completion", "title": "CAREC REGIONAL ROAD CORRIDOR IMPROVEMENT PROJECT (", "approvalYear": "2007", "sectors": ["Transport"], "locationName": "Nohiyai Jirghatol"}}, {"geometry": {"type": "Point", "coordinates": [70.67358, 39.10055]}, "id": "3706", "type": "Feature", "properties": {"id": "46004-39676-023-GRNT0084", "status": "Completion", "title": "CAREC REGIONAL ROAD CORRIDOR IMPROVEMENT PROJECT (", "approvalYear": "2007", "sectors": ["Transport"], "locationName": "Nimichi-Poyen"}}, {"geometry": {"type": "Point", "coordinates": [71.19155, 39.21966]}, "id": "3707", "type": "Feature", "properties": {"id": "46004-39676-023-GRNT0084", "status": "Completion", "title": "CAREC REGIONAL ROAD CORRIDOR IMPROVEMENT PROJECT (", "approvalYear": "2007", "sectors": ["Transport"], "locationName": "Jirghatol"}}], "properties": {"name": "Kyrgyz Republic", "bounds": [69.22629602000012, 39.189236959000084, 80.2575606690001, 43.261701558000084]}}