{"type": "FeatureCollection", "id": "MM", "features": [{"geometry": {"type": "Point", "coordinates": [96.0, 21.0]}, "id": "4989", "type": "Feature", "properties": {"id": "46004-46372-001-LN2984", "status": "Completion", "title": "SUPPORT FOR MYANMAR'S REFORMS FOR INCLUSIVE GROWTH PROGRAM", "approvalYear": "2013", "sectors": ["Public sector management"], "locationName": "Myanmar [Burma]"}}, {"geometry": {"type": "Point", "coordinates": [96.25, 20.25]}, "id": "4990", "type": "Feature", "properties": {"id": "46004-46390-003-LN3084", "status": "Implementation", "title": "POWER DISTRIBUTION IMPROVEMENT PROJECT", "approvalYear": "2014", "sectors": ["Energy"], "locationName": "Yamethin District"}}, {"geometry": {"type": "Point", "coordinates": [95.5, 23.0]}, "id": "4991", "type": "Feature", "properties": {"id": "46004-46390-003-LN3084", "status": "Implementation", "title": "POWER DISTRIBUTION IMPROVEMENT PROJECT", "approvalYear": "2014", "sectors": ["Energy"], "locationName": "Shwebo District"}}, {"geometry": {"type": "Point", "coordinates": [95.5, 22.0]}, "id": "4992", "type": "Feature", "properties": {"id": "46004-46390-003-LN3084", "status": "Implementation", "title": "POWER DISTRIBUTION IMPROVEMENT PROJECT", "approvalYear": "2014", "sectors": ["Energy"], "locationName": "Sagaing District"}}, {"geometry": {"type": "Point", "coordinates": [95.25, 21.25]}, "id": "4993", "type": "Feature", "properties": {"id": "46004-46390-003-LN3084", "status": "Implementation", "title": "POWER DISTRIBUTION IMPROVEMENT PROJECT", "approvalYear": "2014", "sectors": ["Energy"], "locationName": "Myingyan District"}}, {"geometry": {"type": "Point", "coordinates": [96.09768, 16.92406]}, "id": "4994", "type": "Feature", "properties": {"id": "46004-46390-003-LN3084", "status": "Implementation", "title": "POWER DISTRIBUTION IMPROVEMENT PROJECT", "approvalYear": "2014", "sectors": ["Energy"], "locationName": "Mingaladon"}}, {"geometry": {"type": "Point", "coordinates": [96.0, 21.0]}, "id": "4995", "type": "Feature", "properties": {"id": "46004-46390-003-LN3084", "status": "Implementation", "title": "POWER DISTRIBUTION IMPROVEMENT PROJECT", "approvalYear": "2014", "sectors": ["Energy"], "locationName": "Meiktila District"}}, {"geometry": {"type": "Point", "coordinates": [94.93246, 20.14956]}, "id": "4996", "type": "Feature", "properties": {"id": "46004-46390-003-LN3084", "status": "Implementation", "title": "POWER DISTRIBUTION IMPROVEMENT PROJECT", "approvalYear": "2014", "sectors": ["Energy"], "locationName": "Magway"}}, {"geometry": {"type": "Point", "coordinates": [95.0, 22.25]}, "id": "4997", "type": "Feature", "properties": {"id": "46004-46390-003-LN3084", "status": "Implementation", "title": "POWER DISTRIBUTION IMPROVEMENT PROJECT", "approvalYear": "2014", "sectors": ["Energy"], "locationName": "Lower Chindwin District"}}, {"geometry": {"type": "Point", "coordinates": [96.25, 21.75]}, "id": "4998", "type": "Feature", "properties": {"id": "46004-46390-003-LN3084", "status": "Implementation", "title": "POWER DISTRIBUTION IMPROVEMENT PROJECT", "approvalYear": "2014", "sectors": ["Energy"], "locationName": "Kyaukse District"}}, {"geometry": {"type": "Point", "coordinates": [96.0, 24.0]}, "id": "4999", "type": "Feature", "properties": {"id": "46004-46390-003-LN3084", "status": "Implementation", "title": "POWER DISTRIBUTION IMPROVEMENT PROJECT", "approvalYear": "2014", "sectors": ["Energy"], "locationName": "Katha District"}}, {"geometry": {"type": "Point", "coordinates": [96.11974, 16.8353]}, "id": "5000", "type": "Feature", "properties": {"id": "46004-46390-003-LN3084", "status": "Implementation", "title": "POWER DISTRIBUTION IMPROVEMENT PROJECT", "approvalYear": "2014", "sectors": ["Energy"], "locationName": "Kamayut"}}, {"geometry": {"type": "Point", "coordinates": [96.26945, 17.15123]}, "id": "5001", "type": "Feature", "properties": {"id": "46004-46390-003-LN3084", "status": "Implementation", "title": "POWER DISTRIBUTION IMPROVEMENT PROJECT", "approvalYear": "2014", "sectors": ["Energy"], "locationName": "Insein"}}, {"geometry": {"type": "Point", "coordinates": [95.21512, 19.36838]}, "id": "5002", "type": "Feature", "properties": {"id": "46004-46390-003-LN3084", "status": "Implementation", "title": "POWER DISTRIBUTION IMPROVEMENT PROJECT", "approvalYear": "2014", "sectors": ["Energy"], "locationName": "Myaydo"}}, {"geometry": {"type": "Point", "coordinates": [96.13944, 16.87]}, "id": "5003", "type": "Feature", "properties": {"id": "46004-46390-003-LN3084", "status": "Implementation", "title": "POWER DISTRIBUTION IMPROVEMENT PROJECT", "approvalYear": "2014", "sectors": ["Energy"], "locationName": "Mayangon"}}, {"geometry": {"type": "Point", "coordinates": [94.41054, 23.05571]}, "id": "5004", "type": "Feature", "properties": {"id": "46004-46390-003-LN3084", "status": "Implementation", "title": "POWER DISTRIBUTION IMPROVEMENT PROJECT", "approvalYear": "2014", "sectors": ["Energy"], "locationName": "Kale District"}}, {"geometry": {"type": "Point", "coordinates": [96.06667, 16.85]}, "id": "5005", "type": "Feature", "properties": {"id": "46004-46390-003-LN3084", "status": "Implementation", "title": "POWER DISTRIBUTION IMPROVEMENT PROJECT", "approvalYear": "2014", "sectors": ["Energy"], "locationName": "Hlaingthaya Township"}}], "properties": {"name": "Myanmar", "bounds": [92.17497277900006, 9.790716864000132, 101.1738550210001, 28.53846588100005]}}