{"type": "FeatureCollection", "id": "NP", "features": [{"geometry": {"type": "Point", "coordinates": [85.3206, 27.70169]}, "id": "5135", "type": "Feature", "properties": {"id": "46004-38347-022-GRNT0106", "status": "Implementation", "title": "INFORMATION AND COMMUNICATION TECHNOLOGY DEVELOPME", "approvalYear": "2008", "sectors": ["Information and communication technology"], "locationName": "Kathmandu"}}, {"geometry": {"type": "Point", "coordinates": [84.0, 28.0]}, "id": "5136", "type": "Feature", "properties": {"id": "46004-36172-042-GRNT0118", "status": "Completion", "title": "GOVERNANCE SUPPORT PROGRAM (SUBPROGRAM 1)", "approvalYear": "2008", "sectors": ["Public sector management"], "locationName": "Nepal"}}, {"geometry": {"type": "Point", "coordinates": [87.16667, 26.66667]}, "id": "5137", "type": "Feature", "properties": {"id": "46004-43001-012-GRNT0150", "status": "Implementation", "title": "EMERGENCY FLOOD DAMAGE REHABILITATION PROJECT", "approvalYear": "2009", "sectors": ["Transport"], "locationName": "Sunsari"}}, {"geometry": {"type": "Point", "coordinates": [80.33333, 28.83333]}, "id": "5138", "type": "Feature", "properties": {"id": "46004-43001-012-GRNT0150", "status": "Implementation", "title": "EMERGENCY FLOOD DAMAGE REHABILITATION PROJECT", "approvalYear": "2009", "sectors": ["Transport"], "locationName": "Kanchanpur"}}, {"geometry": {"type": "Point", "coordinates": [80.91667, 28.75]}, "id": "5139", "type": "Feature", "properties": {"id": "46004-43001-012-GRNT0150", "status": "Implementation", "title": "EMERGENCY FLOOD DAMAGE REHABILITATION PROJECT", "approvalYear": "2009", "sectors": ["Transport"], "locationName": "Kailali"}}, {"geometry": {"type": "Point", "coordinates": [84.0, 28.0]}, "id": "5140", "type": "Feature", "properties": {"id": "46004-41022-022-GRNT0157", "status": "Implementation", "title": "SECOND SMALL TOWNS WATER SUPPLY AND SANITATION SEC", "approvalYear": "2009", "sectors": ["Water supply and other urban infrastructure and services"], "locationName": "Nepal"}}, {"geometry": {"type": "Point", "coordinates": [83.27714, 27.48619]}, "id": "5141", "type": "Feature", "properties": {"id": "46004-39399-013-GRNT0179", "status": "Implementation", "title": "SOUTH ASIA TOURISM INFRASTRUCTURE DEVT PROJECT-NEP", "approvalYear": "2010", "sectors": ["Transport"], "locationName": "Lumbini"}}, {"geometry": {"type": "Point", "coordinates": [83.41625, 27.5057]}, "id": "5142", "type": "Feature", "properties": {"id": "46004-39399-013-GRNT0179", "status": "Implementation", "title": "SOUTH ASIA TOURISM INFRASTRUCTURE DEVT PROJECT-NEP", "approvalYear": "2010", "sectors": ["Transport"], "locationName": "Bhairahawa"}}, {"geometry": {"type": "Point", "coordinates": [85.3591, 27.69658]}, "id": "5143", "type": "Feature", "properties": {"id": "46004-38349-013-GRNT0181", "status": "Implementation", "title": "AIR TRANSPORT CAPACITY ENHANCEMENT PROJECT", "approvalYear": "2010", "sectors": ["Transport"], "locationName": "Tribhuvan International Airport"}}, {"geometry": {"type": "Point", "coordinates": [86.7297, 27.6869]}, "id": "5144", "type": "Feature", "properties": {"id": "46004-38349-013-GRNT0181", "status": "Implementation", "title": "AIR TRANSPORT CAPACITY ENHANCEMENT PROJECT", "approvalYear": "2010", "sectors": ["Transport"], "locationName": "Tenzing-Hillary Airport"}}, {"geometry": {"type": "Point", "coordinates": [81.8189, 29.9711]}, "id": "5145", "type": "Feature", "properties": {"id": "46004-38349-013-GRNT0181", "status": "Implementation", "title": "AIR TRANSPORT CAPACITY ENHANCEMENT PROJECT", "approvalYear": "2010", "sectors": ["Transport"], "locationName": "Simikot Airport"}}, {"geometry": {"type": "Point", "coordinates": [82.14666, 29.52164]}, "id": "5146", "type": "Feature", "properties": {"id": "46004-38349-013-GRNT0181", "status": "Implementation", "title": "AIR TRANSPORT CAPACITY ENHANCEMENT PROJECT", "approvalYear": "2010", "sectors": ["Transport"], "locationName": "Talcha Airport"}}, {"geometry": {"type": "Point", "coordinates": [84.0, 28.0]}, "id": "5147", "type": "Feature", "properties": {"id": "46004-36169-023-GRNT0208", "status": "Implementation", "title": "SECOND RURAL FINANCE SECTOR DEVT PROJECT", "approvalYear": "2010", "sectors": ["Finance"], "locationName": "Nepal"}}, {"geometry": {"type": "Point", "coordinates": [85.3206, 27.70169]}, "id": "5148", "type": "Feature", "properties": {"id": "46004-44058-013-GRNT0212", "status": "Implementation", "title": "KATHMANDU SUSTAINABLE URBAN TRANSPORT PROJECT", "approvalYear": "2010", "sectors": ["Transport"], "locationName": "Kathmandu"}}, {"geometry": {"type": "Point", "coordinates": [86.33333, 26.75]}, "id": "5149", "type": "Feature", "properties": {"id": "46004-34306-013-LN2143", "status": "Completion", "title": "GENDER EQUALITY AND EMPOWERMENT OF WOMEN PROJECT", "approvalYear": "2006", "sectors": ["Agriculture, natural resources and rural development"], "locationName": "Siraha"}}, {"geometry": {"type": "Point", "coordinates": [86.0, 27.25]}, "id": "5150", "type": "Feature", "properties": {"id": "46004-34306-013-LN2143", "status": "Completion", "title": "GENDER EQUALITY AND EMPOWERMENT OF WOMEN PROJECT", "approvalYear": "2006", "sectors": ["Agriculture, natural resources and rural development"], "locationName": "Sindhuli"}}, {"geometry": {"type": "Point", "coordinates": [85.58333, 27.0]}, "id": "5151", "type": "Feature", "properties": {"id": "46004-34306-013-LN2143", "status": "Completion", "title": "GENDER EQUALITY AND EMPOWERMENT OF WOMEN PROJECT", "approvalYear": "2006", "sectors": ["Agriculture, natural resources and rural development"], "locationName": "Sarlahi"}}, {"geometry": {"type": "Point", "coordinates": [86.75, 26.58333]}, "id": "5152", "type": "Feature", "properties": {"id": "46004-34306-013-LN2143", "status": "Completion", "title": "GENDER EQUALITY AND EMPOWERMENT OF WOMEN PROJECT", "approvalYear": "2006", "sectors": ["Agriculture, natural resources and rural development"], "locationName": "Saptari"}}, {"geometry": {"type": "Point", "coordinates": [82.25, 28.41667]}, "id": "5153", "type": "Feature", "properties": {"id": "46004-34306-013-LN2143", "status": "Completion", "title": "GENDER EQUALITY AND EMPOWERMENT OF WOMEN PROJECT", "approvalYear": "2006", "sectors": ["Agriculture, natural resources and rural development"], "locationName": "Salyan"}}, {"geometry": {"type": "Point", "coordinates": [85.33333, 27.0]}, "id": "5154", "type": "Feature", "properties": {"id": "46004-34306-013-LN2143", "status": "Completion", "title": "GENDER EQUALITY AND EMPOWERMENT OF WOMEN PROJECT", "approvalYear": "2006", "sectors": ["Agriculture, natural resources and rural development"], "locationName": "Rautahat"}}, {"geometry": {"type": "Point", "coordinates": [86.08333, 27.41667]}, "id": "5155", "type": "Feature", "properties": {"id": "46004-34306-013-LN2143", "status": "Completion", "title": "GENDER EQUALITY AND EMPOWERMENT OF WOMEN PROJECT", "approvalYear": "2006", "sectors": ["Agriculture, natural resources and rural development"], "locationName": "Ramechhap"}}, {"geometry": {"type": "Point", "coordinates": [82.83333, 28.08333]}, "id": "5156", "type": "Feature", "properties": {"id": "46004-34306-013-LN2143", "status": "Completion", "title": "GENDER EQUALITY AND EMPOWERMENT OF WOMEN PROJECT", "approvalYear": "2006", "sectors": ["Agriculture, natural resources and rural development"], "locationName": "Pyuthan"}}, {"geometry": {"type": "Point", "coordinates": [83.66667, 28.41667]}, "id": "5157", "type": "Feature", "properties": {"id": "46004-34306-013-LN2143", "status": "Completion", "title": "GENDER EQUALITY AND EMPOWERMENT OF WOMEN PROJECT", "approvalYear": "2006", "sectors": ["Agriculture, natural resources and rural development"], "locationName": "Parbat"}}, {"geometry": {"type": "Point", "coordinates": [82.41667, 29.58333]}, "id": "5158", "type": "Feature", "properties": {"id": "46004-34306-013-LN2143", "status": "Completion", "title": "GENDER EQUALITY AND EMPOWERMENT OF WOMEN PROJECT", "approvalYear": "2006", "sectors": ["Agriculture, natural resources and rural development"], "locationName": "Mugu"}}, {"geometry": {"type": "Point", "coordinates": [85.83333, 26.91667]}, "id": "5159", "type": "Feature", "properties": {"id": "46004-34306-013-LN2143", "status": "Completion", "title": "GENDER EQUALITY AND EMPOWERMENT OF WOMEN PROJECT", "approvalYear": "2006", "sectors": ["Agriculture, natural resources and rural development"], "locationName": "Mahottari"}}, {"geometry": {"type": "Point", "coordinates": [85.33333, 27.58333]}, "id": "5160", "type": "Feature", "properties": {"id": "46004-34306-013-LN2143", "status": "Completion", "title": "GENDER EQUALITY AND EMPOWERMENT OF WOMEN PROJECT", "approvalYear": "2006", "sectors": ["Agriculture, natural resources and rural development"], "locationName": "Lalitpur"}}, {"geometry": {"type": "Point", "coordinates": [85.3206, 27.70169]}, "id": "5161", "type": "Feature", "properties": {"id": "46004-34306-013-LN2143", "status": "Completion", "title": "GENDER EQUALITY AND EMPOWERMENT OF WOMEN PROJECT", "approvalYear": "2006", "sectors": ["Agriculture, natural resources and rural development"], "locationName": "Kathmandu"}}, {"geometry": {"type": "Point", "coordinates": [84.0, 28.33333]}, "id": "5162", "type": "Feature", "properties": {"id": "46004-34306-013-LN2143", "status": "Completion", "title": "GENDER EQUALITY AND EMPOWERMENT OF WOMEN PROJECT", "approvalYear": "2006", "sectors": ["Agriculture, natural resources and rural development"], "locationName": "Kaski"}}, {"geometry": {"type": "Point", "coordinates": [81.83333, 29.25]}, "id": "5163", "type": "Feature", "properties": {"id": "46004-34306-013-LN2143", "status": "Completion", "title": "GENDER EQUALITY AND EMPOWERMENT OF WOMEN PROJECT", "approvalYear": "2006", "sectors": ["Agriculture, natural resources and rural development"], "locationName": "Kalikot"}}, {"geometry": {"type": "Point", "coordinates": [82.18333, 29.27528]}, "id": "5164", "type": "Feature", "properties": {"id": "46004-34306-013-LN2143", "status": "Completion", "title": "GENDER EQUALITY AND EMPOWERMENT OF WOMEN PROJECT", "approvalYear": "2006", "sectors": ["Agriculture, natural resources and rural development"], "locationName": "Jumla"}}, {"geometry": {"type": "Point", "coordinates": [80.91667, 29.25]}, "id": "5165", "type": "Feature", "properties": {"id": "46004-34306-013-LN2143", "status": "Completion", "title": "GENDER EQUALITY AND EMPOWERMENT OF WOMEN PROJECT", "approvalYear": "2006", "sectors": ["Agriculture, natural resources and rural development"], "locationName": "Doti"}}, {"geometry": {"type": "Point", "coordinates": [87.33333, 27.0]}, "id": "5166", "type": "Feature", "properties": {"id": "46004-34306-013-LN2143", "status": "Completion", "title": "GENDER EQUALITY AND EMPOWERMENT OF WOMEN PROJECT", "approvalYear": "2006", "sectors": ["Agriculture, natural resources and rural development"], "locationName": "Dhankuta"}}, {"geometry": {"type": "Point", "coordinates": [82.31712, 28.11681]}, "id": "5167", "type": "Feature", "properties": {"id": "46004-34306-013-LN2143", "status": "Completion", "title": "GENDER EQUALITY AND EMPOWERMENT OF WOMEN PROJECT", "approvalYear": "2006", "sectors": ["Agriculture, natural resources and rural development"], "locationName": "Dang Deukhuri District"}}, {"geometry": {"type": "Point", "coordinates": [84.5, 27.58333]}, "id": "5168", "type": "Feature", "properties": {"id": "46004-34306-013-LN2143", "status": "Completion", "title": "GENDER EQUALITY AND EMPOWERMENT OF WOMEN PROJECT", "approvalYear": "2006", "sectors": ["Agriculture, natural resources and rural development"], "locationName": "Chitawan"}}, {"geometry": {"type": "Point", "coordinates": [85.41673, 27.66734]}, "id": "5169", "type": "Feature", "properties": {"id": "46004-34306-013-LN2143", "status": "Completion", "title": "GENDER EQUALITY AND EMPOWERMENT OF WOMEN PROJECT", "approvalYear": "2006", "sectors": ["Agriculture, natural resources and rural development"], "locationName": "Bhaktapur"}}, {"geometry": {"type": "Point", "coordinates": [85.08333, 27.08333]}, "id": "5170", "type": "Feature", "properties": {"id": "46004-34306-013-LN2143", "status": "Completion", "title": "GENDER EQUALITY AND EMPOWERMENT OF WOMEN PROJECT", "approvalYear": "2006", "sectors": ["Agriculture, natural resources and rural development"], "locationName": "Bara"}}, {"geometry": {"type": "Point", "coordinates": [81.83333, 28.16667]}, "id": "5171", "type": "Feature", "properties": {"id": "46004-34306-013-LN2143", "status": "Completion", "title": "GENDER EQUALITY AND EMPOWERMENT OF WOMEN PROJECT", "approvalYear": "2006", "sectors": ["Agriculture, natural resources and rural development"], "locationName": "Banke"}}, {"geometry": {"type": "Point", "coordinates": [81.5, 29.5]}, "id": "5172", "type": "Feature", "properties": {"id": "46004-34306-013-LN2143", "status": "Completion", "title": "GENDER EQUALITY AND EMPOWERMENT OF WOMEN PROJECT", "approvalYear": "2006", "sectors": ["Agriculture, natural resources and rural development"], "locationName": "Bajura"}}, {"geometry": {"type": "Point", "coordinates": [81.25, 29.66667]}, "id": "5173", "type": "Feature", "properties": {"id": "46004-34306-013-LN2143", "status": "Completion", "title": "GENDER EQUALITY AND EMPOWERMENT OF WOMEN PROJECT", "approvalYear": "2006", "sectors": ["Agriculture, natural resources and rural development"], "locationName": "Bajhang"}}, {"geometry": {"type": "Point", "coordinates": [80.58333, 29.5]}, "id": "5174", "type": "Feature", "properties": {"id": "46004-34306-013-LN2143", "status": "Completion", "title": "GENDER EQUALITY AND EMPOWERMENT OF WOMEN PROJECT", "approvalYear": "2006", "sectors": ["Agriculture, natural resources and rural development"], "locationName": "Baitadi"}}, {"geometry": {"type": "Point", "coordinates": [83.16667, 28.41667]}, "id": "5175", "type": "Feature", "properties": {"id": "46004-34306-013-LN2143", "status": "Completion", "title": "GENDER EQUALITY AND EMPOWERMENT OF WOMEN PROJECT", "approvalYear": "2006", "sectors": ["Agriculture, natural resources and rural development"], "locationName": "Baglung"}}, {"geometry": {"type": "Point", "coordinates": [81.33333, 29.08333]}, "id": "5176", "type": "Feature", "properties": {"id": "46004-34306-013-LN2143", "status": "Completion", "title": "GENDER EQUALITY AND EMPOWERMENT OF WOMEN PROJECT", "approvalYear": "2006", "sectors": ["Agriculture, natural resources and rural development"], "locationName": "Achham"}}, {"geometry": {"type": "Point", "coordinates": [86.01, 26.83]}, "id": "5177", "type": "Feature", "properties": {"id": "46004-34306-013-LN2143", "status": "Completion", "title": "GENDER EQUALITY AND EMPOWERMENT OF WOMEN PROJECT", "approvalYear": "2006", "sectors": ["Agriculture, natural resources and rural development"], "locationName": "Dhanusa"}}, {"geometry": {"type": "Point", "coordinates": [84.27862, 27.96544]}, "id": "5178", "type": "Feature", "properties": {"id": "46004-43281-022-GRNT0215", "status": "Implementation", "title": "DETAILED ENGINEERING STUDY FOR THE UPPER SETI HYDR", "approvalYear": "2010", "sectors": ["Energy"], "locationName": "Madi River"}}, {"geometry": {"type": "Point", "coordinates": [82.31712, 28.11681]}, "id": "5179", "type": "Feature", "properties": {"id": "46004-38417-022-GRNT0219", "status": "Implementation", "title": "COMMUNITY IRRIGATION PROJECT", "approvalYear": "2011", "sectors": ["Agriculture, natural resources and rural development"], "locationName": "Dang Deukhuri District"}}, {"geometry": {"type": "Point", "coordinates": [81.25, 29.66667]}, "id": "5180", "type": "Feature", "properties": {"id": "46004-38417-022-GRNT0219", "status": "Implementation", "title": "COMMUNITY IRRIGATION PROJECT", "approvalYear": "2011", "sectors": ["Agriculture, natural resources and rural development"], "locationName": "Bajhang"}}, {"geometry": {"type": "Point", "coordinates": [82.25, 28.41667]}, "id": "5181", "type": "Feature", "properties": {"id": "46004-38417-022-GRNT0219", "status": "Implementation", "title": "COMMUNITY IRRIGATION PROJECT", "approvalYear": "2011", "sectors": ["Agriculture, natural resources and rural development"], "locationName": "Salyan"}}, {"geometry": {"type": "Point", "coordinates": [82.58333, 28.75]}, "id": "5182", "type": "Feature", "properties": {"id": "46004-38417-022-GRNT0219", "status": "Implementation", "title": "COMMUNITY IRRIGATION PROJECT", "approvalYear": "2011", "sectors": ["Agriculture, natural resources and rural development"], "locationName": "Rukum"}}, {"geometry": {"type": "Point", "coordinates": [82.75, 28.41667]}, "id": "5183", "type": "Feature", "properties": {"id": "46004-38417-022-GRNT0219", "status": "Implementation", "title": "COMMUNITY IRRIGATION PROJECT", "approvalYear": "2011", "sectors": ["Agriculture, natural resources and rural development"], "locationName": "Rolpa"}}, {"geometry": {"type": "Point", "coordinates": [82.83333, 28.08333]}, "id": "5184", "type": "Feature", "properties": {"id": "46004-38417-022-GRNT0219", "status": "Implementation", "title": "COMMUNITY IRRIGATION PROJECT", "approvalYear": "2011", "sectors": ["Agriculture, natural resources and rural development"], "locationName": "Pyuthan"}}, {"geometry": {"type": "Point", "coordinates": [82.41667, 29.58333]}, "id": "5185", "type": "Feature", "properties": {"id": "46004-38417-022-GRNT0219", "status": "Implementation", "title": "COMMUNITY IRRIGATION PROJECT", "approvalYear": "2011", "sectors": ["Agriculture, natural resources and rural development"], "locationName": "Mugu"}}, {"geometry": {"type": "Point", "coordinates": [82.91667, 27.66667]}, "id": "5186", "type": "Feature", "properties": {"id": "46004-38417-022-GRNT0219", "status": "Implementation", "title": "COMMUNITY IRRIGATION PROJECT", "approvalYear": "2011", "sectors": ["Agriculture, natural resources and rural development"], "locationName": "Kapilbastu"}}, {"geometry": {"type": "Point", "coordinates": [80.33333, 28.83333]}, "id": "5187", "type": "Feature", "properties": {"id": "46004-38417-022-GRNT0219", "status": "Implementation", "title": "COMMUNITY IRRIGATION PROJECT", "approvalYear": "2011", "sectors": ["Agriculture, natural resources and rural development"], "locationName": "Kanchanpur"}}, {"geometry": {"type": "Point", "coordinates": [80.91667, 28.75]}, "id": "5188", "type": "Feature", "properties": {"id": "46004-38417-022-GRNT0219", "status": "Implementation", "title": "COMMUNITY IRRIGATION PROJECT", "approvalYear": "2011", "sectors": ["Agriculture, natural resources and rural development"], "locationName": "Kailali"}}, {"geometry": {"type": "Point", "coordinates": [82.18333, 29.27528]}, "id": "5189", "type": "Feature", "properties": {"id": "46004-38417-022-GRNT0219", "status": "Implementation", "title": "COMMUNITY IRRIGATION PROJECT", "approvalYear": "2011", "sectors": ["Agriculture, natural resources and rural development"], "locationName": "Jumla"}}, {"geometry": {"type": "Point", "coordinates": [80.91667, 29.25]}, "id": "5190", "type": "Feature", "properties": {"id": "46004-38417-022-GRNT0219", "status": "Implementation", "title": "COMMUNITY IRRIGATION PROJECT", "approvalYear": "2011", "sectors": ["Agriculture, natural resources and rural development"], "locationName": "Doti"}}, {"geometry": {"type": "Point", "coordinates": [86.66667, 27.23333]}, "id": "5191", "type": "Feature", "properties": {"id": "46004-44143-013-GRNT0225", "status": "Implementation", "title": "SUBREGIONAL TRANSPORT ENHANCEMENT PROJECT", "approvalYear": "2011", "sectors": ["Transport"], "locationName": "Sagarmatha Zone"}}, {"geometry": {"type": "Point", "coordinates": [86.50502, 27.31032]}, "id": "5192", "type": "Feature", "properties": {"id": "46004-44143-013-GRNT0225", "status": "Implementation", "title": "SUBREGIONAL TRANSPORT ENHANCEMENT PROJECT", "approvalYear": "2011", "sectors": ["Transport"], "locationName": "Okhaldhunga"}}, {"geometry": {"type": "Point", "coordinates": [87.31667, 27.15]}, "id": "5193", "type": "Feature", "properties": {"id": "46004-44143-013-GRNT0225", "status": "Implementation", "title": "SUBREGIONAL TRANSPORT ENHANCEMENT PROJECT", "approvalYear": "2011", "sectors": ["Transport"], "locationName": "Kosi Zone"}}, {"geometry": {"type": "Point", "coordinates": [87.2039, 27.37469]}, "id": "5194", "type": "Feature", "properties": {"id": "46004-44143-013-GRNT0225", "status": "Implementation", "title": "SUBREGIONAL TRANSPORT ENHANCEMENT PROJECT", "approvalYear": "2011", "sectors": ["Transport"], "locationName": "Khandbari"}}, {"geometry": {"type": "Point", "coordinates": [81.66667, 28.58333]}, "id": "5195", "type": "Feature", "properties": {"id": "46004-44143-013-GRNT0225", "status": "Implementation", "title": "SUBREGIONAL TRANSPORT ENHANCEMENT PROJECT", "approvalYear": "2011", "sectors": ["Transport"], "locationName": "Bheri Zone"}}, {"geometry": {"type": "Point", "coordinates": [83.41667, 27.68333]}, "id": "5196", "type": "Feature", "properties": {"id": "46004-44143-013-GRNT0225", "status": "Implementation", "title": "SUBREGIONAL TRANSPORT ENHANCEMENT PROJECT", "approvalYear": "2011", "sectors": ["Transport"], "locationName": "Bhairahawa"}}, {"geometry": {"type": "Point", "coordinates": [86.58694, 27.50111]}, "id": "5197", "type": "Feature", "properties": {"id": "46004-44143-013-GRNT0225", "status": "Implementation", "title": "SUBREGIONAL TRANSPORT ENHANCEMENT PROJECT", "approvalYear": "2011", "sectors": ["Transport"], "locationName": "Salleri"}}, {"geometry": {"type": "Point", "coordinates": [81.68472, 28.19389]}, "id": "5198", "type": "Feature", "properties": {"id": "46004-44143-013-GRNT0225", "status": "Implementation", "title": "SUBREGIONAL TRANSPORT ENHANCEMENT PROJECT", "approvalYear": "2011", "sectors": ["Transport"], "locationName": "Kohalpur"}}, {"geometry": {"type": "Point", "coordinates": [81.61667, 28.05]}, "id": "5199", "type": "Feature", "properties": {"id": "46004-44143-013-GRNT0225", "status": "Implementation", "title": "SUBREGIONAL TRANSPORT ENHANCEMENT PROJECT", "approvalYear": "2011", "sectors": ["Transport"], "locationName": "Nepalgunj"}}, {"geometry": {"type": "Point", "coordinates": [87.4351, 26.6675]}, "id": "5200", "type": "Feature", "properties": {"id": "46004-44143-013-GRNT0225", "status": "Implementation", "title": "SUBREGIONAL TRANSPORT ENHANCEMENT PROJECT", "approvalYear": "2011", "sectors": ["Transport"], "locationName": "Belbari"}}, {"geometry": {"type": "Point", "coordinates": [83.24983, 27.45573]}, "id": "5201", "type": "Feature", "properties": {"id": "46004-44143-013-GRNT0225", "status": "Implementation", "title": "SUBREGIONAL TRANSPORT ENHANCEMENT PROJECT", "approvalYear": "2011", "sectors": ["Transport"], "locationName": "Lumbini"}}, {"geometry": {"type": "Point", "coordinates": [86.429, 27.34703]}, "id": "5202", "type": "Feature", "properties": {"id": "46004-44143-013-GRNT0225", "status": "Implementation", "title": "SUBREGIONAL TRANSPORT ENHANCEMENT PROJECT", "approvalYear": "2011", "sectors": ["Transport"], "locationName": "Harkapur"}}, {"geometry": {"type": "Point", "coordinates": [87.32928, 27.27932]}, "id": "5203", "type": "Feature", "properties": {"id": "46004-44143-013-GRNT0225", "status": "Implementation", "title": "SUBREGIONAL TRANSPORT ENHANCEMENT PROJECT", "approvalYear": "2011", "sectors": ["Transport"], "locationName": "Purano Chainpur"}}, {"geometry": {"type": "Point", "coordinates": [84.0, 28.0]}, "id": "5204", "type": "Feature", "properties": {"id": "46004-43216-012-GRNT0227", "status": "Implementation", "title": "TRANSPORT PROJECT PREPARATORY FACILITY", "approvalYear": "2011", "sectors": ["Transport"], "locationName": "Nepal"}}, {"geometry": {"type": "Point", "coordinates": [82.31712, 28.11681]}, "id": "5205", "type": "Feature", "properties": {"id": "46004-38423-022-GRNT0233", "status": "Implementation", "title": "RAISING INCOMES OF SMALL AND MEDIUM FARMERS PROJEC", "approvalYear": "2011", "sectors": ["Agriculture, natural resources and rural development"], "locationName": "Dang Deukhuri District"}}, {"geometry": {"type": "Point", "coordinates": [81.66667, 28.83333]}, "id": "5206", "type": "Feature", "properties": {"id": "46004-38423-022-GRNT0233", "status": "Implementation", "title": "RAISING INCOMES OF SMALL AND MEDIUM FARMERS PROJEC", "approvalYear": "2011", "sectors": ["Agriculture, natural resources and rural development"], "locationName": "Dailekh"}}, {"geometry": {"type": "Point", "coordinates": [80.41667, 29.25]}, "id": "5207", "type": "Feature", "properties": {"id": "46004-38423-022-GRNT0233", "status": "Implementation", "title": "RAISING INCOMES OF SMALL AND MEDIUM FARMERS PROJEC", "approvalYear": "2011", "sectors": ["Agriculture, natural resources and rural development"], "locationName": "Dadeldhura"}}, {"geometry": {"type": "Point", "coordinates": [81.41667, 28.33333]}, "id": "5208", "type": "Feature", "properties": {"id": "46004-38423-022-GRNT0233", "status": "Implementation", "title": "RAISING INCOMES OF SMALL AND MEDIUM FARMERS PROJEC", "approvalYear": "2011", "sectors": ["Agriculture, natural resources and rural development"], "locationName": "Bardiya"}}, {"geometry": {"type": "Point", "coordinates": [81.83333, 28.16667]}, "id": "5209", "type": "Feature", "properties": {"id": "46004-38423-022-GRNT0233", "status": "Implementation", "title": "RAISING INCOMES OF SMALL AND MEDIUM FARMERS PROJEC", "approvalYear": "2011", "sectors": ["Agriculture, natural resources and rural development"], "locationName": "Banke"}}, {"geometry": {"type": "Point", "coordinates": [80.58333, 29.5]}, "id": "5210", "type": "Feature", "properties": {"id": "46004-38423-022-GRNT0233", "status": "Implementation", "title": "RAISING INCOMES OF SMALL AND MEDIUM FARMERS PROJEC", "approvalYear": "2011", "sectors": ["Agriculture, natural resources and rural development"], "locationName": "Baitadi"}}, {"geometry": {"type": "Point", "coordinates": [81.7787, 28.51746]}, "id": "5211", "type": "Feature", "properties": {"id": "46004-38423-022-GRNT0233", "status": "Implementation", "title": "RAISING INCOMES OF SMALL AND MEDIUM FARMERS PROJEC", "approvalYear": "2011", "sectors": ["Agriculture, natural resources and rural development"], "locationName": "Surkhet"}}, {"geometry": {"type": "Point", "coordinates": [80.91667, 28.75]}, "id": "5212", "type": "Feature", "properties": {"id": "46004-38423-022-GRNT0233", "status": "Implementation", "title": "RAISING INCOMES OF SMALL AND MEDIUM FARMERS PROJEC", "approvalYear": "2011", "sectors": ["Agriculture, natural resources and rural development"], "locationName": "Kailali"}}, {"geometry": {"type": "Point", "coordinates": [80.91667, 29.25]}, "id": "5213", "type": "Feature", "properties": {"id": "46004-38423-022-GRNT0233", "status": "Implementation", "title": "RAISING INCOMES OF SMALL AND MEDIUM FARMERS PROJEC", "approvalYear": "2011", "sectors": ["Agriculture, natural resources and rural development"], "locationName": "Doti"}}, {"geometry": {"type": "Point", "coordinates": [80.75, 29.91667]}, "id": "5214", "type": "Feature", "properties": {"id": "46004-38423-022-GRNT0233", "status": "Implementation", "title": "RAISING INCOMES OF SMALL AND MEDIUM FARMERS PROJEC", "approvalYear": "2011", "sectors": ["Agriculture, natural resources and rural development"], "locationName": "Darchula"}}, {"geometry": {"type": "Point", "coordinates": [86.75, 27.75]}, "id": "5215", "type": "Feature", "properties": {"id": "46004-37292-042-GRNT0248", "status": "Implementation", "title": "HIGH MOUNTAIN AGRIBUSINESS AND LIVELIHOOD IMPROVEM", "approvalYear": "2011", "sectors": ["Agriculture, natural resources and rural development"], "locationName": "Solukhumbu"}}, {"geometry": {"type": "Point", "coordinates": [85.33333, 28.16667]}, "id": "5216", "type": "Feature", "properties": {"id": "46004-37292-042-GRNT0248", "status": "Implementation", "title": "HIGH MOUNTAIN AGRIBUSINESS AND LIVELIHOOD IMPROVEM", "approvalYear": "2011", "sectors": ["Agriculture, natural resources and rural development"], "locationName": "Rasuwa"}}, {"geometry": {"type": "Point", "coordinates": [83.91667, 28.91667]}, "id": "5217", "type": "Feature", "properties": {"id": "46004-37292-042-GRNT0248", "status": "Implementation", "title": "HIGH MOUNTAIN AGRIBUSINESS AND LIVELIHOOD IMPROVEM", "approvalYear": "2011", "sectors": ["Agriculture, natural resources and rural development"], "locationName": "Mustang"}}, {"geometry": {"type": "Point", "coordinates": [82.41667, 29.58333]}, "id": "5218", "type": "Feature", "properties": {"id": "46004-37292-042-GRNT0248", "status": "Implementation", "title": "HIGH MOUNTAIN AGRIBUSINESS AND LIVELIHOOD IMPROVEM", "approvalYear": "2011", "sectors": ["Agriculture, natural resources and rural development"], "locationName": "Mugu"}}, {"geometry": {"type": "Point", "coordinates": [84.25, 28.66667]}, "id": "5219", "type": "Feature", "properties": {"id": "46004-37292-042-GRNT0248", "status": "Implementation", "title": "HIGH MOUNTAIN AGRIBUSINESS AND LIVELIHOOD IMPROVEM", "approvalYear": "2011", "sectors": ["Agriculture, natural resources and rural development"], "locationName": "Manang"}}, {"geometry": {"type": "Point", "coordinates": [82.18333, 29.27528]}, "id": "5220", "type": "Feature", "properties": {"id": "46004-37292-042-GRNT0248", "status": "Implementation", "title": "HIGH MOUNTAIN AGRIBUSINESS AND LIVELIHOOD IMPROVEM", "approvalYear": "2011", "sectors": ["Agriculture, natural resources and rural development"], "locationName": "Jumla"}}, {"geometry": {"type": "Point", "coordinates": [81.91667, 29.91667]}, "id": "5221", "type": "Feature", "properties": {"id": "46004-37292-042-GRNT0248", "status": "Implementation", "title": "HIGH MOUNTAIN AGRIBUSINESS AND LIVELIHOOD IMPROVEM", "approvalYear": "2011", "sectors": ["Agriculture, natural resources and rural development"], "locationName": "Humla"}}, {"geometry": {"type": "Point", "coordinates": [83.08333, 29.16667]}, "id": "5222", "type": "Feature", "properties": {"id": "46004-37292-042-GRNT0248", "status": "Implementation", "title": "HIGH MOUNTAIN AGRIBUSINESS AND LIVELIHOOD IMPROVEM", "approvalYear": "2011", "sectors": ["Agriculture, natural resources and rural development"], "locationName": "Dolpa"}}, {"geometry": {"type": "Point", "coordinates": [86.25, 27.83333]}, "id": "5223", "type": "Feature", "properties": {"id": "46004-37292-042-GRNT0248", "status": "Implementation", "title": "HIGH MOUNTAIN AGRIBUSINESS AND LIVELIHOOD IMPROVEM", "approvalYear": "2011", "sectors": ["Agriculture, natural resources and rural development"], "locationName": "Dolakha"}}, {"geometry": {"type": "Point", "coordinates": [87.33333, 27.58333]}, "id": "5224", "type": "Feature", "properties": {"id": "46004-37292-042-GRNT0248", "status": "Implementation", "title": "HIGH MOUNTAIN AGRIBUSINESS AND LIVELIHOOD IMPROVEM", "approvalYear": "2011", "sectors": ["Agriculture, natural resources and rural development"], "locationName": "Sankhuwasabha"}}, {"geometry": {"type": "Point", "coordinates": [84.0, 28.0]}, "id": "5225", "type": "Feature", "properties": {"id": "46004-43490-013-GRNT0252", "status": "Implementation", "title": "CAPITAL MARKET & INFRASTRUCTURE CAPACITY SUPPORT P", "approvalYear": "2011", "sectors": ["Finance"], "locationName": "Nepal"}}, {"geometry": {"type": "Point", "coordinates": [83.27714, 27.48619]}, "id": "5226", "type": "Feature", "properties": {"id": "46004-39399-013-LN2579", "status": "Implementation", "title": "SOUTH ASIA TOURISM INFRASTRUCTURE DEV'T PROJ(BAN/IND/NEP)-NEPAL", "approvalYear": "2010", "sectors": ["Transport"], "locationName": "Lumbini"}}, {"geometry": {"type": "Point", "coordinates": [83.41625, 27.5057]}, "id": "5227", "type": "Feature", "properties": {"id": "46004-39399-013-LN2579", "status": "Implementation", "title": "SOUTH ASIA TOURISM INFRASTRUCTURE DEV'T PROJ(BAN/IND/NEP)-NEPAL", "approvalYear": "2010", "sectors": ["Transport"], "locationName": "Bhairahawa"}}, {"geometry": {"type": "Point", "coordinates": [85.3591, 27.69658]}, "id": "5228", "type": "Feature", "properties": {"id": "46004-38349-013-LN2581", "status": "Implementation", "title": "AIR TRANSPORT CAPACITY ENHANCEMENT PROJECT", "approvalYear": "2010", "sectors": ["Transport"], "locationName": "Tribhuvan International Airport"}}, {"geometry": {"type": "Point", "coordinates": [86.7297, 27.6869]}, "id": "5229", "type": "Feature", "properties": {"id": "46004-38349-013-LN2581", "status": "Implementation", "title": "AIR TRANSPORT CAPACITY ENHANCEMENT PROJECT", "approvalYear": "2010", "sectors": ["Transport"], "locationName": "Tenzing-Hillary Airport"}}, {"geometry": {"type": "Point", "coordinates": [81.8189, 29.9711]}, "id": "5230", "type": "Feature", "properties": {"id": "46004-38349-013-LN2581", "status": "Implementation", "title": "AIR TRANSPORT CAPACITY ENHANCEMENT PROJECT", "approvalYear": "2010", "sectors": ["Transport"], "locationName": "Simikot Airport"}}, {"geometry": {"type": "Point", "coordinates": [82.14666, 29.52164]}, "id": "5231", "type": "Feature", "properties": {"id": "46004-38349-013-LN2581", "status": "Implementation", "title": "AIR TRANSPORT CAPACITY ENHANCEMENT PROJECT", "approvalYear": "2010", "sectors": ["Transport"], "locationName": "Talcha Airport"}}, {"geometry": {"type": "Point", "coordinates": [83.58148, 27.97243]}, "id": "5232", "type": "Feature", "properties": {"id": "46004-40553-013-LN2587", "status": "Implementation", "title": "ENERGY ACCESS & EFFICIENCY IMPROVEMENT PROJECT", "approvalYear": "2010", "sectors": ["Energy"], "locationName": "Mirmi"}}, {"geometry": {"type": "Point", "coordinates": [84.26486, 27.97763]}, "id": "5233", "type": "Feature", "properties": {"id": "46004-40553-013-LN2587", "status": "Implementation", "title": "ENERGY ACCESS & EFFICIENCY IMPROVEMENT PROJECT", "approvalYear": "2010", "sectors": ["Energy"], "locationName": "Damauli"}}, {"geometry": {"type": "Point", "coordinates": [82.10725, 28.00943]}, "id": "5234", "type": "Feature", "properties": {"id": "46004-40553-013-LN2587", "status": "Implementation", "title": "ENERGY ACCESS & EFFICIENCY IMPROVEMENT PROJECT", "approvalYear": "2010", "sectors": ["Energy"], "locationName": "Kusum"}}, {"geometry": {"type": "Point", "coordinates": [81.20482, 28.51277]}, "id": "5235", "type": "Feature", "properties": {"id": "46004-40553-013-LN2587", "status": "Implementation", "title": "ENERGY ACCESS & EFFICIENCY IMPROVEMENT PROJECT", "approvalYear": "2010", "sectors": ["Energy"], "locationName": "Maina Pokhar"}}, {"geometry": {"type": "Point", "coordinates": [83.5, 27.75]}, "id": "5236", "type": "Feature", "properties": {"id": "46004-40553-013-LN2587", "status": "Implementation", "title": "ENERGY ACCESS & EFFICIENCY IMPROVEMENT PROJECT", "approvalYear": "2010", "sectors": ["Energy"], "locationName": "Lumbini Zone"}}, {"geometry": {"type": "Point", "coordinates": [85.3206, 27.70169]}, "id": "5237", "type": "Feature", "properties": {"id": "46004-40553-013-LN2587", "status": "Implementation", "title": "ENERGY ACCESS & EFFICIENCY IMPROVEMENT PROJECT", "approvalYear": "2010", "sectors": ["Energy"], "locationName": "Kathmandu"}}, {"geometry": {"type": "Point", "coordinates": [84.38333, 28.33333]}, "id": "5238", "type": "Feature", "properties": {"id": "46004-40553-013-LN2587", "status": "Implementation", "title": "ENERGY ACCESS & EFFICIENCY IMPROVEMENT PROJECT", "approvalYear": "2010", "sectors": ["Energy"], "locationName": "Gandaki Zone"}}, {"geometry": {"type": "Point", "coordinates": [83.6, 28.66667]}, "id": "5239", "type": "Feature", "properties": {"id": "46004-40553-013-LN2587", "status": "Implementation", "title": "ENERGY ACCESS & EFFICIENCY IMPROVEMENT PROJECT", "approvalYear": "2010", "sectors": ["Energy"], "locationName": "Dhawalagiri Zone"}}, {"geometry": {"type": "Point", "coordinates": [83.44836, 27.70055]}, "id": "5240", "type": "Feature", "properties": {"id": "46004-40553-013-LN2587", "status": "Implementation", "title": "ENERGY ACCESS & EFFICIENCY IMPROVEMENT PROJECT", "approvalYear": "2010", "sectors": ["Energy"], "locationName": "Butwal"}}, {"geometry": {"type": "Point", "coordinates": [81.66667, 28.58333]}, "id": "5241", "type": "Feature", "properties": {"id": "46004-40553-013-LN2587", "status": "Implementation", "title": "ENERGY ACCESS & EFFICIENCY IMPROVEMENT PROJECT", "approvalYear": "2010", "sectors": ["Energy"], "locationName": "Bheri Zone"}}, {"geometry": {"type": "Point", "coordinates": [85.43005, 27.67298]}, "id": "5242", "type": "Feature", "properties": {"id": "46004-40553-013-LN2587", "status": "Implementation", "title": "ENERGY ACCESS & EFFICIENCY IMPROVEMENT PROJECT", "approvalYear": "2010", "sectors": ["Energy"], "locationName": "Bhaktapur"}}, {"geometry": {"type": "Point", "coordinates": [82.5, 28.33333]}, "id": "5243", "type": "Feature", "properties": {"id": "46004-40553-013-LN2587", "status": "Implementation", "title": "ENERGY ACCESS & EFFICIENCY IMPROVEMENT PROJECT", "approvalYear": "2010", "sectors": ["Energy"], "locationName": "Rapti Zone"}}, {"geometry": {"type": "Point", "coordinates": [82.52283, 27.87297]}, "id": "5244", "type": "Feature", "properties": {"id": "46004-40553-013-LN2587", "status": "Implementation", "title": "ENERGY ACCESS & EFFICIENCY IMPROVEMENT PROJECT", "approvalYear": "2010", "sectors": ["Energy"], "locationName": "Lamahi"}}, {"geometry": {"type": "Point", "coordinates": [84.61403, 28.06818]}, "id": "5245", "type": "Feature", "properties": {"id": "46004-40553-013-LN2587", "status": "Implementation", "title": "ENERGY ACCESS & EFFICIENCY IMPROVEMENT PROJECT", "approvalYear": "2010", "sectors": ["Energy"], "locationName": "Dumre"}}, {"geometry": {"type": "Point", "coordinates": [83.45139, 28.28742]}, "id": "5246", "type": "Feature", "properties": {"id": "46004-40553-013-LN2587", "status": "Implementation", "title": "ENERGY ACCESS & EFFICIENCY IMPROVEMENT PROJECT", "approvalYear": "2010", "sectors": ["Energy"], "locationName": "Marsyangdi"}}, {"geometry": {"type": "Point", "coordinates": [85.36169, 27.77144]}, "id": "5247", "type": "Feature", "properties": {"id": "46004-40553-013-LN2587", "status": "Implementation", "title": "ENERGY ACCESS & EFFICIENCY IMPROVEMENT PROJECT", "approvalYear": "2010", "sectors": ["Energy"], "locationName": "Chapali"}}, {"geometry": {"type": "Point", "coordinates": [85.29553, 27.71983]}, "id": "5248", "type": "Feature", "properties": {"id": "46004-40553-013-LN2587", "status": "Implementation", "title": "ENERGY ACCESS & EFFICIENCY IMPROVEMENT PROJECT", "approvalYear": "2010", "sectors": ["Energy"], "locationName": "Swayambhu"}}, {"geometry": {"type": "Point", "coordinates": [84.65695, 27.6021]}, "id": "5249", "type": "Feature", "properties": {"id": "46004-40553-013-LN2587", "status": "Implementation", "title": "ENERGY ACCESS & EFFICIENCY IMPROVEMENT PROJECT", "approvalYear": "2010", "sectors": ["Energy"], "locationName": "Shivapur"}}, {"geometry": {"type": "Point", "coordinates": [81.56718, 28.91154]}, "id": "5250", "type": "Feature", "properties": {"id": "46004-40553-013-LN2587", "status": "Implementation", "title": "ENERGY ACCESS & EFFICIENCY IMPROVEMENT PROJECT", "approvalYear": "2010", "sectors": ["Energy"], "locationName": "Lainchaur"}}, {"geometry": {"type": "Point", "coordinates": [81.68472, 28.19389]}, "id": "5251", "type": "Feature", "properties": {"id": "46004-40553-013-LN2587", "status": "Implementation", "title": "ENERGY ACCESS & EFFICIENCY IMPROVEMENT PROJECT", "approvalYear": "2010", "sectors": ["Energy"], "locationName": "Kohalpur"}}, {"geometry": {"type": "Point", "coordinates": [85.462, 27.0004]}, "id": "5252", "type": "Feature", "properties": {"id": "46004-40553-013-LN2587", "status": "Implementation", "title": "ENERGY ACCESS & EFFICIENCY IMPROVEMENT PROJECT", "approvalYear": "2010", "sectors": ["Energy"], "locationName": "Barahathawa"}}, {"geometry": {"type": "Point", "coordinates": [85.39787, 27.71078]}, "id": "5253", "type": "Feature", "properties": {"id": "46004-40553-013-LN2587", "status": "Implementation", "title": "ENERGY ACCESS & EFFICIENCY IMPROVEMENT PROJECT", "approvalYear": "2010", "sectors": ["Energy"], "locationName": "Mulpani"}}, {"geometry": {"type": "Point", "coordinates": [88.04254, 26.43676]}, "id": "5254", "type": "Feature", "properties": {"id": "46004-40553-013-LN2587", "status": "Implementation", "title": "ENERGY ACCESS & EFFICIENCY IMPROVEMENT PROJECT", "approvalYear": "2010", "sectors": ["Energy"], "locationName": "Baniyani"}}, {"geometry": {"type": "Point", "coordinates": [85.82421, 26.75253]}, "id": "5255", "type": "Feature", "properties": {"id": "46004-40553-013-LN2587", "status": "Implementation", "title": "ENERGY ACCESS & EFFICIENCY IMPROVEMENT PROJECT", "approvalYear": "2010", "sectors": ["Energy"], "locationName": "Paraul"}}, {"geometry": {"type": "Point", "coordinates": [84.38304, 28.50059]}, "id": "5256", "type": "Feature", "properties": {"id": "46004-40553-013-LN2587", "status": "Implementation", "title": "ENERGY ACCESS & EFFICIENCY IMPROVEMENT PROJECT", "approvalYear": "2010", "sectors": ["Energy"], "locationName": "Dharapani"}}, {"geometry": {"type": "Point", "coordinates": [83.68566, 27.47401]}, "id": "5257", "type": "Feature", "properties": {"id": "46004-40553-013-LN2587", "status": "Implementation", "title": "ENERGY ACCESS & EFFICIENCY IMPROVEMENT PROJECT", "approvalYear": "2010", "sectors": ["Energy"], "locationName": "Kusma"}}, {"geometry": {"type": "Point", "coordinates": [85.23334, 27.68094]}, "id": "5258", "type": "Feature", "properties": {"id": "46004-40553-013-LN2587", "status": "Implementation", "title": "ENERGY ACCESS & EFFICIENCY IMPROVEMENT PROJECT", "approvalYear": "2010", "sectors": ["Energy"], "locationName": "Matatirtha"}}, {"geometry": {"type": "Point", "coordinates": [85.31597, 27.67866]}, "id": "5259", "type": "Feature", "properties": {"id": "46004-40553-013-LN2587", "status": "Implementation", "title": "ENERGY ACCESS & EFFICIENCY IMPROVEMENT PROJECT", "approvalYear": "2010", "sectors": ["Energy"], "locationName": "Lalitpur"}}, {"geometry": {"type": "Point", "coordinates": [86.17814, 26.86327]}, "id": "5260", "type": "Feature", "properties": {"id": "46004-40553-013-LN2587", "status": "Implementation", "title": "ENERGY ACCESS & EFFICIENCY IMPROVEMENT PROJECT", "approvalYear": "2010", "sectors": ["Energy"], "locationName": "Mirchaiya"}}, {"geometry": {"type": "Point", "coordinates": [84.0, 28.0]}, "id": "5261", "type": "Feature", "properties": {"id": "46004-36169-023-LN2641", "status": "Implementation", "title": "RURAL FINANCE SECTOR DEVELOPMENT CLUSTER PROGRAM (SUBPROGRAM2)", "approvalYear": "2010", "sectors": ["Finance"], "locationName": "Nepal"}}, {"geometry": {"type": "Point", "coordinates": [85.54281, 27.6221]}, "id": "5262", "type": "Feature", "properties": {"id": "46004-36188-023-LN2650", "status": "Implementation", "title": "SECONDARY TOWNS INTEGRATED URBAN ENVIRONMENTAL IMPRVMENT PROJECT", "approvalYear": "2010", "sectors": ["Water supply and other urban infrastructure and services"], "locationName": "Dhulikhel"}}, {"geometry": {"type": "Point", "coordinates": [83.44836, 27.70055]}, "id": "5263", "type": "Feature", "properties": {"id": "46004-36188-023-LN2650", "status": "Implementation", "title": "SECONDARY TOWNS INTEGRATED URBAN ENVIRONMENTAL IMPRVMENT PROJECT", "approvalYear": "2010", "sectors": ["Water supply and other urban infrastructure and services"], "locationName": "Butwal"}}, {"geometry": {"type": "Point", "coordinates": [84.87735, 27.01043]}, "id": "5264", "type": "Feature", "properties": {"id": "46004-36188-023-LN2650", "status": "Implementation", "title": "SECONDARY TOWNS INTEGRATED URBAN ENVIRONMENTAL IMPRVMENT PROJECT", "approvalYear": "2010", "sectors": ["Water supply and other urban infrastructure and services"], "locationName": "Birgunj"}}, {"geometry": {"type": "Point", "coordinates": [87.28337, 26.4831]}, "id": "5265", "type": "Feature", "properties": {"id": "46004-36188-023-LN2650", "status": "Implementation", "title": "SECONDARY TOWNS INTEGRATED URBAN ENVIRONMENTAL IMPRVMENT PROJECT", "approvalYear": "2010", "sectors": ["Water supply and other urban infrastructure and services"], "locationName": "Biratnagar"}}, {"geometry": {"type": "Point", "coordinates": [85.52138, 27.62979]}, "id": "5266", "type": "Feature", "properties": {"id": "46004-36188-023-LN2650", "status": "Implementation", "title": "SECONDARY TOWNS INTEGRATED URBAN ENVIRONMENTAL IMPRVMENT PROJECT", "approvalYear": "2010", "sectors": ["Water supply and other urban infrastructure and services"], "locationName": "Banepa"}}, {"geometry": {"type": "Point", "coordinates": [85.52122, 27.58466]}, "id": "5267", "type": "Feature", "properties": {"id": "46004-36188-023-LN2650", "status": "Implementation", "title": "SECONDARY TOWNS INTEGRATED URBAN ENVIRONMENTAL IMPRVMENT PROJECT", "approvalYear": "2010", "sectors": ["Water supply and other urban infrastructure and services"], "locationName": "Panauti"}}, {"geometry": {"type": "Point", "coordinates": [85.3206, 27.70169]}, "id": "5268", "type": "Feature", "properties": {"id": "46004-44058-013-LN2656", "status": "Implementation", "title": "KATHMANDU SUSTAINABLE URBAN TRANSPORT PROJECT (SF)", "approvalYear": "2010", "sectors": ["Transport"], "locationName": "Kathmandu"}}, {"geometry": {"type": "Point", "coordinates": [87.83333, 27.66667]}, "id": "5269", "type": "Feature", "properties": {"id": "46004-38426-023-GRNT0267", "status": "Implementation", "title": "DECENTRALIZED RURAL INFRASTRUCTURE & LIVELIHOOD PR", "approvalYear": "2012", "sectors": ["Transport"], "locationName": "Taplejung"}}, {"geometry": {"type": "Point", "coordinates": [86.75, 27.75]}, "id": "5270", "type": "Feature", "properties": {"id": "46004-38426-023-GRNT0267", "status": "Implementation", "title": "DECENTRALIZED RURAL INFRASTRUCTURE & LIVELIHOOD PR", "approvalYear": "2012", "sectors": ["Transport"], "locationName": "Solukhumbu"}}, {"geometry": {"type": "Point", "coordinates": [86.08333, 27.41667]}, "id": "5271", "type": "Feature", "properties": {"id": "46004-38426-023-GRNT0267", "status": "Implementation", "title": "DECENTRALIZED RURAL INFRASTRUCTURE & LIVELIHOOD PR", "approvalYear": "2012", "sectors": ["Transport"], "locationName": "Ramechhap"}}, {"geometry": {"type": "Point", "coordinates": [83.33333, 28.58333]}, "id": "5272", "type": "Feature", "properties": {"id": "46004-38426-023-GRNT0267", "status": "Implementation", "title": "DECENTRALIZED RURAL INFRASTRUCTURE & LIVELIHOOD PR", "approvalYear": "2012", "sectors": ["Transport"], "locationName": "Myagdi"}}, {"geometry": {"type": "Point", "coordinates": [82.41667, 29.58333]}, "id": "5273", "type": "Feature", "properties": {"id": "46004-38426-023-GRNT0267", "status": "Implementation", "title": "DECENTRALIZED RURAL INFRASTRUCTURE & LIVELIHOOD PR", "approvalYear": "2012", "sectors": ["Transport"], "locationName": "Mugu"}}, {"geometry": {"type": "Point", "coordinates": [84.41667, 28.25]}, "id": "5274", "type": "Feature", "properties": {"id": "46004-38426-023-GRNT0267", "status": "Implementation", "title": "DECENTRALIZED RURAL INFRASTRUCTURE & LIVELIHOOD PR", "approvalYear": "2012", "sectors": ["Transport"], "locationName": "Lamjung"}}, {"geometry": {"type": "Point", "coordinates": [81.83333, 29.25]}, "id": "5275", "type": "Feature", "properties": {"id": "46004-38426-023-GRNT0267", "status": "Implementation", "title": "DECENTRALIZED RURAL INFRASTRUCTURE & LIVELIHOOD PR", "approvalYear": "2012", "sectors": ["Transport"], "locationName": "Kalikot"}}, {"geometry": {"type": "Point", "coordinates": [82.18333, 29.27528]}, "id": "5276", "type": "Feature", "properties": {"id": "46004-38426-023-GRNT0267", "status": "Implementation", "title": "DECENTRALIZED RURAL INFRASTRUCTURE & LIVELIHOOD PR", "approvalYear": "2012", "sectors": ["Transport"], "locationName": "Jumla"}}, {"geometry": {"type": "Point", "coordinates": [82.25, 28.83333]}, "id": "5277", "type": "Feature", "properties": {"id": "46004-38426-023-GRNT0267", "status": "Implementation", "title": "DECENTRALIZED RURAL INFRASTRUCTURE & LIVELIHOOD PR", "approvalYear": "2012", "sectors": ["Transport"], "locationName": "Jajarkot"}}, {"geometry": {"type": "Point", "coordinates": [81.91667, 29.91667]}, "id": "5278", "type": "Feature", "properties": {"id": "46004-38426-023-GRNT0267", "status": "Implementation", "title": "DECENTRALIZED RURAL INFRASTRUCTURE & LIVELIHOOD PR", "approvalYear": "2012", "sectors": ["Transport"], "locationName": "Humla"}}, {"geometry": {"type": "Point", "coordinates": [84.83333, 28.33333]}, "id": "5279", "type": "Feature", "properties": {"id": "46004-38426-023-GRNT0267", "status": "Implementation", "title": "DECENTRALIZED RURAL INFRASTRUCTURE & LIVELIHOOD PR", "approvalYear": "2012", "sectors": ["Transport"], "locationName": "Gorkha"}}, {"geometry": {"type": "Point", "coordinates": [83.08333, 29.16667]}, "id": "5280", "type": "Feature", "properties": {"id": "46004-38426-023-GRNT0267", "status": "Implementation", "title": "DECENTRALIZED RURAL INFRASTRUCTURE & LIVELIHOOD PR", "approvalYear": "2012", "sectors": ["Transport"], "locationName": "Dolpa"}}, {"geometry": {"type": "Point", "coordinates": [80.75, 29.91667]}, "id": "5281", "type": "Feature", "properties": {"id": "46004-38426-023-GRNT0267", "status": "Implementation", "title": "DECENTRALIZED RURAL INFRASTRUCTURE & LIVELIHOOD PR", "approvalYear": "2012", "sectors": ["Transport"], "locationName": "Darchula"}}, {"geometry": {"type": "Point", "coordinates": [81.5, 29.5]}, "id": "5282", "type": "Feature", "properties": {"id": "46004-38426-023-GRNT0267", "status": "Implementation", "title": "DECENTRALIZED RURAL INFRASTRUCTURE & LIVELIHOOD PR", "approvalYear": "2012", "sectors": ["Transport"], "locationName": "Bajura"}}, {"geometry": {"type": "Point", "coordinates": [81.25, 29.66667]}, "id": "5283", "type": "Feature", "properties": {"id": "46004-38426-023-GRNT0267", "status": "Implementation", "title": "DECENTRALIZED RURAL INFRASTRUCTURE & LIVELIHOOD PR", "approvalYear": "2012", "sectors": ["Transport"], "locationName": "Bajhang"}}, {"geometry": {"type": "Point", "coordinates": [80.58333, 29.5]}, "id": "5284", "type": "Feature", "properties": {"id": "46004-38426-023-GRNT0267", "status": "Implementation", "title": "DECENTRALIZED RURAL INFRASTRUCTURE & LIVELIHOOD PR", "approvalYear": "2012", "sectors": ["Transport"], "locationName": "Baitadi"}}, {"geometry": {"type": "Point", "coordinates": [83.16667, 28.41667]}, "id": "5285", "type": "Feature", "properties": {"id": "46004-38426-023-GRNT0267", "status": "Implementation", "title": "DECENTRALIZED RURAL INFRASTRUCTURE & LIVELIHOOD PR", "approvalYear": "2012", "sectors": ["Transport"], "locationName": "Baglung"}}, {"geometry": {"type": "Point", "coordinates": [86.41667, 27.33333]}, "id": "5286", "type": "Feature", "properties": {"id": "46004-38426-023-GRNT0267", "status": "Implementation", "title": "DECENTRALIZED RURAL INFRASTRUCTURE & LIVELIHOOD PR", "approvalYear": "2012", "sectors": ["Transport"], "locationName": "Okhaldhunga"}}, {"geometry": {"type": "Point", "coordinates": [86.66667, 27.23333]}, "id": "5287", "type": "Feature", "properties": {"id": "46004-44143-013-LN2685", "status": "Implementation", "title": "SUBREGIONAL TRANSPORT ENHANCEMENT PROJECT", "approvalYear": "2011", "sectors": ["Transport"], "locationName": "Sagarmatha Zone"}}, {"geometry": {"type": "Point", "coordinates": [86.50502, 27.31032]}, "id": "5288", "type": "Feature", "properties": {"id": "46004-44143-013-LN2685", "status": "Implementation", "title": "SUBREGIONAL TRANSPORT ENHANCEMENT PROJECT", "approvalYear": "2011", "sectors": ["Transport"], "locationName": "Okhaldhunga"}}, {"geometry": {"type": "Point", "coordinates": [87.31667, 27.15]}, "id": "5289", "type": "Feature", "properties": {"id": "46004-44143-013-LN2685", "status": "Implementation", "title": "SUBREGIONAL TRANSPORT ENHANCEMENT PROJECT", "approvalYear": "2011", "sectors": ["Transport"], "locationName": "Kosi Zone"}}, {"geometry": {"type": "Point", "coordinates": [87.2039, 27.37469]}, "id": "5290", "type": "Feature", "properties": {"id": "46004-44143-013-LN2685", "status": "Implementation", "title": "SUBREGIONAL TRANSPORT ENHANCEMENT PROJECT", "approvalYear": "2011", "sectors": ["Transport"], "locationName": "Khandbari"}}, {"geometry": {"type": "Point", "coordinates": [81.66667, 28.58333]}, "id": "5291", "type": "Feature", "properties": {"id": "46004-44143-013-LN2685", "status": "Implementation", "title": "SUBREGIONAL TRANSPORT ENHANCEMENT PROJECT", "approvalYear": "2011", "sectors": ["Transport"], "locationName": "Bheri Zone"}}, {"geometry": {"type": "Point", "coordinates": [83.41667, 27.68333]}, "id": "5292", "type": "Feature", "properties": {"id": "46004-44143-013-LN2685", "status": "Implementation", "title": "SUBREGIONAL TRANSPORT ENHANCEMENT PROJECT", "approvalYear": "2011", "sectors": ["Transport"], "locationName": "Bhairahawa"}}, {"geometry": {"type": "Point", "coordinates": [86.58694, 27.50111]}, "id": "5293", "type": "Feature", "properties": {"id": "46004-44143-013-LN2685", "status": "Implementation", "title": "SUBREGIONAL TRANSPORT ENHANCEMENT PROJECT", "approvalYear": "2011", "sectors": ["Transport"], "locationName": "Salleri"}}, {"geometry": {"type": "Point", "coordinates": [81.68472, 28.19389]}, "id": "5294", "type": "Feature", "properties": {"id": "46004-44143-013-LN2685", "status": "Implementation", "title": "SUBREGIONAL TRANSPORT ENHANCEMENT PROJECT", "approvalYear": "2011", "sectors": ["Transport"], "locationName": "Kohalpur"}}, {"geometry": {"type": "Point", "coordinates": [81.61667, 28.05]}, "id": "5295", "type": "Feature", "properties": {"id": "46004-44143-013-LN2685", "status": "Implementation", "title": "SUBREGIONAL TRANSPORT ENHANCEMENT PROJECT", "approvalYear": "2011", "sectors": ["Transport"], "locationName": "Nepalgunj"}}, {"geometry": {"type": "Point", "coordinates": [87.4351, 26.6675]}, "id": "5296", "type": "Feature", "properties": {"id": "46004-44143-013-LN2685", "status": "Implementation", "title": "SUBREGIONAL TRANSPORT ENHANCEMENT PROJECT", "approvalYear": "2011", "sectors": ["Transport"], "locationName": "Belbari"}}, {"geometry": {"type": "Point", "coordinates": [83.24983, 27.45573]}, "id": "5297", "type": "Feature", "properties": {"id": "46004-44143-013-LN2685", "status": "Implementation", "title": "SUBREGIONAL TRANSPORT ENHANCEMENT PROJECT", "approvalYear": "2011", "sectors": ["Transport"], "locationName": "Lumbini"}}, {"geometry": {"type": "Point", "coordinates": [86.429, 27.34703]}, "id": "5298", "type": "Feature", "properties": {"id": "46004-44143-013-LN2685", "status": "Implementation", "title": "SUBREGIONAL TRANSPORT ENHANCEMENT PROJECT", "approvalYear": "2011", "sectors": ["Transport"], "locationName": "Harkapur"}}, {"geometry": {"type": "Point", "coordinates": [87.32928, 27.27932]}, "id": "5299", "type": "Feature", "properties": {"id": "46004-44143-013-LN2685", "status": "Implementation", "title": "SUBREGIONAL TRANSPORT ENHANCEMENT PROJECT", "approvalYear": "2011", "sectors": ["Transport"], "locationName": "Purano Chainpur"}}, {"geometry": {"type": "Point", "coordinates": [85.37981, 27.72416]}, "id": "5300", "type": "Feature", "properties": {"id": "46004-41155-013-GRNT0270", "status": "Implementation", "title": "ELECTRICITY TRANSMISSION EXPANSION & SUPPLY IMPROV", "approvalYear": "2012", "sectors": ["Energy"], "locationName": "Jorpati"}}, {"geometry": {"type": "Point", "coordinates": [86.1404, 27.45353]}, "id": "5301", "type": "Feature", "properties": {"id": "46004-41155-013-GRNT0270", "status": "Implementation", "title": "ELECTRICITY TRANSMISSION EXPANSION & SUPPLY IMPROV", "approvalYear": "2012", "sectors": ["Energy"], "locationName": "Khimti"}}, {"geometry": {"type": "Point", "coordinates": [88.0531, 26.5749]}, "id": "5302", "type": "Feature", "properties": {"id": "46004-41155-013-GRNT0270", "status": "Implementation", "title": "ELECTRICITY TRANSMISSION EXPANSION & SUPPLY IMPROV", "approvalYear": "2012", "sectors": ["Energy"], "locationName": "Chandragadhi1"}}, {"geometry": {"type": "Point", "coordinates": [82.7998, 27.5029]}, "id": "5303", "type": "Feature", "properties": {"id": "46004-41155-013-GRNT0270", "status": "Implementation", "title": "ELECTRICITY TRANSMISSION EXPANSION & SUPPLY IMPROV", "approvalYear": "2012", "sectors": ["Energy"], "locationName": "KrishnaNagar1"}}, {"geometry": {"type": "Point", "coordinates": [80.13069, 28.99961]}, "id": "5304", "type": "Feature", "properties": {"id": "46004-41155-013-GRNT0270", "status": "Implementation", "title": "ELECTRICITY TRANSMISSION EXPANSION & SUPPLY IMPROV", "approvalYear": "2012", "sectors": ["Energy"], "locationName": "Gaddachauki"}}, {"geometry": {"type": "Point", "coordinates": [85.36169, 27.77144]}, "id": "5305", "type": "Feature", "properties": {"id": "46004-41155-013-GRNT0270", "status": "Implementation", "title": "ELECTRICITY TRANSMISSION EXPANSION & SUPPLY IMPROV", "approvalYear": "2012", "sectors": ["Energy"], "locationName": "Chapali"}}, {"geometry": {"type": "Point", "coordinates": [83.58148, 27.97243]}, "id": "5306", "type": "Feature", "properties": {"id": "46004-41155-013-GRNT0270", "status": "Implementation", "title": "ELECTRICITY TRANSMISSION EXPANSION & SUPPLY IMPROV", "approvalYear": "2012", "sectors": ["Energy"], "locationName": "Mirmi"}}, {"geometry": {"type": "Point", "coordinates": [83.75324, 27.975]}, "id": "5307", "type": "Feature", "properties": {"id": "46004-41155-013-GRNT0270", "status": "Implementation", "title": "ELECTRICITY TRANSMISSION EXPANSION & SUPPLY IMPROV", "approvalYear": "2012", "sectors": ["Energy"], "locationName": "Syanja"}}, {"geometry": {"type": "Point", "coordinates": [81.3255, 28.45224]}, "id": "5308", "type": "Feature", "properties": {"id": "46004-41155-013-GRNT0270", "status": "Implementation", "title": "ELECTRICITY TRANSMISSION EXPANSION & SUPPLY IMPROV", "approvalYear": "2012", "sectors": ["Energy"], "locationName": "Bhurigaun"}}, {"geometry": {"type": "Point", "coordinates": [87.4351, 26.6675]}, "id": "5309", "type": "Feature", "properties": {"id": "46004-41155-013-GRNT0270", "status": "Implementation", "title": "ELECTRICITY TRANSMISSION EXPANSION & SUPPLY IMPROV", "approvalYear": "2012", "sectors": ["Energy"], "locationName": "Belbari"}}, {"geometry": {"type": "Point", "coordinates": [85.9919, 27.3175]}, "id": "5310", "type": "Feature", "properties": {"id": "46004-41155-013-GRNT0270", "status": "Implementation", "title": "ELECTRICITY TRANSMISSION EXPANSION & SUPPLY IMPROV", "approvalYear": "2012", "sectors": ["Energy"], "locationName": "Bhimeshwor"}}, {"geometry": {"type": "Point", "coordinates": [83.40055, 27.5916]}, "id": "5311", "type": "Feature", "properties": {"id": "46004-41155-013-GRNT0270", "status": "Implementation", "title": "ELECTRICITY TRANSMISSION EXPANSION & SUPPLY IMPROV", "approvalYear": "2012", "sectors": ["Energy"], "locationName": "Amuwa"}}, {"geometry": {"type": "Point", "coordinates": [83.05356, 27.5445]}, "id": "5312", "type": "Feature", "properties": {"id": "46004-41155-013-GRNT0270", "status": "Implementation", "title": "ELECTRICITY TRANSMISSION EXPANSION & SUPPLY IMPROV", "approvalYear": "2012", "sectors": ["Energy"], "locationName": "Taulihawa"}}, {"geometry": {"type": "Point", "coordinates": [85.41351, 27.75463]}, "id": "5313", "type": "Feature", "properties": {"id": "46004-41155-013-GRNT0270", "status": "Implementation", "title": "ELECTRICITY TRANSMISSION EXPANSION & SUPPLY IMPROV", "approvalYear": "2012", "sectors": ["Energy"], "locationName": "Sundarijal"}}, {"geometry": {"type": "Point", "coordinates": [81.16667, 29.25]}, "id": "5314", "type": "Feature", "properties": {"id": "46004-41155-013-GRNT0270", "status": "Implementation", "title": "ELECTRICITY TRANSMISSION EXPANSION & SUPPLY IMPROV", "approvalYear": "2012", "sectors": ["Energy"], "locationName": "Seti Zone"}}, {"geometry": {"type": "Point", "coordinates": [83.68063, 27.5225]}, "id": "5315", "type": "Feature", "properties": {"id": "46004-41155-013-GRNT0270", "status": "Implementation", "title": "ELECTRICITY TRANSMISSION EXPANSION & SUPPLY IMPROV", "approvalYear": "2012", "sectors": ["Energy"], "locationName": "Parasi"}}, {"geometry": {"type": "Point", "coordinates": [85.17032, 27.20249]}, "id": "5316", "type": "Feature", "properties": {"id": "46004-41155-013-GRNT0270", "status": "Implementation", "title": "ELECTRICITY TRANSMISSION EXPANSION & SUPPLY IMPROV", "approvalYear": "2012", "sectors": ["Energy"], "locationName": "Nijgarh"}}, {"geometry": {"type": "Point", "coordinates": [80.33333, 28.91667]}, "id": "5317", "type": "Feature", "properties": {"id": "46004-41155-013-GRNT0270", "status": "Implementation", "title": "ELECTRICITY TRANSMISSION EXPANSION & SUPPLY IMPROV", "approvalYear": "2012", "sectors": ["Energy"], "locationName": "Mahendranagar"}}, {"geometry": {"type": "Point", "coordinates": [80.55, 29.41667]}, "id": "5318", "type": "Feature", "properties": {"id": "46004-41155-013-GRNT0270", "status": "Implementation", "title": "ELECTRICITY TRANSMISSION EXPANSION & SUPPLY IMPROV", "approvalYear": "2012", "sectors": ["Energy"], "locationName": "Mahakali Zone"}}, {"geometry": {"type": "Point", "coordinates": [85.3206, 27.70169]}, "id": "5319", "type": "Feature", "properties": {"id": "46004-41155-013-GRNT0270", "status": "Implementation", "title": "ELECTRICITY TRANSMISSION EXPANSION & SUPPLY IMPROV", "approvalYear": "2012", "sectors": ["Energy"], "locationName": "Kathmandu"}}, {"geometry": {"type": "Point", "coordinates": [80.33333, 28.83333]}, "id": "5320", "type": "Feature", "properties": {"id": "46004-41155-013-GRNT0270", "status": "Implementation", "title": "ELECTRICITY TRANSMISSION EXPANSION & SUPPLY IMPROV", "approvalYear": "2012", "sectors": ["Energy"], "locationName": "Kanchanpur"}}, {"geometry": {"type": "Point", "coordinates": [86.0, 27.33333]}, "id": "5321", "type": "Feature", "properties": {"id": "46004-41155-013-GRNT0270", "status": "Implementation", "title": "ELECTRICITY TRANSMISSION EXPANSION & SUPPLY IMPROV", "approvalYear": "2012", "sectors": ["Energy"], "locationName": "Janakpur Zone"}}, {"geometry": {"type": "Point", "coordinates": [84.62009, 28.00242]}, "id": "5322", "type": "Feature", "properties": {"id": "46004-41155-013-GRNT0270", "status": "Implementation", "title": "ELECTRICITY TRANSMISSION EXPANSION & SUPPLY IMPROV", "approvalYear": "2012", "sectors": ["Energy"], "locationName": "Gorkha"}}, {"geometry": {"type": "Point", "coordinates": [85.26667, 26.76667]}, "id": "5323", "type": "Feature", "properties": {"id": "46004-41155-013-GRNT0270", "status": "Implementation", "title": "ELECTRICITY TRANSMISSION EXPANSION & SUPPLY IMPROV", "approvalYear": "2012", "sectors": ["Energy"], "locationName": "Gaur"}}, {"geometry": {"type": "Point", "coordinates": [84.9283, 27.86424]}, "id": "5324", "type": "Feature", "properties": {"id": "46004-41155-013-GRNT0270", "status": "Implementation", "title": "ELECTRICITY TRANSMISSION EXPANSION & SUPPLY IMPROV", "approvalYear": "2012", "sectors": ["Energy"], "locationName": "Dhading"}}, {"geometry": {"type": "Point", "coordinates": [83.44836, 27.70055]}, "id": "5325", "type": "Feature", "properties": {"id": "46004-41155-013-GRNT0270", "status": "Implementation", "title": "ELECTRICITY TRANSMISSION EXPANSION & SUPPLY IMPROV", "approvalYear": "2012", "sectors": ["Energy"], "locationName": "Butwal"}}, {"geometry": {"type": "Point", "coordinates": [81.66667, 28.58333]}, "id": "5326", "type": "Feature", "properties": {"id": "46004-41155-013-GRNT0270", "status": "Implementation", "title": "ELECTRICITY TRANSMISSION EXPANSION & SUPPLY IMPROV", "approvalYear": "2012", "sectors": ["Energy"], "locationName": "Bheri Zone"}}, {"geometry": {"type": "Point", "coordinates": [85.90108, 27.78742]}, "id": "5327", "type": "Feature", "properties": {"id": "46004-41155-013-GRNT0270", "status": "Implementation", "title": "ELECTRICITY TRANSMISSION EXPANSION & SUPPLY IMPROV", "approvalYear": "2012", "sectors": ["Energy"], "locationName": "Bahrabise"}}, {"geometry": {"type": "Point", "coordinates": [85.41667, 27.91667]}, "id": "5328", "type": "Feature", "properties": {"id": "46004-41155-013-GRNT0270", "status": "Implementation", "title": "ELECTRICITY TRANSMISSION EXPANSION & SUPPLY IMPROV", "approvalYear": "2012", "sectors": ["Energy"], "locationName": "Bagmati Zone"}}, {"geometry": {"type": "Point", "coordinates": [81.68472, 28.19389]}, "id": "5329", "type": "Feature", "properties": {"id": "46004-41155-013-GRNT0270", "status": "Implementation", "title": "ELECTRICITY TRANSMISSION EXPANSION & SUPPLY IMPROV", "approvalYear": "2012", "sectors": ["Energy"], "locationName": "Kohalpur"}}, {"geometry": {"type": "Point", "coordinates": [84.0, 28.0]}, "id": "5330", "type": "Feature", "properties": {"id": "46004-35174-082-GRNT0272", "status": "Implementation", "title": "SCHOOL SECTOR PROGRAM", "approvalYear": "2012", "sectors": ["Education"], "locationName": "Nepal"}}, {"geometry": {"type": "Point", "coordinates": [85.33333, 27.58333]}, "id": "5331", "type": "Feature", "properties": {"id": "46004-34304-043-LN2776", "status": "Implementation", "title": "KATHMANDU VALLEY WATER SUPPLY IMPROVEMENT PROJECT", "approvalYear": "2011", "sectors": ["Water supply and other urban infrastructure and services"], "locationName": "Lalitpur"}}, {"geometry": {"type": "Point", "coordinates": [85.33218, 27.70704]}, "id": "5332", "type": "Feature", "properties": {"id": "46004-34304-043-LN2776", "status": "Implementation", "title": "KATHMANDU VALLEY WATER SUPPLY IMPROVEMENT PROJECT", "approvalYear": "2011", "sectors": ["Water supply and other urban infrastructure and services"], "locationName": "Kathmandu District"}}, {"geometry": {"type": "Point", "coordinates": [85.41673, 27.66734]}, "id": "5333", "type": "Feature", "properties": {"id": "46004-34304-043-LN2776", "status": "Implementation", "title": "KATHMANDU VALLEY WATER SUPPLY IMPROVEMENT PROJECT", "approvalYear": "2011", "sectors": ["Water supply and other urban infrastructure and services"], "locationName": "Bhaktapur"}}, {"geometry": {"type": "Point", "coordinates": [85.3, 27.73333]}, "id": "5334", "type": "Feature", "properties": {"id": "46004-34304-043-LN2776", "status": "Implementation", "title": "KATHMANDU VALLEY WATER SUPPLY IMPROVEMENT PROJECT", "approvalYear": "2011", "sectors": ["Water supply and other urban infrastructure and services"], "locationName": "Balaju"}}, {"geometry": {"type": "Point", "coordinates": [85.5457, 27.4935]}, "id": "5335", "type": "Feature", "properties": {"id": "46004-34304-043-LN2776", "status": "Implementation", "title": "KATHMANDU VALLEY WATER SUPPLY IMPROVEMENT PROJECT", "approvalYear": "2011", "sectors": ["Water supply and other urban infrastructure and services"], "locationName": "MahankalChaur2"}}, {"geometry": {"type": "Point", "coordinates": [85.39379, 27.73869]}, "id": "5336", "type": "Feature", "properties": {"id": "46004-34304-043-LN2776", "status": "Implementation", "title": "KATHMANDU VALLEY WATER SUPPLY IMPROVEMENT PROJECT", "approvalYear": "2011", "sectors": ["Water supply and other urban infrastructure and services"], "locationName": "Gokarna"}}, {"geometry": {"type": "Point", "coordinates": [85.3774, 27.73296]}, "id": "5337", "type": "Feature", "properties": {"id": "46004-34304-043-LN2776", "status": "Implementation", "title": "KATHMANDU VALLEY WATER SUPPLY IMPROVEMENT PROJECT", "approvalYear": "2011", "sectors": ["Water supply and other urban infrastructure and services"], "locationName": "Arubari"}}, {"geometry": {"type": "Point", "coordinates": [85.32953, 27.71452]}, "id": "5338", "type": "Feature", "properties": {"id": "46004-34304-043-LN2776", "status": "Implementation", "title": "KATHMANDU VALLEY WATER SUPPLY IMPROVEMENT PROJECT", "approvalYear": "2011", "sectors": ["Water supply and other urban infrastructure and services"], "locationName": "Naksal"}}, {"geometry": {"type": "Point", "coordinates": [85.33443, 27.69063]}, "id": "5339", "type": "Feature", "properties": {"id": "46004-34304-043-LN2776", "status": "Implementation", "title": "KATHMANDU VALLEY WATER SUPPLY IMPROVEMENT PROJECT", "approvalYear": "2011", "sectors": ["Water supply and other urban infrastructure and services"], "locationName": "Nayan Baneshwar"}}, {"geometry": {"type": "Point", "coordinates": [85.313, 27.69529]}, "id": "5340", "type": "Feature", "properties": {"id": "46004-34304-043-LN2776", "status": "Implementation", "title": "KATHMANDU VALLEY WATER SUPPLY IMPROVEMENT PROJECT", "approvalYear": "2011", "sectors": ["Water supply and other urban infrastructure and services"], "locationName": "Tripureshwor"}}, {"geometry": {"type": "Point", "coordinates": [85.30443, 27.69755]}, "id": "5341", "type": "Feature", "properties": {"id": "46004-34304-043-LN2776", "status": "Implementation", "title": "KATHMANDU VALLEY WATER SUPPLY IMPROVEMENT PROJECT", "approvalYear": "2011", "sectors": ["Water supply and other urban infrastructure and services"], "locationName": "Teku"}}, {"geometry": {"type": "Point", "coordinates": [85.30118, 27.68568]}, "id": "5342", "type": "Feature", "properties": {"id": "46004-34304-043-LN2776", "status": "Implementation", "title": "KATHMANDU VALLEY WATER SUPPLY IMPROVEMENT PROJECT", "approvalYear": "2011", "sectors": ["Water supply and other urban infrastructure and services"], "locationName": "Balkhu"}}, {"geometry": {"type": "Point", "coordinates": [85.31507, 27.72035]}, "id": "5343", "type": "Feature", "properties": {"id": "46004-34304-043-LN2776", "status": "Implementation", "title": "KATHMANDU VALLEY WATER SUPPLY IMPROVEMENT PROJECT", "approvalYear": "2011", "sectors": ["Water supply and other urban infrastructure and services"], "locationName": "Lainchaur"}}, {"geometry": {"type": "Point", "coordinates": [85.34081, 27.74553]}, "id": "5344", "type": "Feature", "properties": {"id": "46004-34304-043-LN2776", "status": "Implementation", "title": "KATHMANDU VALLEY WATER SUPPLY IMPROVEMENT PROJECT", "approvalYear": "2011", "sectors": ["Water supply and other urban infrastructure and services"], "locationName": "Bansbari"}}, {"geometry": {"type": "Point", "coordinates": [85.3258, 27.70318]}, "id": "5345", "type": "Feature", "properties": {"id": "46004-34304-043-LN2776", "status": "Implementation", "title": "KATHMANDU VALLEY WATER SUPPLY IMPROVEMENT PROJECT", "approvalYear": "2011", "sectors": ["Water supply and other urban infrastructure and services"], "locationName": "Putalisadak"}}, {"geometry": {"type": "Point", "coordinates": [85.3331, 27.70309]}, "id": "5346", "type": "Feature", "properties": {"id": "46004-34304-043-LN2776", "status": "Implementation", "title": "KATHMANDU VALLEY WATER SUPPLY IMPROVEMENT PROJECT", "approvalYear": "2011", "sectors": ["Water supply and other urban infrastructure and services"], "locationName": "Ghattekulo"}}, {"geometry": {"type": "Point", "coordinates": [85.33257, 27.69887]}, "id": "5347", "type": "Feature", "properties": {"id": "46004-34304-043-LN2776", "status": "Implementation", "title": "KATHMANDU VALLEY WATER SUPPLY IMPROVEMENT PROJECT", "approvalYear": "2011", "sectors": ["Water supply and other urban infrastructure and services"], "locationName": "Anamnagar"}}, {"geometry": {"type": "Point", "coordinates": [85.33187, 27.71065]}, "id": "5348", "type": "Feature", "properties": {"id": "46004-34304-043-LN2776", "status": "Implementation", "title": "KATHMANDU VALLEY WATER SUPPLY IMPROVEMENT PROJECT", "approvalYear": "2011", "sectors": ["Water supply and other urban infrastructure and services"], "locationName": "Gyaneshwar"}}, {"geometry": {"type": "Point", "coordinates": [85.33543, 27.70511]}, "id": "5349", "type": "Feature", "properties": {"id": "46004-34304-043-LN2776", "status": "Implementation", "title": "KATHMANDU VALLEY WATER SUPPLY IMPROVEMENT PROJECT", "approvalYear": "2011", "sectors": ["Water supply and other urban infrastructure and services"], "locationName": "Maitidevi"}}, {"geometry": {"type": "Point", "coordinates": [85.33323, 27.71784]}, "id": "5350", "type": "Feature", "properties": {"id": "46004-34304-043-LN2776", "status": "Implementation", "title": "KATHMANDU VALLEY WATER SUPPLY IMPROVEMENT PROJECT", "approvalYear": "2011", "sectors": ["Water supply and other urban infrastructure and services"], "locationName": "Tangal"}}, {"geometry": {"type": "Point", "coordinates": [85.34937, 27.71795]}, "id": "5351", "type": "Feature", "properties": {"id": "46004-34304-043-LN2776", "status": "Implementation", "title": "KATHMANDU VALLEY WATER SUPPLY IMPROVEMENT PROJECT", "approvalYear": "2011", "sectors": ["Water supply and other urban infrastructure and services"], "locationName": "Chabahil"}}, {"geometry": {"type": "Point", "coordinates": [85.35677, 27.71225]}, "id": "5352", "type": "Feature", "properties": {"id": "46004-34304-043-LN2776", "status": "Implementation", "title": "KATHMANDU VALLEY WATER SUPPLY IMPROVEMENT PROJECT", "approvalYear": "2011", "sectors": ["Water supply and other urban infrastructure and services"], "locationName": "Guhyeshwari"}}, {"geometry": {"type": "Point", "coordinates": [85.34613, 27.7093]}, "id": "5353", "type": "Feature", "properties": {"id": "46004-34304-043-LN2776", "status": "Implementation", "title": "KATHMANDU VALLEY WATER SUPPLY IMPROVEMENT PROJECT", "approvalYear": "2011", "sectors": ["Water supply and other urban infrastructure and services"], "locationName": "Gaushala"}}, {"geometry": {"type": "Point", "coordinates": [85.35032, 27.68592]}, "id": "5354", "type": "Feature", "properties": {"id": "46004-34304-043-LN2776", "status": "Implementation", "title": "KATHMANDU VALLEY WATER SUPPLY IMPROVEMENT PROJECT", "approvalYear": "2011", "sectors": ["Water supply and other urban infrastructure and services"], "locationName": "Tinkune"}}, {"geometry": {"type": "Point", "coordinates": [85.31706, 27.68686]}, "id": "5355", "type": "Feature", "properties": {"id": "46004-34304-043-LN2776", "status": "Implementation", "title": "KATHMANDU VALLEY WATER SUPPLY IMPROVEMENT PROJECT", "approvalYear": "2011", "sectors": ["Water supply and other urban infrastructure and services"], "locationName": "Kupandole"}}, {"geometry": {"type": "Point", "coordinates": [85.32496, 27.68261]}, "id": "5356", "type": "Feature", "properties": {"id": "46004-34304-043-LN2776", "status": "Implementation", "title": "KATHMANDU VALLEY WATER SUPPLY IMPROVEMENT PROJECT", "approvalYear": "2011", "sectors": ["Water supply and other urban infrastructure and services"], "locationName": "Chakupat"}}, {"geometry": {"type": "Point", "coordinates": [85.32882, 27.65479]}, "id": "5357", "type": "Feature", "properties": {"id": "46004-34304-043-LN2776", "status": "Implementation", "title": "KATHMANDU VALLEY WATER SUPPLY IMPROVEMENT PROJECT", "approvalYear": "2011", "sectors": ["Water supply and other urban infrastructure and services"], "locationName": "Khumaltar"}}, {"geometry": {"type": "Point", "coordinates": [85.32541, 27.66816]}, "id": "5358", "type": "Feature", "properties": {"id": "46004-34304-043-LN2776", "status": "Implementation", "title": "KATHMANDU VALLEY WATER SUPPLY IMPROVEMENT PROJECT", "approvalYear": "2011", "sectors": ["Water supply and other urban infrastructure and services"], "locationName": "Lagankhel"}}, {"geometry": {"type": "Point", "coordinates": [85.31111, 27.67232]}, "id": "5359", "type": "Feature", "properties": {"id": "46004-34304-043-LN2776", "status": "Implementation", "title": "KATHMANDU VALLEY WATER SUPPLY IMPROVEMENT PROJECT", "approvalYear": "2011", "sectors": ["Water supply and other urban infrastructure and services"], "locationName": "Ekantakuna"}}, {"geometry": {"type": "Point", "coordinates": [85.33193, 27.66973]}, "id": "5360", "type": "Feature", "properties": {"id": "46004-34304-043-LN2776", "status": "Implementation", "title": "KATHMANDU VALLEY WATER SUPPLY IMPROVEMENT PROJECT", "approvalYear": "2011", "sectors": ["Water supply and other urban infrastructure and services"], "locationName": "Sundhara"}}, {"geometry": {"type": "Point", "coordinates": [85.46152, 27.68954]}, "id": "5361", "type": "Feature", "properties": {"id": "46004-34304-043-LN2776", "status": "Implementation", "title": "KATHMANDU VALLEY WATER SUPPLY IMPROVEMENT PROJECT", "approvalYear": "2011", "sectors": ["Water supply and other urban infrastructure and services"], "locationName": "Bansbari"}}, {"geometry": {"type": "Point", "coordinates": [85.39477, 27.6933]}, "id": "5362", "type": "Feature", "properties": {"id": "46004-34304-043-LN2776", "status": "Implementation", "title": "KATHMANDU VALLEY WATER SUPPLY IMPROVEMENT PROJECT", "approvalYear": "2011", "sectors": ["Water supply and other urban infrastructure and services"], "locationName": "Bode"}}, {"geometry": {"type": "Point", "coordinates": [85.33733, 27.73991]}, "id": "5363", "type": "Feature", "properties": {"id": "46004-34304-043-LN2776", "status": "Implementation", "title": "KATHMANDU VALLEY WATER SUPPLY IMPROVEMENT PROJECT", "approvalYear": "2011", "sectors": ["Water supply and other urban infrastructure and services"], "locationName": "Narayan Gopal Chowk"}}, {"geometry": {"type": "Point", "coordinates": [85.31685, 27.67824]}, "id": "5364", "type": "Feature", "properties": {"id": "46004-34304-043-LN2776", "status": "Implementation", "title": "KATHMANDU VALLEY WATER SUPPLY IMPROVEMENT PROJECT", "approvalYear": "2011", "sectors": ["Water supply and other urban infrastructure and services"], "locationName": "Pulchowk"}}, {"geometry": {"type": "Point", "coordinates": [85.32841, 27.70796]}, "id": "5365", "type": "Feature", "properties": {"id": "46004-34304-043-LN2776", "status": "Implementation", "title": "KATHMANDU VALLEY WATER SUPPLY IMPROVEMENT PROJECT", "approvalYear": "2011", "sectors": ["Water supply and other urban infrastructure and services"], "locationName": "Dilli Bazaar"}}, {"geometry": {"type": "Point", "coordinates": [85.31888, 27.70426]}, "id": "5366", "type": "Feature", "properties": {"id": "46004-34304-043-LN2776", "status": "Implementation", "title": "KATHMANDU VALLEY WATER SUPPLY IMPROVEMENT PROJECT", "approvalYear": "2011", "sectors": ["Water supply and other urban infrastructure and services"], "locationName": "Bagbazar"}}, {"geometry": {"type": "Point", "coordinates": [85.30759, 27.69846]}, "id": "5367", "type": "Feature", "properties": {"id": "46004-34304-043-LN2776", "status": "Implementation", "title": "KATHMANDU VALLEY WATER SUPPLY IMPROVEMENT PROJECT", "approvalYear": "2011", "sectors": ["Water supply and other urban infrastructure and services"], "locationName": "Lagan Tole"}}, {"geometry": {"type": "Point", "coordinates": [85.32266, 27.68968]}, "id": "5368", "type": "Feature", "properties": {"id": "46004-34304-043-LN2776", "status": "Implementation", "title": "KATHMANDU VALLEY WATER SUPPLY IMPROVEMENT PROJECT", "approvalYear": "2011", "sectors": ["Water supply and other urban infrastructure and services"], "locationName": "Thapathali"}}, {"geometry": {"type": "Point", "coordinates": [85.32373, 27.69778]}, "id": "5369", "type": "Feature", "properties": {"id": "46004-34304-043-LN2776", "status": "Implementation", "title": "KATHMANDU VALLEY WATER SUPPLY IMPROVEMENT PROJECT", "approvalYear": "2011", "sectors": ["Water supply and other urban infrastructure and services"], "locationName": "Singha Durbar"}}, {"geometry": {"type": "Point", "coordinates": [85.32934, 27.67479]}, "id": "5370", "type": "Feature", "properties": {"id": "46004-34304-043-LN2776", "status": "Implementation", "title": "KATHMANDU VALLEY WATER SUPPLY IMPROVEMENT PROJECT", "approvalYear": "2011", "sectors": ["Water supply and other urban infrastructure and services"], "locationName": "Chyasal"}}, {"geometry": {"type": "Point", "coordinates": [85.32755, 27.67483]}, "id": "5371", "type": "Feature", "properties": {"id": "46004-34304-043-LN2776", "status": "Implementation", "title": "KATHMANDU VALLEY WATER SUPPLY IMPROVEMENT PROJECT", "approvalYear": "2011", "sectors": ["Water supply and other urban infrastructure and services"], "locationName": "Mangal Bazaar"}}, {"geometry": {"type": "Point", "coordinates": [85.32109, 27.67414]}, "id": "5372", "type": "Feature", "properties": {"id": "46004-34304-043-LN2776", "status": "Implementation", "title": "KATHMANDU VALLEY WATER SUPPLY IMPROVEMENT PROJECT", "approvalYear": "2011", "sectors": ["Water supply and other urban infrastructure and services"], "locationName": "Gabahal"}}, {"geometry": {"type": "Point", "coordinates": [85.34266, 27.73248]}, "id": "5373", "type": "Feature", "properties": {"id": "46004-34304-043-LN2776", "status": "Implementation", "title": "KATHMANDU VALLEY WATER SUPPLY IMPROVEMENT PROJECT", "approvalYear": "2011", "sectors": ["Water supply and other urban infrastructure and services"], "locationName": "Sankha Park"}}, {"geometry": {"type": "Point", "coordinates": [85.30942, 27.74375]}, "id": "5374", "type": "Feature", "properties": {"id": "46004-34304-043-LN2776", "status": "Implementation", "title": "KATHMANDU VALLEY WATER SUPPLY IMPROVEMENT PROJECT", "approvalYear": "2011", "sectors": ["Water supply and other urban infrastructure and services"], "locationName": "Mahadev Khola"}}, {"geometry": {"type": "Point", "coordinates": [87.83333, 27.66667]}, "id": "5375", "type": "Feature", "properties": {"id": "46004-38426-023-LN2796", "status": "Implementation", "title": "DECENTRALIZED RURAL INFRASTRUCTURE & LIVELIHOOD PRJ-ADDT'L FNCING", "approvalYear": "2012", "sectors": ["Transport"], "locationName": "Taplejung"}}, {"geometry": {"type": "Point", "coordinates": [86.75, 27.75]}, "id": "5376", "type": "Feature", "properties": {"id": "46004-38426-023-LN2796", "status": "Implementation", "title": "DECENTRALIZED RURAL INFRASTRUCTURE & LIVELIHOOD PRJ-ADDT'L FNCING", "approvalYear": "2012", "sectors": ["Transport"], "locationName": "Solukhumbu"}}, {"geometry": {"type": "Point", "coordinates": [86.08333, 27.41667]}, "id": "5377", "type": "Feature", "properties": {"id": "46004-38426-023-LN2796", "status": "Implementation", "title": "DECENTRALIZED RURAL INFRASTRUCTURE & LIVELIHOOD PRJ-ADDT'L FNCING", "approvalYear": "2012", "sectors": ["Transport"], "locationName": "Ramechhap"}}, {"geometry": {"type": "Point", "coordinates": [83.33333, 28.58333]}, "id": "5378", "type": "Feature", "properties": {"id": "46004-38426-023-LN2796", "status": "Implementation", "title": "DECENTRALIZED RURAL INFRASTRUCTURE & LIVELIHOOD PRJ-ADDT'L FNCING", "approvalYear": "2012", "sectors": ["Transport"], "locationName": "Myagdi"}}, {"geometry": {"type": "Point", "coordinates": [82.41667, 29.58333]}, "id": "5379", "type": "Feature", "properties": {"id": "46004-38426-023-LN2796", "status": "Implementation", "title": "DECENTRALIZED RURAL INFRASTRUCTURE & LIVELIHOOD PRJ-ADDT'L FNCING", "approvalYear": "2012", "sectors": ["Transport"], "locationName": "Mugu"}}, {"geometry": {"type": "Point", "coordinates": [84.41667, 28.25]}, "id": "5380", "type": "Feature", "properties": {"id": "46004-38426-023-LN2796", "status": "Implementation", "title": "DECENTRALIZED RURAL INFRASTRUCTURE & LIVELIHOOD PRJ-ADDT'L FNCING", "approvalYear": "2012", "sectors": ["Transport"], "locationName": "Lamjung"}}, {"geometry": {"type": "Point", "coordinates": [81.83333, 29.25]}, "id": "5381", "type": "Feature", "properties": {"id": "46004-38426-023-LN2796", "status": "Implementation", "title": "DECENTRALIZED RURAL INFRASTRUCTURE & LIVELIHOOD PRJ-ADDT'L FNCING", "approvalYear": "2012", "sectors": ["Transport"], "locationName": "Kalikot"}}, {"geometry": {"type": "Point", "coordinates": [82.18333, 29.27528]}, "id": "5382", "type": "Feature", "properties": {"id": "46004-38426-023-LN2796", "status": "Implementation", "title": "DECENTRALIZED RURAL INFRASTRUCTURE & LIVELIHOOD PRJ-ADDT'L FNCING", "approvalYear": "2012", "sectors": ["Transport"], "locationName": "Jumla"}}, {"geometry": {"type": "Point", "coordinates": [82.25, 28.83333]}, "id": "5383", "type": "Feature", "properties": {"id": "46004-38426-023-LN2796", "status": "Implementation", "title": "DECENTRALIZED RURAL INFRASTRUCTURE & LIVELIHOOD PRJ-ADDT'L FNCING", "approvalYear": "2012", "sectors": ["Transport"], "locationName": "Jajarkot"}}, {"geometry": {"type": "Point", "coordinates": [81.91667, 29.91667]}, "id": "5384", "type": "Feature", "properties": {"id": "46004-38426-023-LN2796", "status": "Implementation", "title": "DECENTRALIZED RURAL INFRASTRUCTURE & LIVELIHOOD PRJ-ADDT'L FNCING", "approvalYear": "2012", "sectors": ["Transport"], "locationName": "Humla"}}, {"geometry": {"type": "Point", "coordinates": [84.83333, 28.33333]}, "id": "5385", "type": "Feature", "properties": {"id": "46004-38426-023-LN2796", "status": "Implementation", "title": "DECENTRALIZED RURAL INFRASTRUCTURE & LIVELIHOOD PRJ-ADDT'L FNCING", "approvalYear": "2012", "sectors": ["Transport"], "locationName": "Gorkha"}}, {"geometry": {"type": "Point", "coordinates": [83.08333, 29.16667]}, "id": "5386", "type": "Feature", "properties": {"id": "46004-38426-023-LN2796", "status": "Implementation", "title": "DECENTRALIZED RURAL INFRASTRUCTURE & LIVELIHOOD PRJ-ADDT'L FNCING", "approvalYear": "2012", "sectors": ["Transport"], "locationName": "Dolpa"}}, {"geometry": {"type": "Point", "coordinates": [80.75, 29.91667]}, "id": "5387", "type": "Feature", "properties": {"id": "46004-38426-023-LN2796", "status": "Implementation", "title": "DECENTRALIZED RURAL INFRASTRUCTURE & LIVELIHOOD PRJ-ADDT'L FNCING", "approvalYear": "2012", "sectors": ["Transport"], "locationName": "Darchula"}}, {"geometry": {"type": "Point", "coordinates": [81.5, 29.5]}, "id": "5388", "type": "Feature", "properties": {"id": "46004-38426-023-LN2796", "status": "Implementation", "title": "DECENTRALIZED RURAL INFRASTRUCTURE & LIVELIHOOD PRJ-ADDT'L FNCING", "approvalYear": "2012", "sectors": ["Transport"], "locationName": "Bajura"}}, {"geometry": {"type": "Point", "coordinates": [81.25, 29.66667]}, "id": "5389", "type": "Feature", "properties": {"id": "46004-38426-023-LN2796", "status": "Implementation", "title": "DECENTRALIZED RURAL INFRASTRUCTURE & LIVELIHOOD PRJ-ADDT'L FNCING", "approvalYear": "2012", "sectors": ["Transport"], "locationName": "Bajhang"}}, {"geometry": {"type": "Point", "coordinates": [80.58333, 29.5]}, "id": "5390", "type": "Feature", "properties": {"id": "46004-38426-023-LN2796", "status": "Implementation", "title": "DECENTRALIZED RURAL INFRASTRUCTURE & LIVELIHOOD PRJ-ADDT'L FNCING", "approvalYear": "2012", "sectors": ["Transport"], "locationName": "Baitadi"}}, {"geometry": {"type": "Point", "coordinates": [83.16667, 28.41667]}, "id": "5391", "type": "Feature", "properties": {"id": "46004-38426-023-LN2796", "status": "Implementation", "title": "DECENTRALIZED RURAL INFRASTRUCTURE & LIVELIHOOD PRJ-ADDT'L FNCING", "approvalYear": "2012", "sectors": ["Transport"], "locationName": "Baglung"}}, {"geometry": {"type": "Point", "coordinates": [86.41667, 27.33333]}, "id": "5392", "type": "Feature", "properties": {"id": "46004-38426-023-LN2796", "status": "Implementation", "title": "DECENTRALIZED RURAL INFRASTRUCTURE & LIVELIHOOD PRJ-ADDT'L FNCING", "approvalYear": "2012", "sectors": ["Transport"], "locationName": "Okhaldhunga"}}, {"geometry": {"type": "Point", "coordinates": [85.37981, 27.72416]}, "id": "5393", "type": "Feature", "properties": {"id": "46004-41155-013-LN2808", "status": "Implementation", "title": "ELECTRICITY TRANSMISSION EXPANSION & SUPPLY IMPROVEMENT PROJECT", "approvalYear": "2012", "sectors": ["Energy"], "locationName": "Jorpati"}}, {"geometry": {"type": "Point", "coordinates": [86.1404, 27.45353]}, "id": "5394", "type": "Feature", "properties": {"id": "46004-41155-013-LN2808", "status": "Implementation", "title": "ELECTRICITY TRANSMISSION EXPANSION & SUPPLY IMPROVEMENT PROJECT", "approvalYear": "2012", "sectors": ["Energy"], "locationName": "Khimti"}}, {"geometry": {"type": "Point", "coordinates": [88.0531, 26.5749]}, "id": "5395", "type": "Feature", "properties": {"id": "46004-41155-013-LN2808", "status": "Implementation", "title": "ELECTRICITY TRANSMISSION EXPANSION & SUPPLY IMPROVEMENT PROJECT", "approvalYear": "2012", "sectors": ["Energy"], "locationName": "Chandragadhi1"}}, {"geometry": {"type": "Point", "coordinates": [82.7998, 27.5029]}, "id": "5396", "type": "Feature", "properties": {"id": "46004-41155-013-LN2808", "status": "Implementation", "title": "ELECTRICITY TRANSMISSION EXPANSION & SUPPLY IMPROVEMENT PROJECT", "approvalYear": "2012", "sectors": ["Energy"], "locationName": "KrishnaNagar1"}}, {"geometry": {"type": "Point", "coordinates": [80.13069, 28.99961]}, "id": "5397", "type": "Feature", "properties": {"id": "46004-41155-013-LN2808", "status": "Implementation", "title": "ELECTRICITY TRANSMISSION EXPANSION & SUPPLY IMPROVEMENT PROJECT", "approvalYear": "2012", "sectors": ["Energy"], "locationName": "Gaddachauki"}}, {"geometry": {"type": "Point", "coordinates": [85.36169, 27.77144]}, "id": "5398", "type": "Feature", "properties": {"id": "46004-41155-013-LN2808", "status": "Implementation", "title": "ELECTRICITY TRANSMISSION EXPANSION & SUPPLY IMPROVEMENT PROJECT", "approvalYear": "2012", "sectors": ["Energy"], "locationName": "Chapali"}}, {"geometry": {"type": "Point", "coordinates": [83.58148, 27.97243]}, "id": "5399", "type": "Feature", "properties": {"id": "46004-41155-013-LN2808", "status": "Implementation", "title": "ELECTRICITY TRANSMISSION EXPANSION & SUPPLY IMPROVEMENT PROJECT", "approvalYear": "2012", "sectors": ["Energy"], "locationName": "Mirmi"}}, {"geometry": {"type": "Point", "coordinates": [83.75324, 27.975]}, "id": "5400", "type": "Feature", "properties": {"id": "46004-41155-013-LN2808", "status": "Implementation", "title": "ELECTRICITY TRANSMISSION EXPANSION & SUPPLY IMPROVEMENT PROJECT", "approvalYear": "2012", "sectors": ["Energy"], "locationName": "Syanja"}}, {"geometry": {"type": "Point", "coordinates": [81.3255, 28.45224]}, "id": "5401", "type": "Feature", "properties": {"id": "46004-41155-013-LN2808", "status": "Implementation", "title": "ELECTRICITY TRANSMISSION EXPANSION & SUPPLY IMPROVEMENT PROJECT", "approvalYear": "2012", "sectors": ["Energy"], "locationName": "Bhurigaun"}}, {"geometry": {"type": "Point", "coordinates": [87.4351, 26.6675]}, "id": "5402", "type": "Feature", "properties": {"id": "46004-41155-013-LN2808", "status": "Implementation", "title": "ELECTRICITY TRANSMISSION EXPANSION & SUPPLY IMPROVEMENT PROJECT", "approvalYear": "2012", "sectors": ["Energy"], "locationName": "Belbari"}}, {"geometry": {"type": "Point", "coordinates": [85.9919, 27.3175]}, "id": "5403", "type": "Feature", "properties": {"id": "46004-41155-013-LN2808", "status": "Implementation", "title": "ELECTRICITY TRANSMISSION EXPANSION & SUPPLY IMPROVEMENT PROJECT", "approvalYear": "2012", "sectors": ["Energy"], "locationName": "Bhimeshwor"}}, {"geometry": {"type": "Point", "coordinates": [83.40055, 27.5916]}, "id": "5404", "type": "Feature", "properties": {"id": "46004-41155-013-LN2808", "status": "Implementation", "title": "ELECTRICITY TRANSMISSION EXPANSION & SUPPLY IMPROVEMENT PROJECT", "approvalYear": "2012", "sectors": ["Energy"], "locationName": "Amuwa"}}, {"geometry": {"type": "Point", "coordinates": [83.05356, 27.5445]}, "id": "5405", "type": "Feature", "properties": {"id": "46004-41155-013-LN2808", "status": "Implementation", "title": "ELECTRICITY TRANSMISSION EXPANSION & SUPPLY IMPROVEMENT PROJECT", "approvalYear": "2012", "sectors": ["Energy"], "locationName": "Taulihawa"}}, {"geometry": {"type": "Point", "coordinates": [85.41351, 27.75463]}, "id": "5406", "type": "Feature", "properties": {"id": "46004-41155-013-LN2808", "status": "Implementation", "title": "ELECTRICITY TRANSMISSION EXPANSION & SUPPLY IMPROVEMENT PROJECT", "approvalYear": "2012", "sectors": ["Energy"], "locationName": "Sundarijal"}}, {"geometry": {"type": "Point", "coordinates": [81.16667, 29.25]}, "id": "5407", "type": "Feature", "properties": {"id": "46004-41155-013-LN2808", "status": "Implementation", "title": "ELECTRICITY TRANSMISSION EXPANSION & SUPPLY IMPROVEMENT PROJECT", "approvalYear": "2012", "sectors": ["Energy"], "locationName": "Seti Zone"}}, {"geometry": {"type": "Point", "coordinates": [83.68063, 27.5225]}, "id": "5408", "type": "Feature", "properties": {"id": "46004-41155-013-LN2808", "status": "Implementation", "title": "ELECTRICITY TRANSMISSION EXPANSION & SUPPLY IMPROVEMENT PROJECT", "approvalYear": "2012", "sectors": ["Energy"], "locationName": "Parasi"}}, {"geometry": {"type": "Point", "coordinates": [85.17032, 27.20249]}, "id": "5409", "type": "Feature", "properties": {"id": "46004-41155-013-LN2808", "status": "Implementation", "title": "ELECTRICITY TRANSMISSION EXPANSION & SUPPLY IMPROVEMENT PROJECT", "approvalYear": "2012", "sectors": ["Energy"], "locationName": "Nijgarh"}}, {"geometry": {"type": "Point", "coordinates": [80.33333, 28.91667]}, "id": "5410", "type": "Feature", "properties": {"id": "46004-41155-013-LN2808", "status": "Implementation", "title": "ELECTRICITY TRANSMISSION EXPANSION & SUPPLY IMPROVEMENT PROJECT", "approvalYear": "2012", "sectors": ["Energy"], "locationName": "Mahendranagar"}}, {"geometry": {"type": "Point", "coordinates": [80.55, 29.41667]}, "id": "5411", "type": "Feature", "properties": {"id": "46004-41155-013-LN2808", "status": "Implementation", "title": "ELECTRICITY TRANSMISSION EXPANSION & SUPPLY IMPROVEMENT PROJECT", "approvalYear": "2012", "sectors": ["Energy"], "locationName": "Mahakali Zone"}}, {"geometry": {"type": "Point", "coordinates": [85.3206, 27.70169]}, "id": "5412", "type": "Feature", "properties": {"id": "46004-41155-013-LN2808", "status": "Implementation", "title": "ELECTRICITY TRANSMISSION EXPANSION & SUPPLY IMPROVEMENT PROJECT", "approvalYear": "2012", "sectors": ["Energy"], "locationName": "Kathmandu"}}, {"geometry": {"type": "Point", "coordinates": [80.33333, 28.83333]}, "id": "5413", "type": "Feature", "properties": {"id": "46004-41155-013-LN2808", "status": "Implementation", "title": "ELECTRICITY TRANSMISSION EXPANSION & SUPPLY IMPROVEMENT PROJECT", "approvalYear": "2012", "sectors": ["Energy"], "locationName": "Kanchanpur"}}, {"geometry": {"type": "Point", "coordinates": [86.0, 27.33333]}, "id": "5414", "type": "Feature", "properties": {"id": "46004-41155-013-LN2808", "status": "Implementation", "title": "ELECTRICITY TRANSMISSION EXPANSION & SUPPLY IMPROVEMENT PROJECT", "approvalYear": "2012", "sectors": ["Energy"], "locationName": "Janakpur Zone"}}, {"geometry": {"type": "Point", "coordinates": [84.62009, 28.00242]}, "id": "5415", "type": "Feature", "properties": {"id": "46004-41155-013-LN2808", "status": "Implementation", "title": "ELECTRICITY TRANSMISSION EXPANSION & SUPPLY IMPROVEMENT PROJECT", "approvalYear": "2012", "sectors": ["Energy"], "locationName": "Gorkha"}}, {"geometry": {"type": "Point", "coordinates": [85.26667, 26.76667]}, "id": "5416", "type": "Feature", "properties": {"id": "46004-41155-013-LN2808", "status": "Implementation", "title": "ELECTRICITY TRANSMISSION EXPANSION & SUPPLY IMPROVEMENT PROJECT", "approvalYear": "2012", "sectors": ["Energy"], "locationName": "Gaur"}}, {"geometry": {"type": "Point", "coordinates": [84.9283, 27.86424]}, "id": "5417", "type": "Feature", "properties": {"id": "46004-41155-013-LN2808", "status": "Implementation", "title": "ELECTRICITY TRANSMISSION EXPANSION & SUPPLY IMPROVEMENT PROJECT", "approvalYear": "2012", "sectors": ["Energy"], "locationName": "Dhading"}}, {"geometry": {"type": "Point", "coordinates": [83.44836, 27.70055]}, "id": "5418", "type": "Feature", "properties": {"id": "46004-41155-013-LN2808", "status": "Implementation", "title": "ELECTRICITY TRANSMISSION EXPANSION & SUPPLY IMPROVEMENT PROJECT", "approvalYear": "2012", "sectors": ["Energy"], "locationName": "Butwal"}}, {"geometry": {"type": "Point", "coordinates": [81.66667, 28.58333]}, "id": "5419", "type": "Feature", "properties": {"id": "46004-41155-013-LN2808", "status": "Implementation", "title": "ELECTRICITY TRANSMISSION EXPANSION & SUPPLY IMPROVEMENT PROJECT", "approvalYear": "2012", "sectors": ["Energy"], "locationName": "Bheri Zone"}}, {"geometry": {"type": "Point", "coordinates": [85.90108, 27.78742]}, "id": "5420", "type": "Feature", "properties": {"id": "46004-41155-013-LN2808", "status": "Implementation", "title": "ELECTRICITY TRANSMISSION EXPANSION & SUPPLY IMPROVEMENT PROJECT", "approvalYear": "2012", "sectors": ["Energy"], "locationName": "Bahrabise"}}, {"geometry": {"type": "Point", "coordinates": [85.41667, 27.91667]}, "id": "5421", "type": "Feature", "properties": {"id": "46004-41155-013-LN2808", "status": "Implementation", "title": "ELECTRICITY TRANSMISSION EXPANSION & SUPPLY IMPROVEMENT PROJECT", "approvalYear": "2012", "sectors": ["Energy"], "locationName": "Bagmati Zone"}}, {"geometry": {"type": "Point", "coordinates": [81.68472, 28.19389]}, "id": "5422", "type": "Feature", "properties": {"id": "46004-41155-013-LN2808", "status": "Implementation", "title": "ELECTRICITY TRANSMISSION EXPANSION & SUPPLY IMPROVEMENT PROJECT", "approvalYear": "2012", "sectors": ["Energy"], "locationName": "Kohalpur"}}, {"geometry": {"type": "Point", "coordinates": [85.90646, 26.71828]}, "id": "5423", "type": "Feature", "properties": {"id": "46004-42161-013-GRNT0284", "status": "Implementation", "title": "INTEGRATED URBAN DEVELOPMENT PROJECT", "approvalYear": "2012", "sectors": ["Water supply and other urban infrastructure and services"], "locationName": "Janakpur"}}, {"geometry": {"type": "Point", "coordinates": [87.28355, 26.81248]}, "id": "5424", "type": "Feature", "properties": {"id": "46004-42161-013-GRNT0284", "status": "Implementation", "title": "INTEGRATED URBAN DEVELOPMENT PROJECT", "approvalYear": "2012", "sectors": ["Water supply and other urban infrastructure and services"], "locationName": "Dharan Bazar"}}, {"geometry": {"type": "Point", "coordinates": [83.45, 27.5]}, "id": "5425", "type": "Feature", "properties": {"id": "46004-42161-013-GRNT0284", "status": "Implementation", "title": "INTEGRATED URBAN DEVELOPMENT PROJECT", "approvalYear": "2012", "sectors": ["Water supply and other urban infrastructure and services"], "locationName": "Siddharthanagar"}}, {"geometry": {"type": "Point", "coordinates": [81.61667, 28.05]}, "id": "5426", "type": "Feature", "properties": {"id": "46004-42161-013-GRNT0284", "status": "Implementation", "title": "INTEGRATED URBAN DEVELOPMENT PROJECT", "approvalYear": "2012", "sectors": ["Water supply and other urban infrastructure and services"], "locationName": "Nepalgunj"}}, {"geometry": {"type": "Point", "coordinates": [85.90646, 26.71828]}, "id": "5427", "type": "Feature", "properties": {"id": "46004-42161-013-LN2851", "status": "Implementation", "title": "INTEGRATED URBAN DEVELOPMENT PROJECT(SF)", "approvalYear": "2012", "sectors": ["Water supply and other urban infrastructure and services"], "locationName": "Janakpur"}}, {"geometry": {"type": "Point", "coordinates": [87.28355, 26.81248]}, "id": "5428", "type": "Feature", "properties": {"id": "46004-42161-013-LN2851", "status": "Implementation", "title": "INTEGRATED URBAN DEVELOPMENT PROJECT(SF)", "approvalYear": "2012", "sectors": ["Water supply and other urban infrastructure and services"], "locationName": "Dharan Bazar"}}, {"geometry": {"type": "Point", "coordinates": [83.45, 27.5]}, "id": "5429", "type": "Feature", "properties": {"id": "46004-42161-013-LN2851", "status": "Implementation", "title": "INTEGRATED URBAN DEVELOPMENT PROJECT(SF)", "approvalYear": "2012", "sectors": ["Water supply and other urban infrastructure and services"], "locationName": "Siddharthanagar"}}, {"geometry": {"type": "Point", "coordinates": [81.61667, 28.05]}, "id": "5430", "type": "Feature", "properties": {"id": "46004-42161-013-LN2851", "status": "Implementation", "title": "INTEGRATED URBAN DEVELOPMENT PROJECT(SF)", "approvalYear": "2012", "sectors": ["Water supply and other urban infrastructure and services"], "locationName": "Nepalgunj"}}, {"geometry": {"type": "Point", "coordinates": [84.0, 28.0]},