{"type": "FeatureCollection", "id": "TL", "features": [{"geometry": {"type": "Point", "coordinates": [125.66667, -8.55]}, "id": "6553", "type": "Feature", "properties": {"id": "46004-38189-022-GRNT0100", "status": "Implementation", "title": "DILI URBAN WATER SUPPLY SECTOR PROJECT", "approvalYear": "2008", "sectors": ["Water supply and other urban infrastructure and services"], "locationName": "Dili"}}, {"geometry": {"type": "Point", "coordinates": [125.57361, -8.55861]}, "id": "6554", "type": "Feature", "properties": {"id": "46004-38189-022-GRNT0100", "status": "Implementation", "title": "DILI URBAN WATER SUPPLY SECTOR PROJECT", "approvalYear": "2008", "sectors": ["Water supply and other urban infrastructure and services"], "locationName": "Dili"}}, {"geometry": {"type": "Point", "coordinates": [125.53472, -8.53833]}, "id": "6555", "type": "Feature", "properties": {"id": "46004-38189-022-GRNT0100", "status": "Implementation", "title": "DILI URBAN WATER SUPPLY SECTOR PROJECT", "approvalYear": "2008", "sectors": ["Water supply and other urban infrastructure and services"], "locationName": "Comoro"}}, {"geometry": {"type": "Point", "coordinates": [125.75, -8.83333]}, "id": "6556", "type": "Feature", "properties": {"id": "46004-38189-022-GRNT0100", "status": "Implementation", "title": "DILI URBAN WATER SUPPLY SECTOR PROJECT", "approvalYear": "2008", "sectors": ["Water supply and other urban infrastructure and services"], "locationName": "East Timor"}}, {"geometry": {"type": "Point", "coordinates": [125.52472, -8.54667]}, "id": "6557", "type": "Feature", "properties": {"id": "46004-38189-022-GRNT0100", "status": "Implementation", "title": "DILI URBAN WATER SUPPLY SECTOR PROJECT", "approvalYear": "2008", "sectors": ["Water supply and other urban infrastructure and services"], "locationName": "Dom Aleixo"}}, {"geometry": {"type": "Point", "coordinates": [125.51667, -8.55]}, "id": "6558", "type": "Feature", "properties": {"id": "46004-38189-022-GRNT0100", "status": "Implementation", "title": "DILI URBAN WATER SUPPLY SECTOR PROJECT", "approvalYear": "2008", "sectors": ["Water supply and other urban infrastructure and services"], "locationName": "Comoro"}}, {"geometry": {"type": "Point", "coordinates": [125.11278, -9.34001]}, "id": "6559", "type": "Feature", "properties": {"id": "46004-43322-012-GRNT0180", "status": "Implementation", "title": "ROAD NETWORK DEVELOPMENT SECTOR PROJECT", "approvalYear": "2010", "sectors": ["Transport"], "locationName": "Tilomar"}}, {"geometry": {"type": "Point", "coordinates": [125.25648, -9.31286]}, "id": "6560", "type": "Feature", "properties": {"id": "46004-43322-012-GRNT0180", "status": "Implementation", "title": "ROAD NETWORK DEVELOPMENT SECTOR PROJECT", "approvalYear": "2010", "sectors": ["Transport"], "locationName": "Suai"}}, {"geometry": {"type": "Point", "coordinates": [124.35, -9.36667]}, "id": "6561", "type": "Feature", "properties": {"id": "46004-43322-012-GRNT0180", "status": "Implementation", "title": "ROAD NETWORK DEVELOPMENT SECTOR PROJECT", "approvalYear": "2010", "sectors": ["Transport"], "locationName": "Oesilo"}}, {"geometry": {"type": "Point", "coordinates": [124.95444, -8.95694]}, "id": "6562", "type": "Feature", "properties": {"id": "46004-43322-012-GRNT0180", "status": "Implementation", "title": "ROAD NETWORK DEVELOPMENT SECTOR PROJECT", "approvalYear": "2010", "sectors": ["Transport"], "locationName": "Motaain"}}, {"geometry": {"type": "Point", "coordinates": [125.20611, -8.61194]}, "id": "6563", "type": "Feature", "properties": {"id": "46004-43322-012-GRNT0180", "status": "Implementation", "title": "ROAD NETWORK DEVELOPMENT SECTOR PROJECT", "approvalYear": "2010", "sectors": ["Transport"], "locationName": "Maubara"}}, {"geometry": {"type": "Point", "coordinates": [125.21972, -8.99167]}, "id": "6564", "type": "Feature", "properties": {"id": "46004-43322-012-GRNT0180", "status": "Implementation", "title": "ROAD NETWORK DEVELOPMENT SECTOR PROJECT", "approvalYear": "2010", "sectors": ["Transport"], "locationName": "Maliana"}}, {"geometry": {"type": "Point", "coordinates": [125.34194, -8.5875]}, "id": "6565", "type": "Feature", "properties": {"id": "46004-43322-012-GRNT0180", "status": "Implementation", "title": "ROAD NETWORK DEVELOPMENT SECTOR PROJECT", "approvalYear": "2010", "sectors": ["Transport"], "locationName": "Liquica"}}, {"geometry": {"type": "Point", "coordinates": [125.25, -9.26667]}, "id": "6566", "type": "Feature", "properties": {"id": "46004-43322-012-GRNT0180", "status": "Implementation", "title": "ROAD NETWORK DEVELOPMENT SECTOR PROJECT", "approvalYear": "2010", "sectors": ["Transport"], "locationName": "Cova Lima District"}}, {"geometry": {"type": "Point", "coordinates": [125.38778, -8.83028]}, "id": "6567", "type": "Feature", "properties": {"id": "46004-43322-012-GRNT0180", "status": "Implementation", "title": "ROAD NETWORK DEVELOPMENT SECTOR PROJECT", "approvalYear": "2010", "sectors": ["Transport"], "locationName": "Ermera"}}, {"geometry": {"type": "Point", "coordinates": [125.21667, -8.95]}, "id": "6568", "type": "Feature", "properties": {"id": "46004-43322-012-GRNT0180", "status": "Implementation", "title": "ROAD NETWORK DEVELOPMENT SECTOR PROJECT", "approvalYear": "2010", "sectors": ["Transport"], "locationName": "Bobonaro"}}, {"geometry": {"type": "Point", "coordinates": [124.9725, -8.94722]}, "id": "6569", "type": "Feature", "properties": {"id": "46004-43322-012-GRNT0180", "status": "Implementation", "title": "ROAD NETWORK DEVELOPMENT SECTOR PROJECT", "approvalYear": "2010", "sectors": ["Transport"], "locationName": "Batugade"}}, {"geometry": {"type": "Point", "coordinates": [125.39806, -8.925]}, "id": "6570", "type": "Feature", "properties": {"id": "46004-43322-012-GRNT0180", "status": "Implementation", "title": "ROAD NETWORK DEVELOPMENT SECTOR PROJECT", "approvalYear": "2010", "sectors": ["Transport"], "locationName": "Atsabe"}}, {"geometry": {"type": "Point", "coordinates": [124.29306, -9.31361]}, "id": "6571", "type": "Feature", "properties": {"id": "46004-43322-012-GRNT0180", "status": "Implementation", "title": "ROAD NETWORK DEVELOPMENT SECTOR PROJECT", "approvalYear": "2010", "sectors": ["Transport"], "locationName": "Oecusse"}}, {"geometry": {"type": "Point", "coordinates": [124.35687, -9.20366]}, "id": "6572", "type": "Feature", "properties": {"id": "46004-43322-012-GRNT0180", "status": "Implementation", "title": "ROAD NETWORK DEVELOPMENT SECTOR PROJECT", "approvalYear": "2010", "sectors": ["Transport"], "locationName": "Oe-Cussi"}}, {"geometry": {"type": "Point", "coordinates": [125.13194, -9.19083]}, "id": "6573", "type": "Feature", "properties": {"id": "46004-43322-012-GRNT0180", "status": "Implementation", "title": "ROAD NETWORK DEVELOPMENT SECTOR PROJECT", "approvalYear": "2010", "sectors": ["Transport"], "locationName": "Fatululik"}}, {"geometry": {"type": "Point", "coordinates": [124.45889, -9.17278]}, "id": "6574", "type": "Feature", "properties": {"id": "46004-43322-012-GRNT0180", "status": "Implementation", "title": "ROAD NETWORK DEVELOPMENT SECTOR PROJECT", "approvalYear": "2010", "sectors": ["Transport"], "locationName": "Sakato"}}, {"geometry": {"type": "Point", "coordinates": [125.29528, -9.03056]}, "id": "6575", "type": "Feature", "properties": {"id": "46004-43322-012-GRNT0180", "status": "Implementation", "title": "ROAD NETWORK DEVELOPMENT SECTOR PROJECT", "approvalYear": "2010", "sectors": ["Transport"], "locationName": "Oeleu"}}, {"geometry": {"type": "Point", "coordinates": [125.355, -9.01583]}, "id": "6576", "type": "Feature", "properties": {"id": "46004-43322-012-GRNT0180", "status": "Implementation", "title": "ROAD NETWORK DEVELOPMENT SECTOR PROJECT", "approvalYear": "2010", "sectors": ["Transport"], "locationName": "Lourba"}}, {"geometry": {"type": "Point", "coordinates": [125.45056, -9.1575]}, "id": "6577", "type": "Feature", "properties": {"id": "46004-43322-012-GRNT0180", "status": "Implementation", "title": "ROAD NETWORK DEVELOPMENT SECTOR PROJECT", "approvalYear": "2010", "sectors": ["Transport"], "locationName": "Zumalai"}}, {"geometry": {"type": "Point", "coordinates": [125.75, -8.83333]}, "id": "6578", "type": "Feature", "properties": {"id": "46004-43322-012-GRNT0180", "status": "Implementation", "title": "ROAD NETWORK DEVELOPMENT SECTOR PROJECT", "approvalYear": "2010", "sectors": ["Transport"], "locationName": "East Timor"}}, {"geometry": {"type": "Point", "coordinates": [125.21667, -8.98333]}, "id": "6579", "type": "Feature", "properties": {"id": "46004-43322-012-GRNT0180", "status": "Implementation", "title": "ROAD NETWORK DEVELOPMENT SECTOR PROJECT", "approvalYear": "2010", "sectors": ["Transport"], "locationName": "Maliana"}}, {"geometry": {"type": "Point", "coordinates": [125.1585, -8.80954]}, "id": "6580", "type": "Feature", "properties": {"id": "46004-43322-012-GRNT0180", "status": "Implementation", "title": "ROAD NETWORK DEVELOPMENT SECTOR PROJECT", "approvalYear": "2010", "sectors": ["Transport"], "locationName": "Atabae"}}, {"geometry": {"type": "Point", "coordinates": [125.043, -8.97145]}, "id": "6581", "type": "Feature", "properties": {"id": "46004-43322-012-GRNT0180", "status": "Implementation", "title": "ROAD NETWORK DEVELOPMENT SECTOR PROJECT", "approvalYear": "2010", "sectors": ["Transport"], "locationName": "Balibo"}}, {"geometry": {"type": "Point", "coordinates": [125.325, -9.03194]}, "id": "6582", "type": "Feature", "properties": {"id": "46004-43322-012-GRNT0180", "status": "Implementation", "title": "ROAD NETWORK DEVELOPMENT SECTOR PROJECT", "approvalYear": "2010", "sectors": ["Transport"], "locationName": "Bobonaro"}}, {"geometry": {"type": "Point", "coordinates": [125.45056, -9.1575]}, "id": "6583", "type": "Feature", "properties": {"id": "46004-43322-012-GRNT0180", "status": "Implementation", "title": "ROAD NETWORK DEVELOPMENT SECTOR PROJECT", "approvalYear": "2010", "sectors": ["Transport"], "locationName": "Zumalai"}}, {"geometry": {"type": "Point", "coordinates": [125.35, -8.58333]}, "id": "6584", "type": "Feature", "properties": {"id": "46004-43322-012-GRNT0180", "status": "Implementation", "title": "ROAD NETWORK DEVELOPMENT SECTOR PROJECT", "approvalYear": "2010", "sectors": ["Transport"], "locationName": "Liquica"}}, {"geometry": {"type": "Point", "coordinates": [125.2, -8.61667]}, "id": "6585", "type": "Feature", "properties": {"id": "46004-43322-012-GRNT0180", "status": "Implementation", "title": "ROAD NETWORK DEVELOPMENT SECTOR PROJECT", "approvalYear": "2010", "sectors": ["Transport"], "locationName": "Maubara"}}, {"geometry": {"type": "Point", "coordinates": [125.3968, -8.93058]}, "id": "6586", "type": "Feature", "properties": {"id": "46004-43322-012-GRNT0180", "status": "Implementation", "title": "ROAD NETWORK DEVELOPMENT SECTOR PROJECT", "approvalYear": "2010", "sectors": ["Transport"], "locationName": "Atsabe"}}, {"geometry": {"type": "Point", "coordinates": [125.25, -9.3]}, "id": "6587", "type": "Feature", "properties": {"id": "46004-43322-012-GRNT0180", "status": "Implementation", "title": "ROAD NETWORK DEVELOPMENT SECTOR PROJECT", "approvalYear": "2010", "sectors": ["Transport"], "locationName": "Suai"}}, {"geometry": {"type": "Point", "coordinates": [125.10887, -9.34182]}, "id": "6588", "type": "Feature", "properties": {"id": "46004-43322-012-GRNT0180", "status": "Implementation", "title": "ROAD NETWORK DEVELOPMENT SECTOR PROJECT", "approvalYear": "2010", "sectors": ["Transport"], "locationName": "Tilomar"}}, {"geometry": {"type": "Point", "coordinates": [125.38333, -8.83333]}, "id": "6589", "type": "Feature", "properties": {"id": "46004-43322-012-GRNT0180", "status": "Implementation", "title": "ROAD NETWORK DEVELOPMENT SECTOR PROJECT", "approvalYear": "2010", "sectors": ["Transport"], "locationName": "Ermera"}}, {"geometry": {"type": "Point", "coordinates": [125.17058, -9.39236]}, "id": "6590", "type": "Feature", "properties": {"id": "46004-43322-012-GRNT0180", "status": "Implementation", "title": "ROAD NETWORK DEVELOPMENT SECTOR PROJECT", "approvalYear": "2010", "sectors": ["Transport"], "locationName": "Salele"}}, {"geometry": {"type": "Point", "coordinates": [124.38333, -9.2]}, "id": "6591", "type": "Feature", "properties": {"id": "46004-44130-022-GRNT0258", "status": "Implementation", "title": "DISTRICT CAPITALS WATER SUPPLY PROJECT", "approvalYear": "2011", "sectors": ["Water supply and other urban infrastructure and services"], "locationName": "Pante Makasar"}}, {"geometry": {"type": "Point", "coordinates": [126.01306, -8.51139]}, "id": "6592", "type": "Feature", "properties": {"id": "46004-44130-022-GRNT0258", "status": "Implementation", "title": "DISTRICT CAPITALS WATER SUPPLY PROJECT", "approvalYear": "2011", "sectors": ["Water supply and other urban infrastructure and services"], "locationName": "Manatuto"}}, {"geometry": {"type": "Point", "coordinates": [125.44833, -8.77472]}, "id": "6593", "type": "Feature", "properties": {"id": "46004-44130-022-GRNT0258", "status": "Implementation", "title": "DISTRICT CAPITALS WATER SUPPLY PROJECT", "approvalYear": "2011", "sectors": ["Water supply and other urban infrastructure and services"], "locationName": "Debo Lehumo"}}, {"geometry": {"type": "Point", "coordinates": [125.48972, -8.56944]}, "id": "6594", "type": "Feature", "properties": {"id": "46004-45139-001-GRNT0274", "status": "Implementation", "title": "MID-LEVEL SKILLS TRAINING PROJECT", "approvalYear": "2012", "sectors": ["Education"], "locationName": "Tibar"}}, {"geometry": {"type": "Point", "coordinates": [126.45833, -8.47111]}, "id": "6595", "type": "Feature", "properties": {"id": "46004-45139-001-GRNT0274", "status": "Implementation", "title": "MID-LEVEL SKILLS TRAINING PROJECT", "approvalYear": "2012", "sectors": ["Education"], "locationName": "Baucau"}}, {"geometry": {"type": "Point", "coordinates": [125.75, -8.83333]}, "id": "6596", "type": "Feature", "properties": {"id": "46004-45139-001-GRNT0274", "status": "Implementation", "title": "MID-LEVEL SKILLS TRAINING PROJECT", "approvalYear": "2012", "sectors": ["Education"], "locationName": "East Timor"}}, {"geometry": {"type": "Point", "coordinates": [125.51667, -8.55]}, "id": "6597", "type": "Feature", "properties": {"id": "46004-45139-001-GRNT0274", "status": "Implementation", "title": "MID-LEVEL SKILLS TRAINING PROJECT", "approvalYear": "2012", "sectors": ["Education"], "locationName": "Comoro"}}, {"geometry": {"type": "Point", "coordinates": [126.01516, -8.52207]}, "id": "6598", "type": "Feature", "properties": {"id": "46004-45094-001-LN2857", "status": "Implementation", "title": "ROAD NETWORK UPGRADING PROJECT", "approvalYear": "2012", "sectors": ["Transport", "Information and communication technology"], "locationName": "Manatuto"}}, {"geometry": {"type": "Point", "coordinates": [125.91186, -8.74975]}, "id": "6599", "type": "Feature", "properties": {"id": "46004-45094-001-LN2857", "status": "Implementation", "title": "ROAD NETWORK UPGRADING PROJECT", "approvalYear": "2012", "sectors": ["Transport", "Information and communication technology"], "locationName": "Laclubar"}}, {"geometry": {"type": "Point", "coordinates": [125.7868, -9.0273]}, "id": "6600", "type": "Feature", "properties": {"id": "46004-45094-001-LN2857", "status": "Implementation", "title": "ROAD NETWORK UPGRADING PROJECT", "approvalYear": "2012", "sectors": ["Transport", "Information and communication technology"], "locationName": "Alas"}}, {"geometry": {"type": "Point", "coordinates": [125.94, -8.86]}, "id": "6601", "type": "Feature", "properties": {"id": "46004-45094-001-LN2857", "status": "Implementation", "title": "ROAD NETWORK UPGRADING PROJECT", "approvalYear": "2012", "sectors": ["Transport", "Information and communication technology"], "locationName": "Soibada"}}, {"geometry": {"type": "Point", "coordinates": [125.95036, -9.10011]}, "id": "6602", "type": "Feature", "properties": {"id": "46004-45094-001-LN2857", "status": "Implementation", "title": "ROAD NETWORK UPGRADING PROJECT", "approvalYear": "2012", "sectors": ["Transport", "Information and communication technology"], "locationName": "Natarbora"}}, {"geometry": {"type": "Point", "coordinates": [125.48972, -8.56944]}, "id": "6603", "type": "Feature", "properties": {"id": "46004-45094-001-LN2857", "status": "Implementation", "title": "ROAD NETWORK UPGRADING PROJECT", "approvalYear": "2012", "sectors": ["Transport", "Information and communication technology"], "locationName": "Tibar"}}, {"geometry": {"type": "Point", "coordinates": [126.01306, -8.51139]}, "id": "6604", "type": "Feature", "properties": {"id": "46004-45094-001-LN2857", "status": "Implementation", "title": "ROAD NETWORK UPGRADING PROJECT", "approvalYear": "2012", "sectors": ["Transport", "Information and communication technology"], "locationName": "Manatuto"}}, {"geometry": {"type": "Point", "coordinates": [125.57361, -8.55861]}, "id": "6605", "type": "Feature", "properties": {"id": "46004-45094-001-LN2857", "status": "Implementation", "title": "ROAD NETWORK UPGRADING PROJECT", "approvalYear": "2012", "sectors": ["Transport", "Information and communication technology"], "locationName": "Dili"}}, {"geometry": {"type": "Point", "coordinates": [125.43611, -8.72389]}, "id": "6606", "type": "Feature", "properties": {"id": "46004-45094-001-LN2857", "status": "Implementation", "title": "ROAD NETWORK UPGRADING PROJECT", "approvalYear": "2012", "sectors": ["Transport", "Information and communication technology"], "locationName": "Gleno"}}, {"geometry": {"type": "Point", "coordinates": [125.75, -8.83333]}, "id": "6607", "type": "Feature", "properties": {"id": "46004-45094-001-LN2857", "status": "Implementation", "title": "ROAD NETWORK UPGRADING PROJECT", "approvalYear": "2012", "sectors": ["Transport", "Information and communication technology"], "locationName": "East Timor"}}, {"geometry": {"type": "Point", "coordinates": [125.56299, -8.59239]}, "id": "6608", "type": "Feature", "properties": {"id": "46004-45094-001-LN2857", "status": "Implementation", "title": "ROAD NETWORK UPGRADING PROJECT", "approvalYear": "2012", "sectors": ["Transport", "Information and communication technology"], "locationName": "Vera Cruz"}}, {"geometry": {"type": "Point", "coordinates": [125.52472, -8.54667]}, "id": "6609", "type": "Feature", "properties": {"id": "46004-45094-001-LN2857", "status": "Implementation", "title": "ROAD NETWORK UPGRADING PROJECT", "approvalYear": "2012", "sectors": ["Transport", "Information and communication technology"], "locationName": "Dom Aleixo"}}, {"geometry": {"type": "Point", "coordinates": [126.06556, -8.85472]}, "id": "6610", "type": "Feature", "properties": {"id": "46004-45094-001-LN2857", "status": "Implementation", "title": "ROAD NETWORK UPGRADING PROJECT", "approvalYear": "2012", "sectors": ["Transport", "Information and communication technology"], "locationName": "Barique"}}, {"geometry": {"type": "Point", "coordinates": [125.42546, -8.67237]}, "id": "6611", "type": "Feature", "properties": {"id": "46004-45094-001-LN2857", "status": "Implementation", "title": "ROAD NETWORK UPGRADING PROJECT", "approvalYear": "2012", "sectors": ["Transport", "Information and communication technology"], "locationName": "Railaco"}}, {"geometry": {"type": "Point", "coordinates": [125.38168, -8.62464]}, "id": "6612", "type": "Feature", "properties": {"id": "46004-45094-001-LN2857", "status": "Implementation", "title": "ROAD NETWORK UPGRADING PROJECT", "approvalYear": "2012", "sectors": ["Transport", "Information and communication technology"], "locationName": "Bazartete"}}, {"geometry": {"type": "Point", "coordinates": [125.39694, -8.75222]}, "id": "6613", "type": "Feature", "properties": {"id": "46004-45094-001-LN2857", "status": "Implementation", "title": "ROAD NETWORK UPGRADING PROJECT", "approvalYear": "2012", "sectors": ["Transport", "Information and communication technology"], "locationName": "Ermera Villa"}}, {"geometry": {"type": "Point", "coordinates": [126.01516, -8.52207]}, "id": "6614", "type": "Feature", "properties": {"id": "46004-45094-001-LN2858", "status": "Implementation", "title": "ROAD NETWORK UPGRADING PROJECT (SF)", "approvalYear": "2012", "sectors": ["Transport"], "locationName": "Manatuto"}}, {"geometry": {"type": "Point", "coordinates": [125.91186, -8.74975]}, "id": "6615", "type": "Feature", "properties": {"id": "46004-45094-001-LN2858", "status": "Implementation", "title": "ROAD NETWORK UPGRADING PROJECT (SF)", "approvalYear": "2012", "sectors": ["Transport"], "locationName": "Laclubar"}}, {"geometry": {"type": "Point", "coordinates": [125.7868, -9.0273]}, "id": "6616", "type": "Feature", "properties": {"id": "46004-45094-001-LN2858", "status": "Implementation", "title": "ROAD NETWORK UPGRADING PROJECT (SF)", "approvalYear": "2012", "sectors": ["Transport"], "locationName": "Alas"}}, {"geometry": {"type": "Point", "coordinates": [125.94, -8.86]}, "id": "6617", "type": "Feature", "properties": {"id": "46004-45094-001-LN2858", "status": "Implementation", "title": "ROAD NETWORK UPGRADING PROJECT (SF)", "approvalYear": "2012", "sectors": ["Transport"], "locationName": "Soibada"}}, {"geometry": {"type": "Point", "coordinates": [125.95036, -9.10011]}, "id": "6618", "type": "Feature", "properties": {"id": "46004-45094-001-LN2858", "status": "Implementation", "title": "ROAD NETWORK UPGRADING PROJECT (SF)", "approvalYear": "2012", "sectors": ["Transport"], "locationName": "Natarbora"}}, {"geometry": {"type": "Point", "coordinates": [125.48972, -8.56944]}, "id": "6619", "type": "Feature", "properties": {"id": "46004-45094-001-LN2858", "status": "Implementation", "title": "ROAD NETWORK UPGRADING PROJECT (SF)", "approvalYear": "2012", "sectors": ["Transport"], "locationName": "Tibar"}}, {"geometry": {"type": "Point", "coordinates": [126.01306, -8.51139]}, "id": "6620", "type": "Feature", "properties": {"id": "46004-45094-001-LN2858", "status": "Implementation", "title": "ROAD NETWORK UPGRADING PROJECT (SF)", "approvalYear": "2012", "sectors": ["Transport"], "locationName": "Manatuto"}}, {"geometry": {"type": "Point", "coordinates": [125.57361, -8.55861]}, "id": "6621", "type": "Feature", "properties": {"id": "46004-45094-001-LN2858", "status": "Implementation", "title": "ROAD NETWORK UPGRADING PROJECT (SF)", "approvalYear": "2012", "sectors": ["Transport"], "locationName": "Dili"}}, {"geometry": {"type": "Point", "coordinates": [125.43611, -8.72389]}, "id": "6622", "type": "Feature", "properties": {"id": "46004-45094-001-LN2858", "status": "Implementation", "title": "ROAD NETWORK UPGRADING PROJECT (SF)", "approvalYear": "2012", "sectors": ["Transport"], "locationName": "Gleno"}}, {"geometry": {"type": "Point", "coordinates": [125.75, -8.83333]}, "id": "6623", "type": "Feature", "properties": {"id": "46004-45094-001-LN2858", "status": "Implementation", "title": "ROAD NETWORK UPGRADING PROJECT (SF)", "approvalYear": "2012", "sectors": ["Transport"], "locationName": "East Timor"}}, {"geometry": {"type": "Point", "coordinates": [125.56299, -8.59239]}, "id": "6624", "type": "Feature", "properties": {"id": "46004-45094-001-LN2858", "status": "Implementation", "title": "ROAD NETWORK UPGRADING PROJECT (SF)", "approvalYear": "2012", "sectors": ["Transport"], "locationName": "Vera Cruz"}}, {"geometry": {"type": "Point", "coordinates": [125.52472, -8.54667]}, "id": "6625", "type": "Feature", "properties": {"id": "46004-45094-001-LN2858", "status": "Implementation", "title": "ROAD NETWORK UPGRADING PROJECT (SF)", "approvalYear": "2012", "sectors": ["Transport"], "locationName": "Dom Aleixo"}}, {"geometry": {"type": "Point", "coordinates": [126.06556, -8.85472]}, "id": "6626", "type": "Feature", "properties": {"id": "46004-45094-001-LN2858", "status": "Implementation", "title": "ROAD NETWORK UPGRADING PROJECT (SF)", "approvalYear": "2012", "sectors": ["Transport"], "locationName": "Barique"}}, {"geometry": {"type": "Point", "coordinates": [125.42546, -8.67237]}, "id": "6627", "type": "Feature", "properties": {"id": "46004-45094-001-LN2858", "status": "Implementation", "title": "ROAD NETWORK UPGRADING PROJECT (SF)", "approvalYear": "2012", "sectors": ["Transport"], "locationName": "Railaco"}}, {"geometry": {"type": "Point", "coordinates": [125.38168, -8.62464]}, "id": "6628", "type": "Feature", "properties": {"id": "46004-45094-001-LN2858", "status": "Implementation", "title": "ROAD NETWORK UPGRADING PROJECT (SF)", "approvalYear": "2012", "sectors": ["Transport"], "locationName": "Bazartete"}}, {"geometry": {"type": "Point", "coordinates": [125.39694, -8.75222]}, "id": "6629", "type": "Feature", "properties": {"id": "46004-45094-001-LN2858", "status": "Implementation", "title": "ROAD NETWORK UPGRADING PROJECT (SF)", "approvalYear": "2012", "sectors": ["Transport"], "locationName": "Ermera Villa"}}, {"geometry": {"type": "Point", "coordinates": [126.36472, -8.8575]}, "id": "6630", "type": "Feature", "properties": {"id": "46004-46260-002-LN3020", "status": "Implementation", "title": "ROAD NETWORK UPGRADING SECTOR PROJECT", "approvalYear": "2013", "sectors": ["Transport", "Information and communication technology"], "locationName": "Viqueque"}}, {"geometry": {"type": "Point", "coordinates": [125.93694, -8.86056]}, "id": "6631", "type": "Feature", "properties": {"id": "46004-46260-002-LN3020", "status": "Implementation", "title": "ROAD NETWORK UPGRADING SECTOR PROJECT", "approvalYear": "2013", "sectors": ["Transport", "Information and communication technology"], "locationName": "Soibada"}}, {"geometry": {"type": "Point", "coordinates": [126.01306, -8.51139]}, "id": "6632", "type": "Feature", "properties": {"id": "46004-46260-002-LN3020", "status": "Implementation", "title": "ROAD NETWORK UPGRADING SECTOR PROJECT", "approvalYear": "2013", "sectors": ["Transport", "Information and communication technology"], "locationName": "Manatuto"}}, {"geometry": {"type": "Point", "coordinates": [126.90438, -8.36423]}, "id": "6633", "type": "Feature", "properties": {"id": "46004-46260-002-LN3020", "status": "Implementation", "title": "ROAD NETWORK UPGRADING SECTOR PROJECT", "approvalYear": "2013", "sectors": ["Transport", "Information and communication technology"], "locationName": "Lautem"}}, {"geometry": {"type": "Point", "coordinates": [126.59694, -8.47222]}, "id": "6634", "type": "Feature", "properties": {"id": "46004-46260-002-LN3020", "status": "Implementation", "title": "ROAD NETWORK UPGRADING SECTOR PROJECT", "approvalYear": "2013", "sectors": ["Transport", "Information and communication technology"], "locationName": "Laga"}}, {"geometry": {"type": "Point", "coordinates": [125.91111, -8.74639]}, "id": "6635", "type": "Feature", "properties": {"id": "46004-46260-002-LN3020", "status": "Implementation", "title": "ROAD NETWORK UPGRADING SECTOR PROJECT", "approvalYear": "2013", "sectors": ["Transport", "Information and communication technology"], "locationName": "Laclubar"}}, {"geometry": {"type": "Point", "coordinates": [126.45833, -8.47111]}, "id": "6636", "type": "Feature", "properties": {"id": "46004-46260-002-LN3020", "status": "Implementation", "title": "ROAD NETWORK UPGRADING SECTOR PROJECT", "approvalYear": "2013", "sectors": ["Transport", "Information and communication technology"], "locationName": "Baucau"}}, {"geometry": {"type": "Point", "coordinates": [127.0025, -8.51861]}, "id": "6637", "type": "Feature", "properties": {"id": "46004-46260-002-LN3020", "status": "Implementation", "title": "ROAD NETWORK UPGRADING SECTOR PROJECT", "approvalYear": "2013", "sectors": ["Transport", "Information and communication technology"], "locationName": "Lospalos"}}, {"geometry": {"type": "Point", "coordinates": [126.38111, -8.5825]}, "id": "6638", "type": "Feature", "properties": {"id": "46004-46260-002-LN3020", "status": "Implementation", "title": "ROAD NETWORK UPGRADING SECTOR PROJECT", "approvalYear": "2013", "sectors": ["Transport", "Information and communication technology"], "locationName": "Venilale"}}, {"geometry": {"type": "Point", "coordinates": [127.05111, -8.35611]}, "id": "6639", "type": "Feature", "properties": {"id": "46004-46260-002-LN3020", "status": "Implementation", "title": "ROAD NETWORK UPGRADING SECTOR PROJECT", "approvalYear": "2013", "sectors": ["Transport", "Information and communication technology"], "locationName": "Com"}}, {"geometry": {"type": "Point", "coordinates": [126.37306, -8.73778]}, "id": "6640", "type": "Feature", "properties": {"id": "46004-46260-002-LN3020", "status": "Implementation", "title": "ROAD NETWORK UPGRADING SECTOR PROJECT", "approvalYear": "2013", "sectors": ["Transport", "Information and communication technology"], "locationName": "Ossu"}}, {"geometry": {"type": "Point", "coordinates": [126.01111, -8.51]}, "id": "6641", "type": "Feature", "properties": {"id": "46004-46260-002-LN3020", "status": "Implementation", "title": "ROAD NETWORK UPGRADING SECTOR PROJECT", "approvalYear": "2013", "sectors": ["Transport", "Information and communication technology"], "locationName": "Sau"}}, {"geometry": {"type": "Point", "coordinates": [126.36361, -8.85778]}, "id": "6642", "type": "Feature", "properties": {"id": "46004-46260-002-LN3020", "status": "Implementation", "title": "ROAD NETWORK UPGRADING SECTOR PROJECT", "approvalYear": "2013", "sectors": ["Transport", "Information and communication technology"], "locationName": "Manehat"}}, {"geometry": {"type": "Point", "coordinates": [126.06556, -8.85472]}, "id": "6643", "type": "Feature", "properties": {"id": "46004-46260-002-LN3020", "status": "Implementation", "title": "ROAD NETWORK UPGRADING SECTOR PROJECT", "approvalYear": "2013", "sectors": ["Transport", "Information and communication technology"], "locationName": "Barique"}}, {"geometry": {"type": "Point", "coordinates": [126.45, -8.46667]}, "id": "6644", "type": "Feature", "properties": {"id": "46004-46260-002-LN3020", "status": "Implementation", "title": "ROAD NETWORK UPGRADING SECTOR PROJECT", "approvalYear": "2013", "sectors": ["Transport", "Information and communication technology"], "locationName": "Baucau"}}, {"geometry": {"type": "Point", "coordinates": [126.59228, -8.47411]}, "id": "6645", "type": "Feature", "properties": {"id": "46004-46260-002-LN3020", "status": "Implementation", "title": "ROAD NETWORK UPGRADING SECTOR PROJECT", "approvalYear": "2013", "sectors": ["Transport", "Information and communication technology"], "locationName": "Laga"}}, {"geometry": {"type": "Point", "coordinates": [126.37861, -8.58238]}, "id": "6646", "type": "Feature", "properties": {"id": "46004-46260-002-LN3020", "status": "Implementation", "title": "ROAD NETWORK UPGRADING SECTOR PROJECT", "approvalYear": "2013", "sectors": ["Transport", "Information and communication technology"], "locationName": "Venilale"}}, {"geometry": {"type": "Point", "coordinates": [126.90389, -8.36514]}, "id": "6647", "type": "Feature", "properties": {"id": "46004-46260-002-LN3020", "status": "Implementation", "title": "ROAD NETWORK UPGRADING SECTOR PROJECT", "approvalYear": "2013", "sectors": ["Transport", "Information and communication technology"], "locationName": "Lautem"}}, {"geometry": {"type": "Point", "coordinates": [126.01516, -8.52207]}, "id": "6648", "type": "Feature", "properties": {"id": "46004-46260-002-LN3020", "status": "Implementation", "title": "ROAD NETWORK UPGRADING SECTOR PROJECT", "approvalYear": "2013", "sectors": ["Transport", "Information and communication technology"], "locationName": "Manatuto"}}, {"geometry": {"type": "Point", "coordinates": [125.91186, -8.74975]}, "id": "6649", "type": "Feature", "properties": {"id": "46004-46260-002-LN3020", "status": "Implementation", "title": "ROAD NETWORK UPGRADING SECTOR PROJECT", "approvalYear": "2013", "sectors": ["Transport", "Information and communication technology"], "locationName": "Laclubar"}}, {"geometry": {"type": "Point", "coordinates": [126.38324, -8.73477]}, "id": "6650", "type": "Feature", "properties": {"id": "46004-46260-002-LN3020", "status": "Implementation", "title": "ROAD NETWORK UPGRADING SECTOR PROJECT", "approvalYear": "2013", "sectors": ["Transport", "Information and communication technology"], "locationName": "Ossu"}}, {"geometry": {"type": "Point", "coordinates": [125.94, -8.86]}, "id": "6651", "type": "Feature", "properties": {"id": "46004-46260-002-LN3020", "status": "Implementation", "title": "ROAD NETWORK UPGRADING SECTOR PROJECT", "approvalYear": "2013", "sectors": ["Transport", "Information and communication technology"], "locationName": "Soibada"}}, {"geometry": {"type": "Point", "coordinates": [126.9956, -8.51821]}, "id": "6652", "type": "Feature", "properties": {"id": "46004-46260-002-LN3020", "status": "Implementation", "title": "ROAD NETWORK UPGRADING SECTOR PROJECT", "approvalYear": "2013", "sectors": ["Transport", "Information and communication technology"], "locationName": "Lospalos"}}, {"geometry": {"type": "Point", "coordinates": [126.36972, -8.85908]}, "id": "6653", "type": "Feature", "properties": {"id": "46004-46260-002-LN3020", "status": "Implementation", "title": "ROAD NETWORK UPGRADING SECTOR PROJECT", "approvalYear": "2013", "sectors": ["Transport", "Information and communication technology"], "locationName": "Viqueque"}}, {"geometry": {"type": "Point", "coordinates": [126.05095, -8.97961]}, "id": "6654", "type": "Feature", "properties": {"id": "46004-46260-002-LN3020", "status": "Implementation", "title": "ROAD NETWORK UPGRADING SECTOR PROJECT", "approvalYear": "2013", "sectors": ["Transport", "Information and communication technology"], "locationName": "Natarbora"}}, {"geometry": {"type": "Point", "coordinates": [126.36472, -8.8575]}, "id": "6655", "type": "Feature", "properties": {"id": "46004-46260-002-LN3021", "status": "Implementation", "title": "ROAD NETWORK UPGRADING SECTOR PROJECT (SF)", "approvalYear": "2013", "sectors": ["Transport"], "locationName": "Viqueque"}}, {"geometry": {"type": "Point", "coordinates": [125.93694, -8.86056]}, "id": "6656", "type": "Feature", "properties": {"id": "46004-46260-002-LN3021", "status": "Implementation", "title": "ROAD NETWORK UPGRADING SECTOR PROJECT (SF)", "approvalYear": "2013", "sectors": ["Transport"], "locationName": "Soibada"}}, {"geometry": {"type": "Point", "coordinates": [126.01306, -8.51139]}, "id": "6657", "type": "Feature", "properties": {"id": "46004-46260-002-LN3021", "status": "Implementation", "title": "ROAD NETWORK UPGRADING SECTOR PROJECT (SF)", "approvalYear": "2013", "sectors": ["Transport"], "locationName": "Manatuto"}}, {"geometry": {"type": "Point", "coordinates": [126.90438, -8.36423]}, "id": "6658", "type": "Feature", "properties": {"id": "46004-46260-002-LN3021", "status": "Implementation", "title": "ROAD NETWORK UPGRADING SECTOR PROJECT (SF)", "approvalYear": "2013", "sectors": ["Transport"], "locationName": "Lautem"}}, {"geometry": {"type": "Point", "coordinates": [126.59694, -8.47222]}, "id": "6659", "type": "Feature", "properties": {"id": "46004-46260-002-LN3021", "status": "Implementation", "title": "ROAD NETWORK UPGRADING SECTOR PROJECT (SF)", "approvalYear": "2013", "sectors": ["Transport"], "locationName": "Laga"}}, {"geometry": {"type": "Point", "coordinates": [125.91111, -8.74639]}, "id": "6660", "type": "Feature", "properties": {"id": "46004-46260-002-LN3021", "status": "Implementation", "title": "ROAD NETWORK UPGRADING SECTOR PROJECT (SF)", "approvalYear": "2013", "sectors": ["Transport"], "locationName": "Laclubar"}}, {"geometry": {"type": "Point", "coordinates": [126.45833, -8.47111]}, "id": "6661", "type": "Feature", "properties": {"id": "46004-46260-002-LN3021", "status": "Implementation", "title": "ROAD NETWORK UPGRADING SECTOR PROJECT (SF)", "approvalYear": "2013", "sectors": ["Transport"], "locationName": "Baucau"}}, {"geometry": {"type": "Point", "coordinates": [127.0025, -8.51861]}, "id": "6662", "type": "Feature", "properties": {"id": "46004-46260-002-LN3021", "status": "Implementation", "title": "ROAD NETWORK UPGRADING SECTOR PROJECT (SF)", "approvalYear": "2013", "sectors": ["Transport"], "locationName": "Lospalos"}}, {"geometry": {"type": "Point", "coordinates": [126.38111, -8.5825]}, "id": "6663", "type": "Feature", "properties": {"id": "46004-46260-002-LN3021", "status": "Implementation", "title": "ROAD NETWORK UPGRADING SECTOR PROJECT (SF)", "approvalYear": "2013", "sectors": ["Transport"], "locationName": "Venilale"}}, {"geometry": {"type": "Point", "coordinates": [127.05111, -8.35611]}, "id": "6664", "type": "Feature", "properties": {"id": "46004-46260-002-LN3021", "status": "Implementation", "title": "ROAD NETWORK UPGRADING SECTOR PROJECT (SF)", "approvalYear": "2013", "sectors": ["Transport"], "locationName": "Com"}}, {"geometry": {"type": "Point", "coordinates": [126.37306, -8.73778]}, "id": "6665", "type": "Feature", "properties": {"id": "46004-46260-002-LN3021", "status": "Implementation", "title": "ROAD NETWORK UPGRADING SECTOR PROJECT (SF)", "approvalYear": "2013", "sectors": ["Transport"], "locationName": "Ossu"}}, {"geometry": {"type": "Point", "coordinates": [126.01111, -8.51]}, "id": "6666", "type": "Feature", "properties": {"id": "46004-46260-002-LN3021", "status": "Implementation", "title": "ROAD NETWORK UPGRADING SECTOR PROJECT (SF)", "approvalYear": "2013", "sectors": ["Transport"], "locationName": "Sau"}}, {"geometry": {"type": "Point", "coordinates": [126.36361, -8.85778]}, "id": "6667", "type": "Feature", "properties": {"id": "46004-46260-002-LN3021", "status": "Implementation", "title": "ROAD NETWORK UPGRADING SECTOR PROJECT (SF)", "approvalYear": "2013", "sectors": ["Transport"], "locationName": "Manehat"}}, {"geometry": {"type": "Point", "coordinates": [126.06556, -8.85472]}, "id": "6668", "type": "Feature", "properties": {"id": "46004-46260-002-LN3021", "status": "Implementation", "title": "ROAD NETWORK UPGRADING SECTOR PROJECT (SF)", "approvalYear": "2013", "sectors": ["Transport"], "locationName": "Barique"}}, {"geometry": {"type": "Point", "coordinates": [126.45, -8.46667]}, "id": "6669", "type": "Feature", "properties": {"id": "46004-46260-002-LN3021", "status": "Implementation", "title": "ROAD NETWORK UPGRADING SECTOR PROJECT (SF)", "approvalYear": "2013", "sectors": ["Transport"], "locationName": "Baucau"}}, {"geometry": {"type": "Point", "coordinates": [126.59228, -8.47411]}, "id": "6670", "type": "Feature", "properties": {"id": "46004-46260-002-LN3021", "status": "Implementation", "title": "ROAD NETWORK UPGRADING SECTOR PROJECT (SF)", "approvalYear": "2013", "sectors": ["Transport"], "locationName": "Laga"}}, {"geometry": {"type": "Point", "coordinates": [126.37861, -8.58238]}, "id": "6671", "type": "Feature", "properties": {"id": "46004-46260-002-LN3021", "status": "Implementation", "title": "ROAD NETWORK UPGRADING SECTOR PROJECT (SF)", "approvalYear": "2013", "sectors": ["Transport"], "locationName": "Venilale"}}, {"geometry": {"type": "Point", "coordinates": [126.90389, -8.36514]}, "id": "6672", "type": "Feature", "properties": {"id": "46004-46260-002-LN3021", "status": "Implementation", "title": "ROAD NETWORK UPGRADING SECTOR PROJECT (SF)", "approvalYear": "2013", "sectors": ["Transport"], "locationName": "Lautem"}}, {"geometry": {"type": "Point", "coordinates": [126.01516, -8.52207]}, "id": "6673", "type": "Feature", "properties": {"id": "46004-46260-002-LN3021", "status": "Implementation", "title": "ROAD NETWORK UPGRADING SECTOR PROJECT (SF)", "approvalYear": "2013", "sectors": ["Transport"], "locationName": "Manatuto"}}, {"geometry": {"type": "Point", "coordinates": [125.91186, -8.74975]}, "id": "6674", "type": "Feature", "properties": {"id": "46004-46260-002-LN3021", "status": "Implementation", "title": "ROAD NETWORK UPGRADING SECTOR PROJECT (SF)", "approvalYear": "2013", "sectors": ["Transport"], "locationName": "Laclubar"}}, {"geometry": {"type": "Point", "coordinates": [126.38324, -8.73477]}, "id": "6675", "type": "Feature", "properties": {"id": "46004-46260-002-LN3021", "status": "Implementation", "title": "ROAD NETWORK UPGRADING SECTOR PROJECT (SF)", "approvalYear": "2013", "sectors": ["Transport"], "locationName": "Ossu"}}, {"geometry": {"type": "Point", "coordinates": [125.94, -8.86]}, "id": "6676", "type": "Feature", "properties": {"id": "46004-46260-002-LN3021", "status": "Implementation", "title": "ROAD NETWORK UPGRADING SECTOR PROJECT (SF)", "approvalYear": "2013", "sectors": ["Transport"], "locationName": "Soibada"}}, {"geometry": {"type": "Point", "coordinates": [126.9956, -8.51821]}, "id": "6677", "type": "Feature", "properties": {"id": "46004-46260-002-LN3021", "status": "Implementation", "title": "ROAD NETWORK UPGRADING SECTOR PROJECT (SF)", "approvalYear": "2013", "sectors": ["Transport"], "locationName": "Lospalos"}}, {"geometry": {"type": "Point", "coordinates": [126.36972, -8.85908]}, "id": "6678", "type": "Feature", "properties": {"id": "46004-46260-002-LN3021", "status": "Implementation", "title": "ROAD NETWORK UPGRADING SECTOR PROJECT (SF)", "approvalYear": "2013", "sectors": ["Transport"], "locationName": "Viqueque"}}, {"geometry": {"type": "Point", "coordinates": [126.05095, -8.97961]}, "id": "6679", "type": "Feature", "properties": {"id": "46004-46260-002-LN3021", "status": "Implementation", "title": "ROAD NETWORK UPGRADING SECTOR PROJECT (SF)", "approvalYear": "2013", "sectors": ["Transport"], "locationName": "Natarbora"}}], "properties": {"name": "Timor-Leste", "bounds": [124.03003991000011, -9.501227721999896, 127.31324303500011, -8.135023695999834]}}