{"type": "FeatureCollection", "id": "VU", "features": [{"geometry": {"type": "Point", "coordinates": [169.4, -19.48333]}, "id": "7775", "type": "Feature", "properties": {"id": "46004-42392-013-LN2820", "status": "Implementation", "title": "INTERISLAND SHIPPING SUPPORT PROJECT", "approvalYear": "2012", "sectors": ["Transport"], "locationName": "Waesisi"}}, {"geometry": {"type": "Point", "coordinates": [167.76667, -16.45]}, "id": "7776", "type": "Feature", "properties": {"id": "46004-42392-013-LN2820", "status": "Implementation", "title": "INTERISLAND SHIPPING SUPPORT PROJECT", "approvalYear": "2012", "sectors": ["Transport"], "locationName": "Port Sandwich"}}, {"geometry": {"type": "Point", "coordinates": [168.32188, -17.73381]}, "id": "7777", "type": "Feature", "properties": {"id": "46004-42392-013-LN2820", "status": "Implementation", "title": "INTERISLAND SHIPPING SUPPORT PROJECT", "approvalYear": "2012", "sectors": ["Transport"], "locationName": "Port Vila"}}, {"geometry": {"type": "Point", "coordinates": [168.14803, -15.54925]}, "id": "7778", "type": "Feature", "properties": {"id": "46004-42392-013-LN2820", "status": "Implementation", "title": "INTERISLAND SHIPPING SUPPORT PROJECT", "approvalYear": "2012", "sectors": ["Transport"], "locationName": "Loltong"}}, {"geometry": {"type": "Point", "coordinates": [167.96667, -15.28333]}, "id": "7779", "type": "Feature", "properties": {"id": "46004-42392-013-LN2820", "status": "Implementation", "title": "INTERISLAND SHIPPING SUPPORT PROJECT", "approvalYear": "2012", "sectors": ["Transport"], "locationName": "Lolowai"}}, {"geometry": {"type": "Point", "coordinates": [167.43333, -16.11667]}, "id": "7780", "type": "Feature", "properties": {"id": "46004-42392-013-LN2820", "status": "Implementation", "title": "INTERISLAND SHIPPING SUPPORT PROJECT", "approvalYear": "2012", "sectors": ["Transport"], "locationName": "Litzlitz"}}, {"geometry": {"type": "Point", "coordinates": [169.26667, -19.53333]}, "id": "7781", "type": "Feature", "properties": {"id": "46004-42392-013-LN2820", "status": "Implementation", "title": "INTERISLAND SHIPPING SUPPORT PROJECT", "approvalYear": "2012", "sectors": ["Transport"], "locationName": "Lenakel"}}, {"geometry": {"type": "Point", "coordinates": [168.32188, -17.73381]}, "id": "7782", "type": "Feature", "properties": {"id": "46004-42391-013-LN2832", "status": "Implementation", "title": "PORT VILA URBAN DEVELOPMENT PROJECT", "approvalYear": "2012", "sectors": ["Transport"], "locationName": "Port Vila"}}], "properties": {"name": "Vanuatu", "bounds": [166.52051842500012, -20.253106377999913, 169.89893639400023, -13.064873955999843]}}