{"features": [{"geometry": {"type": "Point", "coordinates": [159.0, -8.0]}, "type": "Feature", "id": "4893", "properties": {"status": "Implementation", "sectors": ["Transport"], "title": "DOMESTIC MARITIME SUPPORT (SECTOR) PROJECT", "approvalYear": "2009", "locationName": "Solomon Islands", "id": "46004-40263-022-GRNT0127"}}, {"geometry": {"type": "Point", "coordinates": [159.0, -8.0]}, "type": "Feature", "id": "4894", "properties": {"status": "Implementation", "sectors": ["Transport"], "title": "SECOND ROAD IMPROVEMENT (SECTOR) PROJECT - ADF", "approvalYear": "2009", "locationName": "Solomon Islands", "id": "46004-43381-012-GRNT0175"}}, {"geometry": {"type": "Point", "coordinates": [161.0, -9.0]}, "type": "Feature", "id": "4895", "properties": {"status": "Implementation", "sectors": ["Transport"], "title": "SECOND ROAD IMPROVEMENT (SECTOR) PROJECT - ADF", "approvalYear": "2009", "locationName": "Malaita Province", "id": "46004-43381-012-GRNT0175"}}, {"geometry": {"type": "Point", "coordinates": [160.17562, -9.61933]}, "type": "Feature", "id": "4896", "properties": {"status": "Implementation", "sectors": ["Transport"], "title": "SECOND ROAD IMPROVEMENT (SECTOR) PROJECT - ADF", "approvalYear": "2009", "locationName": "Guadalcanal Island", "id": "46004-43381-012-GRNT0175"}}, {"geometry": {"type": "Point", "coordinates": [161.78517, -10.55751]}, "type": "Feature", "id": "4897", "properties": {"status": "Implementation", "sectors": ["Transport"], "title": "SECOND ROAD IMPROVEMENT (SECTOR) PROJECT - ADF", "approvalYear": "2009", "locationName": "Makira-Ulawa Province", "id": "46004-43381-012-GRNT0175"}}, {"geometry": {"type": "Point", "coordinates": [159.0, -8.0]}, "type": "Feature", "id": "4898", "properties": {"status": "Implementation", "sectors": ["Transport"], "title": "TRANSPORT SECTOR DEVELOPMENT PROJECT", "approvalYear": "2011", "locationName": "Solomon Islands", "id": "46004-41171-022-GRNT0243"}}, {"geometry": {"type": "Point", "coordinates": [157.19978, -8.22274]}, "type": "Feature", "id": "4899", "properties": {"status": "Implementation", "sectors": ["Information and communication technology"], "title": "BROADBAND FOR DEVELOPMENT PROJECT", "approvalYear": "2012", "locationName": "Noro", "id": "46004-44382-022-LN2897"}}, {"geometry": {"type": "Point", "coordinates": [159.95, -9.43333]}, "type": "Feature", "id": "4900", "properties": {"status": "Implementation", "sectors": ["Information and communication technology"], "title": "BROADBAND FOR DEVELOPMENT PROJECT", "approvalYear": "2012", "locationName": "Honiara", "id": "46004-44382-022-LN2897"}}, {"geometry": {"type": "Point", "coordinates": [160.70335, -8.76761]}, "type": "Feature", "id": "4901", "properties": {"status": "Implementation", "sectors": ["Information and communication technology"], "title": "BROADBAND FOR DEVELOPMENT PROJECT", "approvalYear": "2012", "locationName": "Auki", "id": "46004-44382-022-LN2897"}}, {"geometry": {"type": "Point", "coordinates": [157.02759, -10.21763]}, "type": "Feature", "id": "4902", "properties": {"status": "Implementation", "sectors": ["Information and communication technology"], "title": "BROADBAND FOR DEVELOPMENT PROJECT", "approvalYear": "2012", "locationName": "PPC-1 BU5 Connection to Pipe Pacific Cable 1", "id": "46004-44382-022-LN2897"}}, {"geometry": {"type": "Point", "coordinates": [157.19978, -8.22274]}, "type": "Feature", "id": "4903", "properties": {"status": "Implementation", "sectors": ["Information and communication technology"], "title": "BROADBAND FOR DEVELOPMENT PROJECT", "approvalYear": "2012", "locationName": "Noro", "id": "46004-44382-022-GRNT0304"}}, {"geometry": {"type": "Point", "coordinates": [159.95, -9.43333]}, "type": "Feature", "id": "4904", "properties": {"status": "Implementation", "sectors": ["Information and communication technology"], "title": "BROADBAND FOR DEVELOPMENT PROJECT", "approvalYear": "2012", "locationName": "Honiara", "id": "46004-44382-022-GRNT0304"}}, {"geometry": {"type": "Point", "coordinates": [160.70335, -8.76761]}, "type": "Feature", "id": "4905", "properties": {"status": "Implementation", "sectors": ["Information and communication technology"], "title": "BROADBAND FOR DEVELOPMENT PROJECT", "approvalYear": "2012", "locationName": "Auki", "id": "46004-44382-022-GRNT0304"}}, {"geometry": {"type": "Point", "coordinates": [157.02759, -10.21763]}, "type": "Feature", "id": "4906", "properties": {"status": "Implementation", "sectors": ["Information and communication technology"], "title": "BROADBAND FOR DEVELOPMENT PROJECT", "approvalYear": "2012", "locationName": "PPC-1 BU5 Connection to Pipe Pacific Cable 1", "id": "46004-44382-022-GRNT0304"}}, {"geometry": {"type": "Point", "coordinates": [159.0, -8.0]}, "type": "Feature", "id": "4907", "properties": {"status": "Completion", "sectors": ["Public sector management"], "title": "ECONOMIC AND FINANCIAL REFORM PROGRAM", "approvalYear": "2013", "locationName": "Solomon Islands", "id": "46004-46497-001-GRNT0339"}}, {"geometry": {"type": "Point", "coordinates": [162.02554, -10.50494]}, "type": "Feature", "id": "4908", "properties": {"status": "Completion", "sectors": ["Transport"], "title": "ROAD IMPROVEMENT (SECTOR) PROJECT (ADF)", "approvalYear": "2006", "locationName": "Warihito", "id": "46004-39581-012-GRNT0048"}}, {"geometry": {"type": "Point", "coordinates": [161.55918, -10.29101]}, "type": "Feature", "id": "4909", "properties": {"status": "Completion", "sectors": ["Transport"], "title": "ROAD IMPROVEMENT (SECTOR) PROJECT (ADF)", "approvalYear": "2006", "locationName": "Wainari\u2019i", "id": "46004-39581-012-GRNT0048"}}, {"geometry": {"type": "Point", "coordinates": [161.78517, -10.55751]}, "type": "Feature", "id": "4910", "properties": {"status": "Completion", "sectors": ["Transport"], "title": "ROAD IMPROVEMENT (SECTOR) PROJECT (ADF)", "approvalYear": "2006", "locationName": "Makira-Ulawa Province", "id": "46004-39581-012-GRNT0048"}}, {"geometry": {"type": "Point", "coordinates": [157.0, -8.0]}, "type": "Feature", "id": "4911", "properties": {"status": "Completion", "sectors": ["Multisector"], "title": "EMERGENCY ASSISTANCE PROJECT", "approvalYear": "2007", "locationName": "Western Province", "id": "46004-41105-012-GRNT0078"}}, {"geometry": {"type": "Point", "coordinates": [156.65293, -7.73526]}, "type": "Feature", "id": "4912", "properties": {"status": "Completion", "sectors": ["Multisector"], "title": "EMERGENCY ASSISTANCE PROJECT", "approvalYear": "2007", "locationName": "Vella Lavella Island", "id": "46004-41105-012-GRNT0078"}}, {"geometry": {"type": "Point", "coordinates": [157.35, -8.43333]}, "type": "Feature", "id": "4913", "properties": {"status": "Completion", "sectors": ["Multisector"], "title": "EMERGENCY ASSISTANCE PROJECT", "approvalYear": "2007", "locationName": "Ughele", "id": "46004-41105-012-GRNT0078"}}, {"geometry": {"type": "Point", "coordinates": [156.86556, -8.09989]}, "type": "Feature", "id": "4914", "properties": {"status": "Completion", "sectors": ["Multisector"], "title": "EMERGENCY ASSISTANCE PROJECT", "approvalYear": "2007", "locationName": "Nusa Tupe", "id": "46004-41105-012-GRNT0078"}}, {"geometry": {"type": "Point", "coordinates": [156.39688, -6.71128]}, "type": "Feature", "id": "4915", "properties": {"status": "Completion", "sectors": ["Multisector"], "title": "EMERGENCY ASSISTANCE PROJECT", "approvalYear": "2007", "locationName": "Taro Island", "id": "46004-41105-012-GRNT0078"}}, {"geometry": {"type": "Point", "coordinates": [156.53915, -8.27831]}, "type": "Feature", "id": "4916", "properties": {"status": "Completion", "sectors": ["Multisector"], "title": "EMERGENCY ASSISTANCE PROJECT", "approvalYear": "2007", "locationName": "Simbo Island", "id": "46004-41105-012-GRNT0078"}}, {"geometry": {"type": "Point", "coordinates": [156.76355, -7.04108]}, "type": "Feature", "id": "4917", "properties": {"status": "Completion", "sectors": ["Multisector"], "title": "EMERGENCY ASSISTANCE PROJECT", "approvalYear": "2007", "locationName": "Sasamungga", "id": "46004-41105-012-GRNT0078"}}, {"geometry": {"type": "Point", "coordinates": [156.77513, -8.04206]}, "type": "Feature", "id": "4918", "properties": {"status": "Completion", "sectors": ["Multisector"], "title": "EMERGENCY ASSISTANCE PROJECT", "approvalYear": "2007", "locationName": "Sagheraghi", "id": "46004-41105-012-GRNT0078"}}, {"geometry": {"type": "Point", "coordinates": [155.5604, -7.36409]}, "type": "Feature", "id": "4919", "properties": {"status": "Completion", "sectors": ["Multisector"], "title": "EMERGENCY ASSISTANCE PROJECT", "approvalYear": "2007", "locationName": "Mono Island", "id": "46004-41105-012-GRNT0078"}}, {"geometry": {"type": "Point", "coordinates": [155.84465, -7.10788]}, "type": "Feature", "id": "4920", "properties": {"status": "Completion", "sectors": ["Multisector"], "title": "EMERGENCY ASSISTANCE PROJECT", "approvalYear": "2007", "locationName": "Maleai", "id": "46004-41105-012-GRNT0078"}}, {"geometry": {"type": "Point", "coordinates": [157.2707, -8.32853]}, "type": "Feature", "id": "4921", "properties": {"status": "Completion", "sectors": ["Multisector"], "title": "EMERGENCY ASSISTANCE PROJECT", "approvalYear": "2007", "locationName": "Lambete", "id": "46004-41105-012-GRNT0078"}}, {"geometry": {"type": "Point", "coordinates": [156.78333, -8.08333]}, "type": "Feature", "id": "4922", "properties": {"status": "Completion", "sectors": ["Multisector"], "title": "EMERGENCY ASSISTANCE PROJECT", "approvalYear": "2007", "locationName": "Kolombangara", "id": "46004-41105-012-GRNT0078"}}, {"geometry": {"type": "Point", "coordinates": [156.84186, -8.10303]}, "type": "Feature", "id": "4923", "properties": {"status": "Completion", "sectors": ["Multisector"], "title": "EMERGENCY ASSISTANCE PROJECT", "approvalYear": "2007", "locationName": "Gizo", "id": "46004-41105-012-GRNT0078"}}, {"geometry": {"type": "Point", "coordinates": [155.57494, -7.39874]}, "type": "Feature", "id": "4924", "properties": {"status": "Completion", "sectors": ["Multisector"], "title": "EMERGENCY ASSISTANCE PROJECT", "approvalYear": "2007", "locationName": "Falamae", "id": "46004-41105-012-GRNT0078"}}, {"geometry": {"type": "Point", "coordinates": [156.86279, -6.99186]}, "type": "Feature", "id": "4925", "properties": {"status": "Completion", "sectors": ["Multisector"], "title": "EMERGENCY ASSISTANCE PROJECT", "approvalYear": "2007", "locationName": "Choiseul", "id": "46004-41105-012-GRNT0078"}}], "properties": {"name": "Solomon Islands", "bounds": [155.50798587300008, -12.290622653999918, 168.8258569670002, -6.599867445999806]}, "type": "FeatureCollection", "id": "SB"}