{"features": [{"geometry": {"type": "Point", "coordinates": [184.7982, -21.13938]}, "type": "Feature", "id": "9045", "properties": {"status": "Implementation", "sectors": ["Water supply and other urban infrastructure and services"], "title": "INTEGRATED URBAN DEVELOPMENT SECTOR PROJECT", "approvalYear": "2008", "locationName": "Nuku'alofa", "id": "46004-38160-032-GRNT0108"}}, {"geometry": {"type": "Point", "coordinates": [178.44149, -18.14161]}, "type": "Feature", "id": "9046", "properties": {"status": "Implementation", "sectors": ["Information and communication technology"], "title": "TONGA-FIJI SUBMARINE CABLE PROJECT", "approvalYear": "2011", "locationName": "Suva", "id": "46004-44172-022-GRNT0256"}}, {"geometry": {"type": "Point", "coordinates": [178.33333, -18.08333]}, "type": "Feature", "id": "9047", "properties": {"status": "Implementation", "sectors": ["Information and communication technology"], "title": "TONGA-FIJI SUBMARINE CABLE PROJECT", "approvalYear": "2011", "locationName": "Province of Rewa", "id": "46004-44172-022-GRNT0256"}}, {"geometry": {"type": "Point", "coordinates": [184.8, -21.13333]}, "type": "Feature", "id": "9048", "properties": {"status": "Implementation", "sectors": ["Information and communication technology"], "title": "TONGA-FIJI SUBMARINE CABLE PROJECT", "approvalYear": "2011", "locationName": "Tongatapu", "id": "46004-44172-022-GRNT0256"}}, {"geometry": {"type": "Point", "coordinates": [184.7982, -21.13938]}, "type": "Feature", "id": "9049", "properties": {"status": "Implementation", "sectors": ["Information and communication technology"], "title": "TONGA-FIJI SUBMARINE CABLE PROJECT", "approvalYear": "2011", "locationName": "Nuku'alofa", "id": "46004-44172-022-GRNT0256"}}, {"geometry": {"type": "Point", "coordinates": [185.0, -20.0]}, "type": "Feature", "id": "9050", "properties": {"status": "Implementation", "sectors": ["Water supply and other urban infrastructure and services"], "title": "NUKU'ALOFA URBAN DEVELOPMENT SECTOR PROJECT", "approvalYear": "2012", "locationName": "Tonga", "id": "46004-42394-022-GRNT0264"}}, {"geometry": {"type": "Point", "coordinates": [184.7982, -21.13938]}, "type": "Feature", "id": "9051", "properties": {"status": "Implementation", "sectors": ["Water supply and other urban infrastructure and services"], "title": "NUKU'ALOFA URBAN DEVELOPMENT SECTOR PROJECT", "approvalYear": "2012", "locationName": "Nuku'alofa", "id": "46004-42394-022-GRNT0264"}}, {"geometry": {"type": "Point", "coordinates": [186.0, -18.66667]}, "type": "Feature", "id": "9052", "properties": {"status": "Implementation", "sectors": ["Energy"], "title": "OUTER ISLAND RENEWABLE ENERGY PROJECT", "approvalYear": "2013", "locationName": "Vava\u2018u", "id": "46004-43452-022-GRNT0347"}}, {"geometry": {"type": "Point", "coordinates": [185.58333, -19.9]}, "type": "Feature", "id": "9053", "properties": {"status": "Implementation", "sectors": ["Energy"], "title": "OUTER ISLAND RENEWABLE ENERGY PROJECT", "approvalYear": "2013", "locationName": "\u2018Uiha Island", "id": "46004-43452-022-GRNT0347"}}, {"geometry": {"type": "Point", "coordinates": [185.19912, -20.24558]}, "type": "Feature", "id": "9054", "properties": {"status": "Implementation", "sectors": ["Energy"], "title": "OUTER ISLAND RENEWABLE ENERGY PROJECT", "approvalYear": "2013", "locationName": "Nomuka Island", "id": "46004-43452-022-GRNT0347"}}, {"geometry": {"type": "Point", "coordinates": [186.22487, -15.95506]}, "type": "Feature", "id": "9055", "properties": {"status": "Implementation", "sectors": ["Energy"], "title": "OUTER ISLAND RENEWABLE ENERGY PROJECT", "approvalYear": "2013", "locationName": "Niuatoputapu Island", "id": "46004-43452-022-GRNT0347"}}, {"geometry": {"type": "Point", "coordinates": [184.36297, -15.597]}, "type": "Feature", "id": "9056", "properties": {"status": "Implementation", "sectors": ["Energy"], "title": "OUTER ISLAND RENEWABLE ENERGY PROJECT", "approvalYear": "2013", "locationName": "Niuafo\u2018ou", "id": "46004-43452-022-GRNT0347"}}, {"geometry": {"type": "Point", "coordinates": [185.55, -19.78333]}, "type": "Feature", "id": "9057", "properties": {"status": "Implementation", "sectors": ["Energy"], "title": "OUTER ISLAND RENEWABLE ENERGY PROJECT", "approvalYear": "2013", "locationName": "Ha\u2018apai", "id": "46004-43452-022-GRNT0347"}}, {"geometry": {"type": "Point", "coordinates": [185.70972, -19.66233]}, "type": "Feature", "id": "9058", "properties": {"status": "Implementation", "sectors": ["Energy"], "title": "OUTER ISLAND RENEWABLE ENERGY PROJECT", "approvalYear": "2013", "locationName": "Ha\u2018ano", "id": "46004-43452-022-GRNT0347"}}, {"geometry": {"type": "Point", "coordinates": [185.07028, -21.3632]}, "type": "Feature", "id": "9059", "properties": {"status": "Implementation", "sectors": ["Energy"], "title": "OUTER ISLAND RENEWABLE ENERGY PROJECT", "approvalYear": "2013", "locationName": "Eua", "id": "46004-43452-022-GRNT0347"}}, {"geometry": {"type": "Point", "coordinates": [185.29196, -19.94552]}, "type": "Feature", "id": "9060", "properties": {"status": "Implementation", "sectors": ["Energy"], "title": "OUTER ISLAND RENEWABLE ENERGY PROJECT", "approvalYear": "2013", "locationName": "Ha'afeva", "id": "46004-43452-022-GRNT0347"}}, {"geometry": {"type": "Point", "coordinates": [185.0, -20.0]}, "type": "Feature", "id": "9061", "properties": {"status": "Completion", "sectors": ["Public sector management"], "title": "STRENGTHENING PUBLIC FINANCIAL MANAGEMENT PROGRAM", "approvalYear": "2013", "locationName": "Tonga", "id": "46004-46385-001-GRNT0359"}}], "properties": {"name": "Tonga", "bounds": [183.78069095100005, -22.33879973799992, 186.0857446620001, -15.55950286299992]}, "type": "FeatureCollection", "id": "TO"}