{"id": "ID", "properties": {"name": "Indonesia", "bounds": [95.01270592500012, -10.922621351999808, 140.97762699400008, 5.910101630000099]}, "type": "FeatureCollection", "features": [{"id": 2270, "properties": {"id": "46004-40009-013-LN2264", "locationName": "Kota Medan", "title": "INFRASTRUCTURE REFORM SECTOR DEVT PROGRAM CLUSTER -SUBPRG I", "status": "Implementation", "sectors": ["Energy"]}, "type": "Feature", "geometry": {"coordinates": [98.6663, 3.6539], "type": "Point"}}, {"id": 2271, "properties": {"id": "46004-40009-013-LN2264", "locationName": "Medan", "title": "INFRASTRUCTURE REFORM SECTOR DEVT PROGRAM CLUSTER -SUBPRG I", "status": "Implementation", "sectors": ["Energy"]}, "type": "Feature", "geometry": {"coordinates": [98.66667, 3.58333], "type": "Point"}}, {"id": 2272, "properties": {"id": "46004-40009-013-LN2264", "locationName": "Kabupaten Deli Serdang", "title": "INFRASTRUCTURE REFORM SECTOR DEVT PROGRAM CLUSTER -SUBPRG I", "status": "Implementation", "sectors": ["Energy"]}, "type": "Feature", "geometry": {"coordinates": [98.6887, 3.483], "type": "Point"}}, {"id": 2273, "properties": {"id": "46004-40009-013-LN2264", "locationName": "Tangerang", "title": "INFRASTRUCTURE REFORM SECTOR DEVT PROGRAM CLUSTER -SUBPRG I", "status": "Implementation", "sectors": ["Energy"]}, "type": "Feature", "geometry": {"coordinates": [106.63, -6.17806], "type": "Point"}}, {"id": 2274, "properties": {"id": "46004-40009-013-LN2264", "locationName": "Kotamadya Surakarta", "title": "INFRASTRUCTURE REFORM SECTOR DEVT PROGRAM CLUSTER -SUBPRG I", "status": "Implementation", "sectors": ["Energy"]}, "type": "Feature", "geometry": {"coordinates": [110.82722, -7.53472], "type": "Point"}}, {"id": 2275, "properties": {"id": "46004-40009-013-LN2264", "locationName": "Surakarta", "title": "INFRASTRUCTURE REFORM SECTOR DEVT PROGRAM CLUSTER -SUBPRG I", "status": "Implementation", "sectors": ["Energy"]}, "type": "Feature", "geometry": {"coordinates": [110.83167, -7.55611], "type": "Point"}}, {"id": 2276, "properties": {"id": "46004-40009-013-LN2264", "locationName": "Pasuruan", "title": "INFRASTRUCTURE REFORM SECTOR DEVT PROGRAM CLUSTER -SUBPRG I", "status": "Implementation", "sectors": ["Energy"]}, "type": "Feature", "geometry": {"coordinates": [112.9075, -7.6453], "type": "Point"}}, {"id": 2277, "properties": {"id": "46004-40009-013-LN2264", "locationName": "Kabupaten Nganjuk", "title": "INFRASTRUCTURE REFORM SECTOR DEVT PROGRAM CLUSTER -SUBPRG I", "status": "Implementation", "sectors": ["Energy"]}, "type": "Feature", "geometry": {"coordinates": [111.944, -7.6083], "type": "Point"}}, {"id": 2278, "properties": {"id": "46004-40009-013-LN2264", "locationName": "Kertosono", "title": "INFRASTRUCTURE REFORM SECTOR DEVT PROGRAM CLUSTER -SUBPRG I", "status": "Implementation", "sectors": ["Energy"]}, "type": "Feature", "geometry": {"coordinates": [112.1, -7.58333], "type": "Point"}}, {"id": 2279, "properties": {"id": "46004-40009-013-LN2264", "locationName": "Central Java", "title": "INFRASTRUCTURE REFORM SECTOR DEVT PROGRAM CLUSTER -SUBPRG I", "status": "Implementation", "sectors": ["Energy"]}, "type": "Feature", "geometry": {"coordinates": [110.0, -7.5], "type": "Point"}}, {"id": 2280, "properties": {"id": "46004-40009-013-LN2264", "locationName": "Indonesia", "title": "INFRASTRUCTURE REFORM SECTOR DEVT PROGRAM CLUSTER -SUBPRG I", "status": "Implementation", "sectors": ["Energy"]}, "type": "Feature", "geometry": {"coordinates": [120.0, -5.0], "type": "Point"}}, {"id": 2281, "properties": {"id": "46004-40009-013-LN2264", "locationName": "Dumai", "title": "INFRASTRUCTURE REFORM SECTOR DEVT PROGRAM CLUSTER -SUBPRG I", "status": "Implementation", "sectors": ["Energy"]}, "type": "Feature", "geometry": {"coordinates": [101.44316, 1.66711], "type": "Point"}}, {"id": 2282, "properties": {"id": "46004-40009-013-LN2264", "locationName": "Bandung", "title": "INFRASTRUCTURE REFORM SECTOR DEVT PROGRAM CLUSTER -SUBPRG I", "status": "Implementation", "sectors": ["Energy"]}, "type": "Feature", "geometry": {"coordinates": [107.61861, -6.90389], "type": "Point"}}, {"id": 2283, "properties": {"id": "46004-40009-013-LN2264", "locationName": "Kabupaten Serdang Bedagai", "title": "INFRASTRUCTURE REFORM SECTOR DEVT PROGRAM CLUSTER -SUBPRG I", "status": "Implementation", "sectors": ["Energy"]}, "type": "Feature", "geometry": {"coordinates": [99.0554, 3.3806], "type": "Point"}}, {"id": 2284, "properties": {"id": "46004-40009-013-LN2264", "locationName": "Tebing-tinggi", "title": "INFRASTRUCTURE REFORM SECTOR DEVT PROGRAM CLUSTER -SUBPRG I", "status": "Implementation", "sectors": ["Energy"]}, "type": "Feature", "geometry": {"coordinates": [99.1988, 3.4969], "type": "Point"}}, {"id": 2285, "properties": {"id": "46004-40009-013-LN2264", "locationName": "Margagiri", "title": "INFRASTRUCTURE REFORM SECTOR DEVT PROGRAM CLUSTER -SUBPRG I", "status": "Implementation", "sectors": ["Energy"]}, "type": "Feature", "geometry": {"coordinates": [106.077, -6.0447], "type": "Point"}}, {"id": 2286, "properties": {"id": "46004-40009-013-LN2264", "locationName": "Ketapang", "title": "INFRASTRUCTURE REFORM SECTOR DEVT PROGRAM CLUSTER -SUBPRG I", "status": "Implementation", "sectors": ["Energy"]}, "type": "Feature", "geometry": {"coordinates": [105.22898, -5.5873], "type": "Point"}}, {"id": 2287, "properties": {"id": "46004-40009-013-LN2264", "locationName": "Kuala Namu International Airport", "title": "INFRASTRUCTURE REFORM SECTOR DEVT PROGRAM CLUSTER -SUBPRG I", "status": "Implementation", "sectors": ["Energy"]}, "type": "Feature", "geometry": {"coordinates": [98.87403, 3.63866], "type": "Point"}}, {"id": 2288, "properties": {"id": "46004-40009-013-LN2264", "locationName": "Teluk Lamong", "title": "INFRASTRUCTURE REFORM SECTOR DEVT PROGRAM CLUSTER -SUBPRG I", "status": "Implementation", "sectors": ["Energy"]}, "type": "Feature", "geometry": {"coordinates": [112.69738, -7.19492], "type": "Point"}}, {"id": 2289, "properties": {"id": "46004-35183-013-LN2285", "locationName": "Kabupaten Langkat", "title": "SUSTAINABLE AQUACULTURE DEVT FOR FOOD SECURITY & POVERTY REDUCTIO", "status": "Implementation", "sectors": ["Agriculture, natural resources and rural development"]}, "type": "Feature", "geometry": {"coordinates": [98.2202, 3.7181], "type": "Point"}}, {"id": 2290, "properties": {"id": "46004-35183-013-LN2285", "locationName": "Kabupaten Sumedang", "title": "SUSTAINABLE AQUACULTURE DEVT FOR FOOD SECURITY & POVERTY REDUCTIO", "status": "Implementation", "sectors": ["Agriculture, natural resources and rural development"]}, "type": "Feature", "geometry": {"coordinates": [107.97778, -6.77667], "type": "Point"}}, {"id": 2291, "properties": {"id": "46004-35183-013-LN2285", "locationName": "Kabupaten Ogan Komering Ilir", "title": "SUSTAINABLE AQUACULTURE DEVT FOR FOOD SECURITY & POVERTY REDUCTIO", "status": "Implementation", "sectors": ["Agriculture, natural resources and rural development"]}, "type": "Feature", "geometry": {"coordinates": [105.16667, -3.25], "type": "Point"}}, {"id": 2292, "properties": {"id": "46004-35183-013-LN2285", "locationName": "Kabupaten Karawang", "title": "SUSTAINABLE AQUACULTURE DEVT FOR FOOD SECURITY & POVERTY REDUCTIO", "status": "Implementation", "sectors": ["Agriculture, natural resources and rural development"]}, "type": "Feature", "geometry": {"coordinates": [107.3725, -6.26583], "type": "Point"}}, {"id": 2293, "properties": {"id": "46004-35183-013-LN2285", "locationName": "Kabupaten Buton", "title": "SUSTAINABLE AQUACULTURE DEVT FOR FOOD SECURITY & POVERTY REDUCTIO", "status": "Implementation", "sectors": ["Agriculture, natural resources and rural development"]}, "type": "Feature", "geometry": {"coordinates": [122.0311, -4.8249], "type": "Point"}}, {"id": 2294, "properties": {"id": "46004-37475-013-LN2294", "locationName": "South Sulawesi", "title": "MADRASAH EDUCATION DEVELOPMENT", "status": "Completion", "sectors": ["Education"]}, "type": "Feature", "geometry": {"coordinates": [120.25, -4.33333], "type": "Point"}}, {"id": 2295, "properties": {"id": "46004-37475-013-LN2294", "locationName": "East Java", "title": "MADRASAH EDUCATION DEVELOPMENT", "status": "Completion", "sectors": ["Education"]}, "type": "Feature", "geometry": {"coordinates": [112.5099, -7.7394], "type": "Point"}}, {"id": 2296, "properties": {"id": "46004-37475-013-LN2294", "locationName": "Central Java", "title": "MADRASAH EDUCATION DEVELOPMENT", "status": "Completion", "sectors": ["Education"]}, "type": "Feature", "geometry": {"coordinates": [110.0, -7.5], "type": "Point"}}, {"id": 2297, "properties": {"id": "46004-38117-013-LN2348", "locationName": "North Sumatra", "title": "NUTRITION IMPROVEMENT THROUGH COMMUNITY EMPOWERMENT PROJECT", "status": "Completion", "sectors": ["Health"]}, "type": "Feature", "geometry": {"coordinates": [99.0, 2.0], "type": "Point"}}, {"id": 2298, "properties": {"id": "46004-38117-013-LN2348", "locationName": "South Sumatra", "title": "NUTRITION IMPROVEMENT THROUGH COMMUNITY EMPOWERMENT PROJECT", "status": "Completion", "sectors": ["Health"]}, "type": "Feature", "geometry": {"coordinates": [103.83333, -2.75], "type": "Point"}}, {"id": 2299, "properties": {"id": "46004-38117-013-LN2348", "locationName": "South Sulawesi", "title": "NUTRITION IMPROVEMENT THROUGH COMMUNITY EMPOWERMENT PROJECT", "status": "Completion", "sectors": ["Health"]}, "type": "Feature", "geometry": {"coordinates": [120.25, -4.33333], "type": "Point"}}, {"id": 2300, "properties": {"id": "46004-38117-013-LN2348", "locationName": "East Nusa Tenggara", "title": "NUTRITION IMPROVEMENT THROUGH COMMUNITY EMPOWERMENT PROJECT", "status": "Completion", "sectors": ["Health"]}, "type": "Feature", "geometry": {"coordinates": [121.07937, -8.65738], "type": "Point"}}, {"id": 2301, "properties": {"id": "46004-38117-013-LN2348", "locationName": "West Nusa Tenggara", "title": "NUTRITION IMPROVEMENT THROUGH COMMUNITY EMPOWERMENT PROJECT", "status": "Completion", "sectors": ["Health"]}, "type": "Feature", "geometry": {"coordinates": [117.5333, -8.74], "type": "Point"}}, {"id": 2302, "properties": {"id": "46004-38117-013-LN2348", "locationName": "West Kalimantan", "title": "NUTRITION IMPROVEMENT THROUGH COMMUNITY EMPOWERMENT PROJECT", "status": "Completion", "sectors": ["Health"]}, "type": "Feature", "geometry": {"coordinates": [110.5, 0.0], "type": "Point"}}, {"id": 2303, "properties": {"id": "46004-33409-013-LN2416", "locationName": "South Kalimantan", "title": "VOCATIONAL EDUCATION STRENGTHENING PROJECT", "status": "Implementation", "sectors": ["Education"]}, "type": "Feature", "geometry": {"coordinates": [115.5, -2.5], "type": "Point"}}, {"id": 2304, "properties": {"id": "46004-33409-013-LN2416", "locationName": "West Kalimantan", "title": "VOCATIONAL EDUCATION STRENGTHENING PROJECT", "status": "Implementation", "sectors": ["Education"]}, "type": "Feature", "geometry": {"coordinates": [110.5, 0.0], "type": "Point"}}, {"id": 2305, "properties": {"id": "46004-33409-013-LN2416", "locationName": "Kalimantan", "title": "VOCATIONAL EDUCATION STRENGTHENING PROJECT", "status": "Implementation", "sectors": ["Education"]}, "type": "Feature", "geometry": {"coordinates": [114.0, -1.0], "type": "Point"}}, {"id": 2306, "properties": {"id": "46004-33409-013-LN2416", "locationName": "East Java", "title": "VOCATIONAL EDUCATION STRENGTHENING PROJECT", "status": "Implementation", "sectors": ["Education"]}, "type": "Feature", "geometry": {"coordinates": [112.5099, -7.7394], "type": "Point"}}, {"id": 2307, "properties": {"id": "46004-33409-013-LN2416", "locationName": "Central Java", "title": "VOCATIONAL EDUCATION STRENGTHENING PROJECT", "status": "Implementation", "sectors": ["Education"]}, "type": "Feature", "geometry": {"coordinates": [110.0, -7.5], "type": "Point"}}, {"id": 2308, "properties": {"id": "46004-33409-013-LN2416", "locationName": "West Java", "title": "VOCATIONAL EDUCATION STRENGTHENING PROJECT", "status": "Implementation", "sectors": ["Education"]}, "type": "Feature", "geometry": {"coordinates": [107.5, -6.75], "type": "Point"}}, {"id": 2309, "properties": {"id": "46004-33409-013-LN2416", "locationName": "Provinsi Jambi", "title": "VOCATIONAL EDUCATION STRENGTHENING PROJECT", "status": "Implementation", "sectors": ["Education"]}, "type": "Feature", "geometry": {"coordinates": [103.0, -1.5], "type": "Point"}}, {"id": 2310, "properties": {"id": "46004-33409-013-LN2416", "locationName": "Provinsi Papua", "title": "VOCATIONAL EDUCATION STRENGTHENING PROJECT", "status": "Implementation", "sectors": ["Education"]}, "type": "Feature", "geometry": {"coordinates": [138.0, -4.75], "type": "Point"}}, {"id": 2311, "properties": {"id": "46004-33409-013-LN2416", "locationName": "Bengkulu", "title": "VOCATIONAL EDUCATION STRENGTHENING PROJECT", "status": "Implementation", "sectors": ["Education"]}, "type": "Feature", "geometry": {"coordinates": [102.26554, -3.80044], "type": "Point"}}, {"id": 2312, "properties": {"id": "46004-33409-013-LN2416", "locationName": "Bali", "title": "VOCATIONAL EDUCATION STRENGTHENING PROJECT", "status": "Implementation", "sectors": ["Education"]}, "type": "Feature", "geometry": {"coordinates": [115.0, -8.5], "type": "Point"}}, {"id": 2313, "properties": {"id": "46004-33409-013-LN2416", "locationName": "Provinsi Gorontalo", "title": "VOCATIONAL EDUCATION STRENGTHENING PROJECT", "status": "Implementation", "sectors": ["Education"]}, "type": "Feature", "geometry": {"coordinates": [122.4704, 0.693], "type": "Point"}}, {"id": 2314, "properties": {"id": "46004-33409-013-LN2416", "locationName": "Bangka-Belitung", "title": "VOCATIONAL EDUCATION STRENGTHENING PROJECT", "status": "Implementation", "sectors": ["Education"]}, "type": "Feature", "geometry": {"coordinates": [106.66667, -2.66667], "type": "Point"}}, {"id": 2315, "properties": {"id": "46004-33409-013-LN2416", "locationName": "West Papua", "title": "VOCATIONAL EDUCATION STRENGTHENING PROJECT", "status": "Implementation", "sectors": ["Education"]}, "type": "Feature", "geometry": {"coordinates": [134.06118, -0.86531], "type": "Point"}}, {"id": 2316, "properties": {"id": "46004-33409-013-LN2416", "locationName": "Provinsi Sulawesi Barat", "title": "VOCATIONAL EDUCATION STRENGTHENING PROJECT", "status": "Implementation", "sectors": ["Education"]}, "type": "Feature", "geometry": {"coordinates": [119.3333, -2.5], "type": "Point"}}, {"id": 2317, "properties": {"id": "46004-33409-013-LN2416", "locationName": "North Sumatra", "title": "VOCATIONAL EDUCATION STRENGTHENING PROJECT", "status": "Implementation", "sectors": ["Education"]}, "type": "Feature", "geometry": {"coordinates": [99.0, 2.0], "type": "Point"}}, {"id": 2318, "properties": {"id": "46004-33409-013-LN2416", "locationName": "Daerah Istimewa Yogyakarta", "title": "VOCATIONAL EDUCATION STRENGTHENING PROJECT", "status": "Implementation", "sectors": ["Education"]}, "type": "Feature", "geometry": {"coordinates": [110.5, -7.75], "type": "Point"}}, {"id": 2319, "properties": {"id": "46004-33409-013-LN2416", "locationName": "South Sumatra", "title": "VOCATIONAL EDUCATION STRENGTHENING PROJECT", "status": "Implementation", "sectors": ["Education"]}, "type": "Feature", "geometry": {"coordinates": [103.83333, -2.75], "type": "Point"}}, {"id": 2320, "properties": {"id": "46004-33409-013-LN2416", "locationName": "West Sumatra", "title": "VOCATIONAL EDUCATION STRENGTHENING PROJECT", "status": "Implementation", "sectors": ["Education"]}, "type": "Feature", "geometry": {"coordinates": [100.5, -1.0], "type": "Point"}}, {"id": 2321, "properties": {"id": "46004-33409-013-LN2416", "locationName": "North Sulawesi", "title": "VOCATIONAL EDUCATION STRENGTHENING PROJECT", "status": "Implementation", "sectors": ["Education"]}, "type": "Feature", "geometry": {"coordinates": [124.83333, 1.25], "type": "Point"}}, {"id": 2322, "properties": {"id": "46004-33409-013-LN2416", "locationName": "Sulawesi Tenggara", "title": "VOCATIONAL EDUCATION STRENGTHENING PROJECT", "status": "Implementation", "sectors": ["Education"]}, "type": "Feature", "geometry": {"coordinates": [122.2149, -4.3935], "type": "Point"}}, {"id": 2323, "properties": {"id": "46004-33409-013-LN2416", "locationName": "Central Sulawesi", "title": "VOCATIONAL EDUCATION STRENGTHENING PROJECT", "status": "Implementation", "sectors": ["Education"]}, "type": "Feature", "geometry": {"coordinates": [122.3538, -0.9166], "type": "Point"}}, {"id": 2324, "properties": {"id": "46004-33409-013-LN2416", "locationName": "South Sulawesi", "title": "VOCATIONAL EDUCATION STRENGTHENING PROJECT", "status": "Implementation", "sectors": ["Education"]}, "type": "Feature", "geometry": {"coordinates": [120.25, -4.33333], "type": "Point"}}, {"id": 2325, "properties": {"id": "46004-33409-013-LN2416", "locationName": "Provinsi Riau", "title": "VOCATIONAL EDUCATION STRENGTHENING PROJECT", "status": "Implementation", "sectors": ["Education"]}, "type": "Feature", "geometry": {"coordinates": [101.749, 0.5005], "type": "Point"}}, {"id": 2326, "properties": {"id": "46004-33409-013-LN2416", "locationName": "East Nusa Tenggara", "title": "VOCATIONAL EDUCATION STRENGTHENING PROJECT", "status": "Implementation", "sectors": ["Education"]}, "type": "Feature", "geometry": {"coordinates": [121.07937, -8.65738], "type": "Point"}}, {"id": 2327, "properties": {"id": "46004-33409-013-LN2416", "locationName": "West Nusa Tenggara", "title": "VOCATIONAL EDUCATION STRENGTHENING PROJECT", "status": "Implementation", "sectors": ["Education"]}, "type": "Feature", "geometry": {"coordinates": [117.5333, -8.74], "type": "Point"}}, {"id": 2328, "properties": {"id": "46004-33409-013-LN2416", "locationName": "Provinsi Lampung", "title": "VOCATIONAL EDUCATION STRENGTHENING PROJECT", "status": "Implementation", "sectors": ["Education"]}, "type": "Feature", "geometry": {"coordinates": [105.0, -5.0], "type": "Point"}}, {"id": 2329, "properties": {"id": "46004-33409-013-LN2416", "locationName": "East Kalimantan", "title": "VOCATIONAL EDUCATION STRENGTHENING PROJECT", "status": "Implementation", "sectors": ["Education"]}, "type": "Feature", "geometry": {"coordinates": [116.5, 0.5], "type": "Point"}}, {"id": 2330, "properties": {"id": "46004-37049-023-LN2500", "locationName": "Bandung", "title": "MFF-INTGRTD CITARUM WATER RESOURCES MGT INVESTMENT PROG-PRJ1", "status": "Implementation", "sectors": ["Agriculture, natural resources and rural development"]}, "type": "Feature", "geometry": {"coordinates": [107.61861, -6.90389], "type": "Point"}}, {"id": 2331, "properties": {"id": "46004-37049-023-LN2500", "locationName": "Kelurahan Citarum", "title": "MFF-INTGRTD CITARUM WATER RESOURCES MGT INVESTMENT PROG-PRJ1", "status": "Implementation", "sectors": ["Agriculture, natural resources and rural development"]}, "type": "Feature", "geometry": {"coordinates": [107.61639, -6.90472], "type": "Point"}}, {"id": 2332, "properties": {"id": "46004-37049-023-LN2500", "locationName": "Saluran Irigasi Tarum Barat", "title": "MFF-INTGRTD CITARUM WATER RESOURCES MGT INVESTMENT PROG-PRJ1", "status": "Implementation", "sectors": ["Agriculture, natural resources and rural development"]}, "type": "Feature", "geometry": {"coordinates": [107.11722, -6.29528], "type": "Point"}}, {"id": 2333, "properties": {"id": "46004-37049-023-LN2501", "locationName": "Bandung", "title": "MFF-INTEGRATED CITARUM WATER RESOURCES MGT INVESTMENT PROG-PROJ 1", "status": "Implementation", "sectors": ["Agriculture, natural resources and rural development"]}, "type": "Feature", "geometry": {"coordinates": [107.61861, -6.90389], "type": "Point"}}, {"id": 2334, "properties": {"id": "46004-37049-023-LN2501", "locationName": "Kelurahan Citarum", "title": "MFF-INTEGRATED CITARUM WATER RESOURCES MGT INVESTMENT PROG-PROJ 1", "status": "Implementation", "sectors": ["Agriculture, natural resources and rural development"]}, "type": "Feature", "geometry": {"coordinates": [107.61639, -6.90472], "type": "Point"}}, {"id": 2335, "properties": {"id": "46004-37049-023-LN2501", "locationName": "Saluran Irigasi Tarum Barat", "title": "MFF-INTEGRATED CITARUM WATER RESOURCES MGT INVESTMENT PROG-PROJ 1", "status": "Implementation", "sectors": ["Agriculture, natural resources and rural development"]}, "type": "Feature", "geometry": {"coordinates": [107.11722, -6.29528], "type": "Point"}}, {"id": 2336, "properties": {"id": "46004-42109-013-LN2516", "locationName": "Indonesia", "title": "INDONESIAN INFRASTRUCTURE FINANCING FACILITY COMPANY PROJECT", "status": "Implementation", "sectors": ["Finance"]}, "type": "Feature", "geometry": {"coordinates": [120.0, -5.0], "type": "Point"}}, {"id": 2337, "properties": {"id": "46004-38385-013-LN2575", "locationName": "South Sumatra", "title": "RURAL INFRASTRUCTURE SUPPORT TO THE PNPM MANDIRI PROJ II", "status": "Completion", "sectors": ["Multisector"]}, "type": "Feature", "geometry": {"coordinates": [103.83333, -2.75], "type": "Point"}}, {"id": 2338, "properties": {"id": "46004-38385-013-LN2575", "locationName": "Provinsi Riau", "title": "RURAL INFRASTRUCTURE SUPPORT TO THE PNPM MANDIRI PROJ II", "status": "Completion", "sectors": ["Multisector"]}, "type": "Feature", "geometry": {"coordinates": [101.749, 0.5005], "type": "Point"}}, {"id": 2339, "properties": {"id": "46004-38385-013-LN2575", "locationName": "Provinsi Lampung", "title": "RURAL INFRASTRUCTURE SUPPORT TO THE PNPM MANDIRI PROJ II", "status": "Completion", "sectors": ["Multisector"]}, "type": "Feature", "geometry": {"coordinates": [105.0, -5.0], "type": "Point"}}, {"id": 2340, "properties": {"id": "46004-38385-013-LN2575", "locationName": "Provinsi Jambi", "title": "RURAL INFRASTRUCTURE SUPPORT TO THE PNPM MANDIRI PROJ II", "status": "Completion", "sectors": ["Multisector"]}, "type": "Feature", "geometry": {"coordinates": [103.0, -1.5], "type": "Point"}}, {"id": 2341, "properties": {"id": "46004-40061-013-LN2619", "locationName": "Yogyakarta", "title": "JAVA BALI ELECTRICITY DISTRIBUTION PERFORMANCE IMPROVEMENT PROJEC", "status": "Implementation", "sectors": ["Energy"]}, "type": "Feature", "geometry": {"coordinates": [110.36083, -7.78278], "type": "Point"}}, {"id": 2342, "properties": {"id": "46004-40061-013-LN2619", "locationName": "Tanjung Priok", "title": "JAVA BALI ELECTRICITY DISTRIBUTION PERFORMANCE IMPROVEMENT PROJEC", "status": "Implementation", "sectors": ["Energy"]}, "type": "Feature", "geometry": {"coordinates": [106.89083, -6.11361], "type": "Point"}}, {"id": 2343, "properties": {"id": "46004-40061-013-LN2619", "locationName": "Tangerang", "title": "JAVA BALI ELECTRICITY DISTRIBUTION PERFORMANCE IMPROVEMENT PROJEC", "status": "Implementation", "sectors": ["Energy"]}, "type": "Feature", "geometry": {"coordinates": [106.63, -6.17806], "type": "Point"}}, {"id": 2344, "properties": {"id": "46004-40061-013-LN2619", "locationName": "Surabaya", "title": "JAVA BALI ELECTRICITY DISTRIBUTION PERFORMANCE IMPROVEMENT PROJEC", "status": "Implementation", "sectors": ["Energy"]}, "type": "Feature", "geometry": {"coordinates": [112.75083, -7.24917], "type": "Point"}}, {"id": 2345, "properties": {"id": "46004-40061-013-LN2619", "locationName": "Situbondo", "title": "JAVA BALI ELECTRICITY DISTRIBUTION PERFORMANCE IMPROVEMENT PROJEC", "status": "Implementation", "sectors": ["Energy"]}, "type": "Feature", "geometry": {"coordinates": [114.00976, -7.70623], "type": "Point"}}, {"id": 2346, "properties": {"id": "46004-40061-013-LN2619", "locationName": "Sidoarjo", "title": "JAVA BALI ELECTRICITY DISTRIBUTION PERFORMANCE IMPROVEMENT PROJEC", "status": "Implementation", "sectors": ["Energy"]}, "type": "Feature", "geometry": {"coordinates": [112.7183, -7.4478], "type": "Point"}}, {"id": 2347, "properties": {"id": "46004-40061-013-LN2619", "locationName": "Ponorogo", "title": "JAVA BALI ELECTRICITY DISTRIBUTION PERFORMANCE IMPROVEMENT PROJEC", "status": "Implementation", "sectors": ["Energy"]}, "type": "Feature", "geometry": {"coordinates": [111.462, -7.8685], "type": "Point"}}, {"id": 2348, "properties": {"id": "46004-40061-013-LN2619", "locationName": "Pecatu", "title": "JAVA BALI ELECTRICITY DISTRIBUTION PERFORMANCE IMPROVEMENT PROJEC", "status": "Implementation", "sectors": ["Energy"]}, "type": "Feature", "geometry": {"coordinates": [115.1247, -8.8323], "type": "Point"}}, {"id": 2349, "properties": {"id": "46004-40061-013-LN2619", "locationName": "Kecamatan Payangan", "title": "JAVA BALI ELECTRICITY DISTRIBUTION PERFORMANCE IMPROVEMENT PROJEC", "status": "Implementation", "sectors": ["Energy"]}, "type": "Feature", "geometry": {"coordinates": [115.2526, -8.3897], "type": "Point"}}, {"id": 2350, "properties": {"id": "46004-40061-013-LN2619", "locationName": "Pasuruan", "title": "JAVA BALI ELECTRICITY DISTRIBUTION PERFORMANCE IMPROVEMENT PROJEC", "status": "Implementation", "sectors": ["Energy"]}, "type": "Feature", "geometry": {"coordinates": [112.9075, -7.6453], "type": "Point"}}, {"id": 2351, "properties": {"id": "46004-40061-013-LN2619", "locationName": "Pamekasan", "title": "JAVA BALI ELECTRICITY DISTRIBUTION PERFORMANCE IMPROVEMENT PROJEC", "status": "Implementation", "sectors": ["Energy"]}, "type": "Feature", "geometry": {"coordinates": [113.4746, -7.1568], "type": "Point"}}, {"id": 2352, "properties": {"id": "46004-40061-013-LN2619", "locationName": "Malang", "title": "JAVA BALI ELECTRICITY DISTRIBUTION PERFORMANCE IMPROVEMENT PROJEC", "status": "Implementation", "sectors": ["Energy"]}, "type": "Feature", "geometry": {"coordinates": [112.6304, -7.9797], "type": "Point"}}, {"id": 2353, "properties": {"id": "46004-40061-013-LN2619", "locationName": "Madiun", "title": "JAVA BALI ELECTRICITY DISTRIBUTION PERFORMANCE IMPROVEMENT PROJEC", "status": "Implementation", "sectors": ["Energy"]}, "type": "Feature", "geometry": {"coordinates": [111.5239, -7.6298], "type": "Point"}}, {"id": 2354, "properties": {"id": "46004-40061-013-LN2619", "locationName": "Kramatjati", "title": "JAVA BALI ELECTRICITY DISTRIBUTION PERFORMANCE IMPROVEMENT PROJEC", "status": "Implementation", "sectors": ["Energy"]}, "type": "Feature", "geometry": {"coordinates": [106.8699, -6.2683], "type": "Point"}}, {"id": 2355, "properties": {"id": "46004-40061-013-LN2619", "locationName": "Kediri", "title": "JAVA BALI ELECTRICITY DISTRIBUTION PERFORMANCE IMPROVEMENT PROJEC", "status": "Implementation", "sectors": ["Energy"]}, "type": "Feature", "geometry": {"coordinates": [112.01667, -7.81667], "type": "Point"}}, {"id": 2356, "properties": {"id": "46004-40061-013-LN2619", "locationName": "Karawang", "title": "JAVA BALI ELECTRICITY DISTRIBUTION PERFORMANCE IMPROVEMENT PROJEC", "status": "Implementation", "sectors": ["Energy"]}, "type": "Feature", "geometry": {"coordinates": [107.30556, -6.30333], "type": "Point"}}, {"id": 2357, "properties": {"id": "46004-40061-013-LN2619", "locationName": "Jember", "title": "JAVA BALI ELECTRICITY DISTRIBUTION PERFORMANCE IMPROVEMENT PROJEC", "status": "Implementation", "sectors": ["Energy"]}, "type": "Feature", "geometry": {"coordinates": [113.70317, -8.16604], "type": "Point"}}, {"id": 2358, "properties": {"id": "46004-40061-013-LN2619", "locationName": "East Java", "title": "JAVA BALI ELECTRICITY DISTRIBUTION PERFORMANCE IMPROVEMENT PROJEC", "status": "Implementation", "sectors": ["Energy"]}, "type": "Feature", "geometry": {"coordinates": [112.5099, -7.7394], "type": "Point"}}, {"id": 2359, "properties": {"id": "46004-40061-013-LN2619", "locationName": "Central Java", "title": "JAVA BALI ELECTRICITY DISTRIBUTION PERFORMANCE IMPROVEMENT PROJEC", "status": "Implementation", "sectors": ["Energy"]}, "type": "Feature", "geometry": {"coordinates": [110.0, -7.5], "type": "Point"}}, {"id": 2360, "properties": {"id": "46004-40061-013-LN2619", "locationName": "West Java", "title": "JAVA BALI ELECTRICITY DISTRIBUTION PERFORMANCE IMPROVEMENT PROJEC", "status": "Implementation", "sectors": ["Energy"]}, "type": "Feature", "geometry": {"coordinates": [107.5, -6.75], "type": "Point"}}, {"id": 2361, "properties": {"id": "46004-40061-013-LN2619", "locationName": "Jatinegara", "title": "JAVA BALI ELECTRICITY DISTRIBUTION PERFORMANCE IMPROVEMENT PROJEC", "status": "Implementation", "sectors": ["Energy"]}, "type": "Feature", "geometry": {"coordinates": [106.86722, -6.21389], "type": "Point"}}, {"id": 2362, "properties": {"id": "46004-40061-013-LN2619", "locationName": "Daerah Khusus Ibukota Jakarta", "title": "JAVA BALI ELECTRICITY DISTRIBUTION PERFORMANCE IMPROVEMENT PROJEC", "status": "Implementation", "sectors": ["Energy"]}, "type": "Feature", "geometry": {"coordinates": [106.8584, -6.2182], "type": "Point"}}, {"id": 2363, "properties": {"id": "46004-40061-013-LN2619", "locationName": "Gresik", "title": "JAVA BALI ELECTRICITY DISTRIBUTION PERFORMANCE IMPROVEMENT PROJEC", "status": "Implementation", "sectors": ["Energy"]}, "type": "Feature", "geometry": {"coordinates": [112.65611, -7.15389], "type": "Point"}}, {"id": 2364, "properties": {"id": "46004-40061-013-LN2619", "locationName": "Depok", "title": "JAVA BALI ELECTRICITY DISTRIBUTION PERFORMANCE IMPROVEMENT PROJEC", "status": "Implementation", "sectors": ["Energy"]}, "type": "Feature", "geometry": {"coordinates": [106.81861, -6.4], "type": "Point"}}, {"id": 2365, "properties": {"id": "46004-40061-013-LN2619", "locationName": "Bojonegoro", "title": "JAVA BALI ELECTRICITY DISTRIBUTION PERFORMANCE IMPROVEMENT PROJEC", "status": "Implementation", "sectors": ["Energy"]}, "type": "Feature", "geometry": {"coordinates": [111.8817, -7.1502], "type": "Point"}}, {"id": 2366, "properties": {"id": "46004-40061-013-LN2619", "locationName": "Bogor", "title": "JAVA BALI ELECTRICITY DISTRIBUTION PERFORMANCE IMPROVEMENT PROJEC", "status": "Implementation", "sectors": ["Energy"]}, "type": "Feature", "geometry": {"coordinates": [106.78917, -6.59444], "type": "Point"}}, {"id": 2367, "properties": {"id": "46004-40061-013-LN2619", "locationName": "Bekasi", "title": "JAVA BALI ELECTRICITY DISTRIBUTION PERFORMANCE IMPROVEMENT PROJEC", "status": "Implementation", "sectors": ["Energy"]}, "type": "Feature", "geometry": {"coordinates": [106.9896, -6.2349], "type": "Point"}}, {"id": 2368, "properties": {"id": "46004-40061-013-LN2619", "locationName": "Banten", "title": "JAVA BALI ELECTRICITY DISTRIBUTION PERFORMANCE IMPROVEMENT PROJEC", "status": "Implementation", "sectors": ["Energy"]}, "type": "Feature", "geometry": {"coordinates": [106.20278, -6.03167], "type": "Point"}}, {"id": 2369, "properties": {"id": "46004-40061-013-LN2619", "locationName": "Bandung", "title": "JAVA BALI ELECTRICITY DISTRIBUTION PERFORMANCE IMPROVEMENT PROJEC", "status": "Implementation", "sectors": ["Energy"]}, "type": "Feature", "geometry": {"coordinates": [107.61861, -6.90389], "type": "Point"}}, {"id": 2370, "properties": {"id": "46004-40061-013-LN2619", "locationName": "Bali", "title": "JAVA BALI ELECTRICITY DISTRIBUTION PERFORMANCE IMPROVEMENT PROJEC", "status": "Implementation", "sectors": ["Energy"]}, "type": "Feature", "geometry": {"coordinates": [115.0, -8.5], "type": "Point"}}, {"id": 2371, "properties": {"id": "46004-40061-013-LN2619", "locationName": "Banten", "title": "JAVA BALI ELECTRICITY DISTRIBUTION PERFORMANCE IMPROVEMENT PROJEC", "status": "Implementation", "sectors": ["Energy"]}, "type": "Feature", "geometry": {"coordinates": [106.25, -6.5], "type": "Point"}}, {"id": 2372, "properties": {"id": "46004-40061-013-LN2619", "locationName": "Gambir", "title": "JAVA BALI ELECTRICITY DISTRIBUTION PERFORMANCE IMPROVEMENT PROJEC", "status": "Implementation", "sectors": ["Energy"]}, "type": "Feature", "geometry": {"coordinates": [110.48944, -7.20944], "type": "Point"}}, {"id": 2373, "properties": {"id": "46004-40061-013-LN2619", "locationName": "Mojokerto", "title": "JAVA BALI ELECTRICITY DISTRIBUTION PERFORMANCE IMPROVEMENT PROJEC", "status": "Implementation", "sectors": ["Energy"]}, "type": "Feature", "geometry": {"coordinates": [111.035, -7.49944], "type": "Point"}}, {"id": 2374, "properties": {"id": "46004-40061-013-LN2619", "locationName": "Banyuwangi", "title": "JAVA BALI ELECTRICITY DISTRIBUTION PERFORMANCE IMPROVEMENT PROJEC", "status": "Implementation", "sectors": ["Energy"]}, "type": "Feature", "geometry": {"coordinates": [114.3646, -8.2215], "type": "Point"}}, {"id": 2375, "properties": {"id": "46004-39071-013-LN2654", "locationName": "Kota Medan", "title": "METROPOLITAN SANITATION MANAGEMENT AND HEALTH PROJECT", "status": "Implementation", "sectors": ["Water supply and other urban infrastructure and services"]}, "type": "Feature", "geometry": {"coordinates": [98.6663, 3.6539], "type": "Point"}}, {"id": 2376, "properties": {"id": "46004-39071-013-LN2654", "locationName": "Kotamadya Yogyakarta", "title": "METROPOLITAN SANITATION MANAGEMENT AND HEALTH PROJECT", "status": "Implementation", "sectors": ["Water supply and other urban infrastructure and services"]}, "type": "Feature", "geometry": {"coordinates": [110.34528, -7.75944], "type": "Point"}}, {"id": 2377, "properties": {"id": "46004-39071-013-LN2654", "locationName": "Kabupaten Bantul", "title": "METROPOLITAN SANITATION MANAGEMENT AND HEALTH PROJECT", "status": "Implementation", "sectors": ["Water supply and other urban infrastructure and services"]}, "type": "Feature", "geometry": {"coordinates": [110.51667, -7.83444], "type": "Point"}}, {"id": 2378, "properties": {"id": "46004-39071-013-LN2654", "locationName": "Kabupaten Sleman", "title": "METROPOLITAN SANITATION MANAGEMENT AND HEALTH PROJECT", "status": "Implementation", "sectors": ["Water supply and other urban infrastructure and services"]}, "type": "Feature", "geometry": {"coordinates": [110.32333, -7.68167], "type": "Point"}}, {"id": 2379, "properties": {"id": "46004-43255-013-LN2768", "locationName": "Daerah Istimewa Yogyakarta", "title": "URBAN SANITATION & RURAL INFRASTRCTRE SUPPORT TO D PNPM MANDIRI P", "status": "Implementation", "sectors": ["Water supply and other urban infrastructure and services"]}, "type": "Feature", "geometry": {"coordinates": [110.5, -7.75], "type": "Point"}}, {"id": 2380, "properties": {"id": "46004-43255-013-LN2768", "locationName": "South Sumatra", "title": "URBAN SANITATION & RURAL INFRASTRCTRE SUPPORT TO D PNPM MANDIRI P", "status": "Implementation", "sectors": ["Water supply and other urban infrastructure and services"]}, "type": "Feature", "geometry": {"coordinates": [103.83333, -2.75], "type": "Point"}}, {"id": 2381, "properties": {"id": "46004-43255-013-LN2768", "locationName": "North Sulawesi", "title": "URBAN SANITATION & RURAL INFRASTRCTRE SUPPORT TO D PNPM MANDIRI P", "status": "Implementation", "sectors": ["Water supply and other urban infrastructure and services"]}, "type": "Feature", "geometry": {"coordinates": [124.83333, 1.25], "type": "Point"}}, {"id": 2382, "properties": {"id": "46004-43255-013-LN2768", "locationName": "Provinsi Riau", "title": "URBAN SANITATION & RURAL INFRASTRCTRE SUPPORT TO D PNPM MANDIRI P", "status": "Implementation", "sectors": ["Water supply and other urban infrastructure and services"]}, "type": "Feature", "geometry": {"coordinates": [101.749, 0.5005], "type": "Point"}}, {"id": 2383, "properties": {"id": "46004-43255-013-LN2768", "locationName": "Provinsi Lampung", "title": "URBAN SANITATION & RURAL INFRASTRCTRE SUPPORT TO D PNPM MANDIRI P", "status": "Implementation", "sectors": ["Water supply and other urban infrastructure and services"]}, "type": "Feature", "geometry": {"coordinates": [105.0, -5.0], "type": "Point"}}, {"id": 2384, "properties": {"id": "46004-43255-013-LN2768", "locationName": "East Java", "title": "URBAN SANITATION & RURAL INFRASTRCTRE SUPPORT TO D PNPM MANDIRI P", "status": "Implementation", "sectors": ["Water supply and other urban infrastructure and services"]}, "type": "Feature", "geometry": {"coordinates": [112.5099, -7.7394], "type": "Point"}}, {"id": 2385, "properties": {"id": "46004-43255-013-LN2768", "locationName": "Central Java", "title": "URBAN SANITATION & RURAL INFRASTRCTRE SUPPORT TO D PNPM MANDIRI P", "status": "Implementation", "sectors": ["Water supply and other urban infrastructure and services"]}, "type": "Feature", "geometry": {"coordinates": [110.0, -7.5], "type": "Point"}}, {"id": 2386, "properties": {"id": "46004-43255-013-LN2768", "locationName": "Provinsi Jambi", "title": "URBAN SANITATION & RURAL INFRASTRCTRE SUPPORT TO D PNPM MANDIRI P", "status": "Implementation", "sectors": ["Water supply and other urban infrastructure and services"]}, "type": "Feature", "geometry": {"coordinates": [103.0, -1.5], "type": "Point"}}, {"id": 2387, "properties": {"id": "46004-38479-034-LN2817", "locationName": "Sumbermanjing Wetan", "title": "REGIONAL ROADS DEVELOPMENT PROJECT", "status": "Implementation", "sectors": ["Transport", "Information and communication technology"]}, "type": "Feature", "geometry": {"coordinates": [112.6896, -8.2807], "type": "Point"}}, {"id": 2388, "properties": {"id": "46004-38479-034-LN2817", "locationName": "Sosok", "title": "REGIONAL ROADS DEVELOPMENT PROJECT", "status": "Implementation", "sectors": ["Transport", "Information and communication technology"]}, "type": "Feature", "geometry": {"coordinates": [110.23333, 0.28333], "type": "Point"}}, {"id": 2389, "properties": {"id": "46004-38479-034-LN2817", "locationName": "Singkawang", "title": "REGIONAL ROADS DEVELOPMENT PROJECT", "status": "Implementation", "sectors": ["Transport", "Information and communication technology"]}, "type": "Feature", "geometry": {"coordinates": [109.0, 0.9], "type": "Point"}}, {"id": 2390, "properties": {"id": "46004-38479-034-LN2817", "locationName": "Simangaris", "title": "REGIONAL ROADS DEVELOPMENT PROJECT", "status": "Implementation", "sectors": ["Transport", "Information and communication technology"]}, "type": "Feature", "geometry": {"coordinates": [117.25728, 4.21845], "type": "Point"}}, {"id": 2391, "properties": {"id": "46004-38479-034-LN2817", "locationName": "Kabupaten Sanggau", "title": "REGIONAL ROADS DEVELOPMENT PROJECT", "status": "Implementation", "sectors": ["Transport", "Information and communication technology"]}, "type": "Feature", "geometry": {"coordinates": [110.25, 0.25], "type": "Point"}}, {"id": 2392, "properties": {"id": "46004-38479-034-LN2817", "locationName": "Kabupaten Sambas", "title": "REGIONAL ROADS DEVELOPMENT PROJECT", "status": "Implementation", "sectors": ["Transport", "Information and communication technology"]}, "type": "Feature", "geometry": {"coordinates": [109.25, 1.5], "type": "Point"}}, {"id": 2393, "properties": {"id": "46004-38479-034-LN2817", "locationName": "Sambas", "title": "REGIONAL ROADS DEVELOPMENT PROJECT", "status": "Implementation", "sectors": ["Transport", "Information and communication technology"]}, "type": "Feature", "geometry": {"coordinates": [109.25, 1.33333], "type": "Point"}}, {"id": 2394, "properties": {"id": "46004-38479-034-LN2817", "locationName": "Puring", "title": "REGIONAL ROADS DEVELOPMENT PROJECT", "status": "Implementation", "sectors": ["Transport", "Information and communication technology"]}, "type": "Feature", "geometry": {"coordinates": [109.52389, -7.73667], "type": "Point"}}, {"id": 2395, "properties": {"id": "46004-38479-034-LN2817", "locationName": "Kabupaten Malang", "title": "REGIONAL ROADS DEVELOPMENT PROJECT", "status": "Implementation", "sectors": ["Transport", "Information and communication technology"]}, "type": "Feature", "geometry": {"coordinates": [112.65033, -8.1465], "type": "Point"}}, {"id": 2396, "properties": {"id": "46004-38479-034-LN2817", "locationName": "Klirong", "title": "REGIONAL ROADS DEVELOPMENT PROJECT", "status": "Implementation", "sectors": ["Transport", "Information and communication technology"]}, "type": "Feature", "geometry": {"coordinates": [109.6, -7.73333], "type": "Point"}}, {"id": 2397, "properties": {"id": "46004-38479-034-LN2817", "locationName": "Kabupaten Ketapang", "title": "REGIONAL ROADS DEVELOPMENT PROJECT", "status": "Implementation", "sectors": ["Transport", "Information and communication technology"]}, "type": "Feature", "geometry": {"coordinates": [110.5, -1.5], "type": "Point"}}, {"id": 2398, "properties": {"id": "46004-38479-034-LN2817", "locationName": "East Kalimantan", "title": "REGIONAL ROADS DEVELOPMENT PROJECT", "status": "Implementation", "sectors": ["Transport", "Information and communication technology"]}, "type": "Feature", "geometry": {"coordinates": [116.5, 0.5], "type": "Point"}}, {"id": 2399, "properties": {"id": "46004-38479-034-LN2817", "locationName": "West Kalimantan", "title": "REGIONAL ROADS DEVELOPMENT PROJECT", "status": "Implementation", "sectors": ["Transport", "Information and communication technology"]}, "type": "Feature", "geometry": {"coordinates": [110.5, 0.0], "type": "Point"}}, {"id": 2400, "properties": {"id": "46004-38479-034-LN2817", "locationName": "East Java", "title": "REGIONAL ROADS DEVELOPMENT PROJECT", "status": "Implementation", "sectors": ["Transport", "Information and communication technology"]}, "type": "Feature", "geometry": {"coordinates": [112.5099, -7.7394], "type": "Point"}}, {"id": 2401, "properties": {"id": "46004-38479-034-LN2817", "locationName": "Central Java", "title": "REGIONAL ROADS DEVELOPMENT PROJECT", "status": "Implementation", "sectors": ["Transport", "Information and communication technology"]}, "type": "Feature", "geometry": {"coordinates": [110.0, -7.5], "type": "Point"}}, {"id": 2402, "properties": {"id": "46004-38479-034-LN2817", "locationName": "Giriwoyo", "title": "REGIONAL ROADS DEVELOPMENT PROJECT", "status": "Implementation", "sectors": ["Transport", "Information and communication technology"]}, "type": "Feature", "geometry": {"coordinates": [110.93556, -8.03222], "type": "Point"}}, {"id": 2403, "properties": {"id": "46004-38479-034-LN2817", "locationName": "Bulupesantren", "title": "REGIONAL ROADS DEVELOPMENT PROJECT", "status": "Implementation", "sectors": ["Transport", "Information and communication technology"]}, "type": "Feature", "geometry": {"coordinates": [109.68333, -7.75], "type": "Point"}}, {"id": 2404, "properties": {"id": "46004-38479-034-LN2817", "locationName": "Kabupaten Banyumas", "title": "REGIONAL ROADS DEVELOPMENT PROJECT", "status": "Implementation", "sectors": ["Transport", "Information and communication technology"]}, "type": "Feature", "geometry": {"coordinates": [109.18917, -7.37833], "type": "Point"}}, {"id": 2405, "properties": {"id": "46004-38479-034-LN2817", "locationName": "Bantur", "title": "REGIONAL ROADS DEVELOPMENT PROJECT", "status": "Implementation", "sectors": ["Transport", "Information and communication technology"]}, "type": "Feature", "geometry": {"coordinates": [112.5807, -8.314], "type": "Point"}}, {"id": 2406, "properties": {"id": "46004-38479-034-LN2817", "locationName": "Kabupaten Banjar", "title": "REGIONAL ROADS DEVELOPMENT PROJECT", "status": "Implementation", "sectors": ["Transport", "Information and communication technology"]}, "type": "Feature", "geometry": {"coordinates": [115.0348, -3.3179], "type": "Point"}}, {"id": 2407, "properties": {"id": "46004-38479-034-LN2817", "locationName": "Ambal", "title": "REGIONAL ROADS DEVELOPMENT PROJECT", "status": "Implementation", "sectors": ["Transport", "Information and communication technology"]}, "type": "Feature", "geometry": {"coordinates": [109.71944, -7.785], "type": "Point"}}, {"id": 2408, "properties": {"id": "46004-38479-034-LN2817", "locationName": "Gunung Kaliyau", "title": "REGIONAL ROADS DEVELOPMENT PROJECT", "status": "Implementation", "sectors": ["Transport", "Information and communication technology"]}, "type": "Feature", "geometry": {"coordinates": [109.65, 1.6], "type": "Point"}}, {"id": 2409, "properties": {"id": "46004-38479-034-LN2817", "locationName": "Duwet", "title": "REGIONAL ROADS DEVELOPMENT PROJECT", "status": "Implementation", "sectors": ["Transport", "Information and communication technology"]}, "type": "Feature", "geometry": {"coordinates": [110.84694, -8.08722], "type": "Point"}}, {"id": 2410, "properties": {"id": "46004-38479-034-LN2817", "locationName": "Desa Surorejan", "title": "REGIONAL ROADS DEVELOPMENT PROJECT", "status": "Implementation", "sectors": ["Transport", "Information and communication technology"]}, "type": "Feature", "geometry": {"coordinates": [109.51389, -7.75528], "type": "Point"}}, {"id": 2411, "properties": {"id": "46004-38479-034-LN2817", "locationName": "Desa Waluyorejo", "title": "REGIONAL ROADS DEVELOPMENT PROJECT", "status": "Implementation", "sectors": ["Transport", "Information and communication technology"]}, "type": "Feature", "geometry": {"coordinates": [109.53306, -7.75472], "type": "Point"}}, {"id": 2412, "properties": {"id": "46004-38479-034-LN2817", "locationName": "Desa Sidoharjo", "title": "REGIONAL ROADS DEVELOPMENT PROJECT", "status": "Implementation", "sectors": ["Transport", "Information and communication technology"]}, "type": "Feature", "geometry": {"coordinates": [109.55111, -7.76167], "type": "Point"}}, {"id": 2413, "properties": {"id": "46004-38479-034-LN2817", "locationName": "Desa Karangrejo", "title": "REGIONAL ROADS DEVELOPMENT PROJECT", "status": "Implementation", "sectors": ["Transport", "Information and communication technology"]}, "type": "Feature", "geometry": {"coordinates": [109.56917, -7.76028], "type": "Point"}}, {"id": 2414, "properties": {"id": "46004-38479-034-LN2817", "locationName": "Desa Karanggadung", "title": "REGIONAL ROADS DEVELOPMENT PROJECT", "status": "Implementation", "sectors": ["Transport", "Information and communication technology"]}, "type": "Feature", "geometry": {"coordinates": [109.58361, -7.76611], "type": "Point"}}, {"id": 2415, "properties": {"id": "46004-38479-034-LN2817", "locationName": "Desa Tegalretno", "title": "REGIONAL ROADS DEVELOPMENT PROJECT", "status": "Implementation", "sectors": ["Transport", "Information and communication technology"]}, "type": "Feature", "geometry": {"coordinates": [109.59917, -7.76972], "type": "Point"}}, {"id": 2416, "properties": {"id": "46004-38479-034-LN2817", "locationName": "Desa Tanggulangin", "title": "REGIONAL ROADS DEVELOPMENT PROJECT", "status": "Implementation", "sectors": ["Transport", "Information and communication technology"]}, "type": "Feature", "geometry": {"coordinates": [109.61194, -7.76694], "type": "Point"}}, {"id": 2417, "properties": {"id": "46004-38479-034-LN2817", "locationName": "Desa Setrojenar", "title": "REGIONAL ROADS DEVELOPMENT PROJECT", "status": "Implementation", "sectors": ["Transport", "Information and communication technology"]}, "type": "Feature", "geometry": {"coordinates": [109.66667, -7.77972], "type": "Point"}}, {"id": 2418, "properties": {"id": "46004-38479-034-LN2817", "locationName": "Desa Kaibon", "title": "REGIONAL ROADS DEVELOPMENT PROJECT", "status": "Implementation", "sectors": ["Transport", "Information and communication technology"]}, "type": "Feature", "geometry": {"coordinates": [109.7475, -7.79833], "type": "Point"}}, {"id": 2419, "properties": {"id": "46004-38479-034-LN2817", "locationName": "Desa Kenoyojayan", "title": "REGIONAL ROADS DEVELOPMENT PROJECT", "status": "Implementation", "sectors": ["Transport", "Information and communication technology"]}, "type": "Feature", "geometry": {"coordinates": [109.71639, -7.78972], "type": "Point"}}, {"id": 2420, "properties": {"id": "46004-38479-034-LN2817", "locationName": "Desa Entak", "title": "REGIONAL ROADS DEVELOPMENT PROJECT", "status": "Implementation", "sectors": ["Transport", "Information and communication technology"]}, "type": "Feature", "geometry": {"coordinates": [109.70417, -7.79278], "type": "Point"}}, {"id": 2421, "properties": {"id": "46004-38479-034-LN2817", "locationName": "Congot", "title": "REGIONAL ROADS DEVELOPMENT PROJECT", "status": "Implementation", "sectors": ["Transport", "Information and communication technology"]}, "type": "Feature", "geometry": {"coordinates": [109.26611, -7.50944], "type": "Point"}}, {"id": 2422, "properties": {"id": "46004-38479-034-LN2817", "locationName": "Desa Mirit", "title": "REGIONAL ROADS DEVELOPMENT PROJECT", "status": "Implementation", "sectors": ["Transport", "Information and communication technology"]}, "type": "Feature", "geometry": {"coordinates": [109.78667, -7.80611], "type": "Point"}}, {"id": 2423, "properties": {"id": "46004-38479-034-LN2817", "locationName": "Desa Tlogopragoto", "title": "REGIONAL ROADS DEVELOPMENT PROJECT", "status": "Implementation", "sectors": ["Transport", "Information and communication technology"]}, "type": "Feature", "geometry": {"coordinates": [109.79167, -7.8075], "type": "Point"}}, {"id": 2424, "properties": {"id": "46004-38479-034-LN2817", "locationName": "Desa Wiromartan", "title": "REGIONAL ROADS DEVELOPMENT PROJECT", "status": "Implementation", "sectors": ["Transport", "Information and communication technology"]}, "type": "Feature", "geometry": {"coordinates": [109.82222, -7.81694], "type": "Point"}}, {"id": 2425, "properties": {"id": "46004-38479-034-LN2817", "locationName": "Sumberjati", "title": "REGIONAL ROADS DEVELOPMENT PROJECT", "status": "Implementation", "sectors": ["Transport", "Information and communication technology"]}, "type": "Feature", "geometry": {"coordinates": [109.75889, -7.79528], "type": "Point"}}, {"id": 2426, "properties": {"id": "46004-38479-034-LN2817", "locationName": "Kabupaten Kebumen", "title": "REGIONAL ROADS DEVELOPMENT PROJECT", "status": "Implementation", "sectors": ["Transport", "Information and communication technology"]}, "type": "Feature", "geometry": {"coordinates": [109.66056, -7.63917], "type": "Point"}}, {"id": 2427, "properties": {"id": "46004-38479-034-LN2817", "locationName": "Desa Ambal", "title": "REGIONAL ROADS DEVELOPMENT PROJECT", "status": "Implementation", "sectors": ["Transport", "Information and communication technology"]}, "type": "Feature", "geometry": {"coordinates": [109.71583, -7.27139], "type": "Point"}}, {"id": 2428, "properties": {"id": "46004-38479-034-LN2817", "locationName": "Desa Petanahan", "title": "REGIONAL ROADS DEVELOPMENT PROJECT", "status": "Implementation", "sectors": ["Transport", "Information and communication technology"]}, "type": "Feature", "geometry": {"coordinates": [109.59056, -7.73917], "type": "Point"}}, {"id": 2429, "properties": {"id": "46004-38479-034-LN2817", "locationName": "Kotip Purwokerto", "title": "REGIONAL ROADS DEVELOPMENT PROJECT", "status": "Implementation", "sectors": ["Transport", "Information and communication technology"]}, "type": "Feature", "geometry": {"coordinates": [109.24917, -7.44333], "type": "Point"}}, {"id": 2430, "properties": {"id": "46004-38479-034-LN2817", "locationName": "Tanjung Jolosutro", "title": "REGIONAL ROADS DEVELOPMENT PROJECT", "status": "Implementation", "sectors": ["Transport", "Information and communication technology"]}, "type": "Feature", "geometry": {"coordinates": [112.3182, -8.342], "type": "Point"}}, {"id": 2431, "properties": {"id": "46004-38479-034-LN2817", "locationName": "Tumpakrejo", "title": "REGIONAL ROADS DEVELOPMENT PROJECT", "status": "Implementation", "sectors": ["Transport", "Information and communication technology"]}, "type": "Feature", "geometry": {"coordinates": [112.5808, -8.3517], "type": "Point"}}, {"id": 2432, "properties": {"id": "46004-38479-034-LN2817", "locationName": "Desa Sindurejo", "title": "REGIONAL ROADS DEVELOPMENT PROJECT", "status": "Implementation", "sectors": ["Transport", "Information and communication technology"]}, "type": "Feature", "geometry": {"coordinates": [112.6129, -8.3651], "type": "Point"}}, {"id": 2433, "properties": {"id": "46004-38479-034-LN2817", "locationName": "Desa Srigonco", "title": "REGIONAL ROADS DEVELOPMENT PROJECT", "status": "Implementation", "sectors": ["Transport", "Information and communication technology"]}, "type": "Feature", "geometry": {"coordinates": [112.5512, -8.3649], "type": "Point"}}, {"id": 2434, "properties": {"id": "46004-38479-034-LN2817", "locationName": "Desa Sumberbening", "title": "REGIONAL ROADS DEVELOPMENT PROJECT", "status": "Implementation", "sectors": ["Transport", "Information and communication technology"]}, "type": "Feature", "geometry": {"coordinates": [112.5329, -8.3471], "type": "Point"}}, {"id": 2435, "properties": {"id": "46004-38479-034-LN2817", "locationName": "Kecamatan Gedangan", "title": "REGIONAL ROADS DEVELOPMENT PROJECT", "status": "Implementation", "sectors": ["Transport", "Information and communication technology"]}, "type": "Feature", "geometry": {"coordinates": [112.6224, -8.3357], "type": "Point"}}, {"id": 2436, "properties": {"id": "46004-38479-034-LN2817", "locationName": "Desa Sitiarjo", "title": "REGIONAL ROADS DEVELOPMENT PROJECT", "status": "Implementation", "sectors": ["Transport", "Information and communication technology"]}, "type": "Feature", "geometry": {"coordinates": [112.6632, -8.4065], "type": "Point"}}, {"id": 2437, "properties": {"id": "46004-38479-034-LN2817", "locationName": "Sendangbiru", "title": "REGIONAL ROADS DEVELOPMENT PROJECT", "status": "Implementation", "sectors": ["Transport", "Information and communication technology"]}, "type": "Feature", "geometry": {"coordinates": [112.683, -8.4143], "type": "Point"}}, {"id": 2438, "properties": {"id": "46004-38479-034-LN2817", "locationName": "Gajahrejo", "title": "REGIONAL ROADS DEVELOPMENT PROJECT", "status": "Implementation", "sectors": ["Transport", "Information and communication technology"]}, "type": "Feature", "geometry": {"coordinates": [112.6526, -8.3341], "type": "Point"}}, {"id": 2439, "properties": {"id": "46004-38479-034-LN2817", "locationName": "Tebas", "title": "REGIONAL ROADS DEVELOPMENT PROJECT", "status": "Implementation", "sectors": ["Transport", "Information and communication technology"]}, "type": "Feature", "geometry": {"coordinates": [109.14084, 1.2212], "type": "Point"}}, {"id": 2440, "properties": {"id": "46004-38479-034-LN2817", "locationName": "Kabupaten Bulungan", "title": "REGIONAL ROADS DEVELOPMENT PROJECT", "status": "Implementation", "sectors": ["Transport", "Information and communication technology"]}, "type": "Feature", "geometry": {"coordinates": [117.16667, 3.0], "type": "Point"}}, {"id": 2441, "properties": {"id": "46004-38479-034-LN2817", "locationName": "Kabupaten Nunukan", "title": "REGIONAL ROADS DEVELOPMENT PROJECT", "status": "Implementation", "sectors": ["Transport", "Information and communication technology"]}, "type": "Feature", "geometry": {"coordinates": [116.7, 4.13333], "type": "Point"}}, {"id": 2442, "properties": {"id": "46004-38479-034-LN2817", "locationName": "Sekata Buji", "title": "REGIONAL ROADS DEVELOPMENT PROJECT", "status": "Implementation", "sectors": ["Transport", "Information and communication technology"]}, "type": "Feature", "geometry": {"coordinates": [117.06688, 3.32177], "type": "Point"}}, {"id": 2443, "properties": {"id": "46004-38479-034-LN2817", "locationName": "Tanjung Palas", "title": "REGIONAL ROADS DEVELOPMENT PROJECT", "status": "Implementation", "sectors": ["Transport", "Information and communication technology"]}, "type": "Feature", "geometry": {"coordinates": [117.34255, 2.82988], "type": "Point"}}, {"id": 2444, "properties": {"id": "46004-38479-034-LN2817", "locationName": "Kabupaten Wonogiri", "title": "REGIONAL ROADS DEVELOPMENT PROJECT", "status": "Implementation", "sectors": ["Transport", "Information and communication technology"]}, "type": "Feature", "geometry": {"coordinates": [111.04611, -7.9125], "type": "Point"}}, {"id": 2445, "properties": {"id": "46004-38479-034-LN2817", "locationName": "Tayan", "title": "REGIONAL ROADS DEVELOPMENT PROJECT", "status": "Implementation", "sectors": ["Transport", "Information and communication technology"]}, "type": "Feature", "geometry": {"coordinates": [110.10184, -0.03365], "type": "Point"}}, {"id": 2446, "properties": {"id": "46004-38479-034-LN2817", "locationName": "Tanjung Selor", "title": "REGIONAL ROADS DEVELOPMENT PROJECT", "status": "Implementation", "sectors": ["Transport", "Information and communication technology"]}, "type": "Feature", "geometry": {"coordinates": [117.36578, 2.83816], "type": "Point"}}, {"id": 2447, "properties": {"id": "46004-38479-034-LN2817", "locationName": "Tanjung", "title": "REGIONAL ROADS DEVELOPMENT PROJECT", "status": "Implementation", "sectors": ["Transport", "Information and communication technology"]}, "type": "Feature", "geometry": {"coordinates": [110.75, -2.0], "type": "Point"}}, {"id": 2448, "properties": {"id": "46004-38479-034-LN2817", "locationName": "Tambakmulyo", "title": "REGIONAL ROADS DEVELOPMENT PROJECT", "status": "Implementation", "sectors": ["Transport", "Information and communication technology"]}, "type": "Feature", "geometry": {"coordinates": [109.48333, -7.75], "type": "Point"}}, {"id": 2449, "properties": {"id": "46004-46239-001-LN2871", "locationName": "Indonesia", "title": "PRECAUTIONARY FINANCING FACILITY", "status": "Implementation", "sectors": ["Public sector management"]}, "type": "Feature", "geometry": {"coordinates": [120.0, -5.0], "type": "Point"}}, {"id": 2450, "properties": {"id": "46004-38354-013-LN2927", "locationName": "Indonesia", "title": "STATE ACCOUNTABILITY REVITALIZATION PROJECT", "status": "Implementation", "sectors": ["Public sector management"]}, "type": "Feature", "geometry": {"coordinates": [120.0, -5.0], "type": "Point"}}, {"id": 2451, "properties": {"id": "46004-42099-013-LN2928", "locationName": "Makassar", "title": "POLYTECHNIC EDUCATION DEVELOPMENT PROJECT", "status": "Implementation", "sectors": ["Education"]}, "type": "Feature", "geometry": {"coordinates": [119.4221, -5.14], "type": "Point"}}, {"id": 2452, "properties": {"id": "46004-42099-013-LN2928", "locationName": "Samarinda", "title": "POLYTECHNIC EDUCATION DEVELOPMENT PROJECT", "status": "Implementation", "sectors": ["Education"]}, "type": "Feature", "geometry": {"coordinates": [117.1466, -0.48585], "type": "Point"}}, {"id": 2453, "properties": {"id": "46004-42099-013-LN2928", "locationName": "Pontianak", "title": "POLYTECHNIC EDUCATION DEVELOPMENT PROJECT", "status": "Implementation", "sectors": ["Education"]}, "type": "Feature", "geometry": {"coordinates": [109.32199, -0.03109], "type": "Point"}}, {"id": 2454, "properties": {"id": "46004-42099-013-LN2928", "locationName": "Payakumbuh", "title": "POLYTECHNIC EDUCATION DEVELOPMENT PROJECT", "status": "Implementation", "sectors": ["Education"]}, "type": "Feature", "geometry": {"coordinates": [100.6334, -0.2159], "type": "Point"}}, {"id": 2455, "properties": {"id": "46004-42099-013-LN2928", "locationName": "Padang", "title": "POLYTECHNIC EDUCATION DEVELOPMENT PROJECT", "status": "Implementation", "sectors": ["Education"]}, "type": "Feature", "geometry": {"coordinates": [100.35427, -0.94924], "type": "Point"}}, {"id": 2456, "properties": {"id": "46004-42099-013-LN2928", "locationName": "Manado", "title": "POLYTECHNIC EDUCATION DEVELOPMENT PROJECT", "status": "Implementation", "sectors": ["Education"]}, "type": "Feature", "geometry": {"coordinates": [124.84892, 1.48218], "type": "Point"}}, {"id": 2457, "properties": {"id": "46004-42099-013-LN2928", "locationName": "Provinsi Lampung", "title": "POLYTECHNIC EDUCATION DEVELOPMENT PROJECT", "status": "Implementation", "sectors": ["Education"]}, "type": "Feature", "geometry": {"coordinates": [105.0, -5.0], "type": "Point"}}, {"id": 2458, "properties": {"id": "46004-42099-013-LN2928", "locationName": "Jember", "title": "POLYTECHNIC EDUCATION DEVELOPMENT PROJECT", "status": "Implementation", "sectors": ["Education"]}, "type": "Feature", "geometry": {"coordinates": [113.70317, -8.16604], "type": "Point"}}, {"id": 2459, "properties": {"id": "46004-42099-013-LN2928", "locationName": "Bandung", "title": "POLYTECHNIC EDUCATION DEVELOPMENT PROJECT", "status": "Implementation", "sectors": ["Education"]}, "type": "Feature", "geometry": {"coordinates": [107.61861, -6.90389], "type": "Point"}}, {"id": 2460, "properties": {"id": "46004-42099-013-LN2928", "locationName": "Bali", "title": "POLYTECHNIC EDUCATION DEVELOPMENT PROJECT", "status": "Implementation", "sectors": ["Education"]}, "type": "Feature", "geometry": {"coordinates": [115.0, -8.5], "type": "Point"}}, {"id": 2461, "properties": {"id": "46004-42099-013-LN2928", "locationName": "Pulau Ambon", "title": "POLYTECHNIC EDUCATION DEVELOPMENT PROJECT", "status": "Implementation", "sectors": ["Education"]}, "type": "Feature", "geometry": {"coordinates": [128.16976, -3.65947], "type": "Point"}}, {"id": 2462, "properties": {"id": "46004-42099-013-LN2928", "locationName": "Kupang", "title": "POLYTECHNIC EDUCATION DEVELOPMENT PROJECT", "status": "Implementation", "sectors": ["Education"]}, "type": "Feature", "geometry": {"coordinates": [123.6075, -10.1718], "type": "Point"}}, {"id": 2463, "properties": {"id": "46004-46093-001-LN2942", "locationName": "Indonesia", "title": "INCLUSIVE GROWTH THROUGH IMPROVED CONNECTIVITY PROGRAM-SUBPROG 1", "status": "Completion", "sectors": ["Transport", "Information and communication technology"]}, "type": "Feature", "geometry": {"coordinates": [120.0, -5.0], "type": "Point"}}, {"id": 2464, "properties": {"id": "46004-41074-013-LN3015", "locationName": "Tayan", "title": "WEST KALIMANTAN POWER GRID STRENGTHENING PROJECT", "status": "Implementation", "sectors": ["Energy"]}, "type": "Feature", "geometry": {"coordinates": [110.10184, -0.03365], "type": "Point"}}, {"id": 2465, "properties": {"id": "46004-41074-013-LN3015", "locationName": "Kabupaten Sanggau", "title": "WEST KALIMANTAN POWER GRID STRENGTHENING PROJECT", "status": "Implementation", "sectors": ["Energy"]}, "type": "Feature", "geometry": {"coordinates": [110.25, 0.25], "type": "Point"}}, {"id": 2466, "properties": {"id": "46004-41074-013-LN3015", "locationName": "Ngabang", "title": "WEST KALIMANTAN POWER GRID STRENGTHENING PROJECT", "status": "Implementation", "sectors": ["Energy"]}, "type": "Feature", "geometry": {"coordinates": [109.95, 0.38333], "type": "Point"}}, {"id": 2467, "properties": {"id": "46004-41074-013-LN3015", "locationName": "West Kalimantan", "title": "WEST KALIMANTAN POWER GRID STRENGTHENING PROJECT", "status": "Implementation", "sectors": ["Energy"]}, "type": "Feature", "geometry": {"coordinates": [110.5, 0.0], "type": "Point"}}, {"id": 2468, "properties": {"id": "46004-41074-013-LN3015", "locationName": "Bengkayang", "title": "WEST KALIMANTAN POWER GRID STRENGTHENING PROJECT", "status": "Implementation", "sectors": ["Energy"]}, "type": "Feature", "geometry": {"coordinates": [109.43589, 0.83194], "type": "Point"}}, {"id": 2469, "properties": {"id": "46004-41074-013-LN3015", "locationName": "Matang Tubig", "title": "WEST KALIMANTAN POWER GRID STRENGTHENING PROJECT", "status": "Implementation", "sectors": ["Energy"]}, "type": "Feature", "geometry": {"coordinates": [121.0457, 14.1906], "type": "Point"}}, {"id": 2470, "properties": {"id": "46004-41074-013-LN3015", "locationName": "Kabupaten Landak", "title": "WEST KALIMANTAN POWER GRID STRENGTHENING PROJECT", "status": "Implementation", "sectors": ["Energy"]}, "type": "Feature", "geometry": {"coordinates": [109.75917, 0.42373], "type": "Point"}}, {"id": 2471, "properties": {"id": "46004-41074-013-LN3015", "locationName": "Kabupaten Bengkayang", "title": "WEST KALIMANTAN POWER GRID STRENGTHENING PROJECT", "status": "Implementation", "sectors": ["Energy"]}, "type": "Feature", "geometry": {"coordinates": [109.66393, 1.06911], "type": "Point"}}, {"id": 2472, "properties": {"id": "46004-46093-004-LN3068", "locationName": "Indonesia", "title": "INCLUSIVE GROWTH THRU IMPROVED CONNECTIVITY PROGRAM,SUBPROGRAM 2", "status": "Completion", "sectors": ["Transport", "Information and communication technology"]}, "type": "Feature", "geometry": {"coordinates": [120.0, -5.0], "type": "Point"}}, {"id": 2473, "properties": {"id": "46004-42362-013-LN3083 ", "locationName": "Selat Bali", "title": "JAVA-BALI 500-KILOVOLT POWER TRANSMISSION CROSSING PROJECT", "status": "Implementation", "sectors": ["Energy"]}, "type": "Feature", "geometry": {"coordinates": [114.41667, -8.3], "type": "Point"}}, {"id": 2474, "properties": {"id": "46004-42362-013-LN3083 ", "locationName": "Watudodol", "title": "JAVA-BALI 500-KILOVOLT POWER TRANSMISSION CROSSING PROJECT", "status": "Implementation", "sectors": ["Energy"]}, "type": "Feature", "geometry": {"coordinates": [114.4117, -8.0983], "type": "Point"}}, {"id": 2475, "properties": {"id": "46004-42362-013-LN3083 ", "locationName": "Kabupaten Tabanan", "title": "JAVA-BALI 500-KILOVOLT POWER TRANSMISSION CROSSING PROJECT", "status": "Implementation", "sectors": ["Energy"]}, "type": "Feature", "geometry": {"coordinates": [115.16667, -8.5], "type": "Point"}}, {"id": 2476, "properties": {"id": "46004-42362-013-LN3083 ", "locationName": "Kabupaten Probolinggo", "title": "JAVA-BALI 500-KILOVOLT POWER TRANSMISSION CROSSING PROJECT", "status": "Implementation", "sectors": ["Energy"]}, "type": "Feature", "geometry": {"coordinates": [113.3382, -7.8548], "type": "Point"}}, {"id": 2477, "properties": {"id": "46004-42362-013-LN3083 ", "locationName": "Paiton", "title": "JAVA-BALI 500-KILOVOLT POWER TRANSMISSION CROSSING PROJECT", "status": "Implementation", "sectors": ["Energy"]}, "type": "Feature", "geometry": {"coordinates": [113.5146, -7.7148], "type": "Point"}}, {"id": 2478, "properties": {"id": "46004-42362-013-LN3083 ", "locationName": "Kabupaten Jembrana", "title": "JAVA-BALI 500-KILOVOLT POWER TRANSMISSION CROSSING PROJECT", "status": "Implementation", "sectors": ["Energy"]}, "type": "Feature", "geometry": {"coordinates": [114.6942, -8.3213], "type": "Point"}}, {"id": 2479, "properties": {"id": "46004-42362-013-LN3083 ", "locationName": "East Java", "title": "JAVA-BALI 500-KILOVOLT POWER TRANSMISSION CROSSING PROJECT", "status": "Implementation", "sectors": ["Energy"]}, "type": "Feature", "geometry": {"coordinates": [112.5099, -7.7394], "type": "Point"}}, {"id": 2480, "properties": {"id": "46004-42362-013-LN3083 ", "locationName": "Gilimanuk", "title": "JAVA-BALI 500-KILOVOLT POWER TRANSMISSION CROSSING PROJECT", "status": "Implementation", "sectors": ["Energy"]}, "type": "Feature", "geometry": {"coordinates": [114.4344, -8.1716], "type": "Point"}}, {"id": 2481, "properties": {"id": "46004-42362-013-LN3083 ", "locationName": "Kabupaten Banyuwangi", "title": "JAVA-BALI 500-KILOVOLT POWER TRANSMISSION CROSSING PROJECT", "status": "Implementation", "sectors": ["Energy"]}, "type": "Feature", "geometry": {"coordinates": [114.2208, -8.3298], "type": "Point"}}, {"id": 2482, "properties": {"id": "46004-42362-013-LN3083 ", "locationName": "Bali", "title": "JAVA-BALI 500-KILOVOLT POWER TRANSMISSION CROSSING PROJECT", "status": "Implementation", "sectors": ["Energy"]}, "type": "Feature", "geometry": {"coordinates": [115.0, -8.5], "type": "Point"}}, {"id": 2483, "properties": {"id": "46004-42362-013-LN3083 ", "locationName": "Segara Rupek", "title": "JAVA-BALI 500-KILOVOLT POWER TRANSMISSION CROSSING PROJECT", "status": "Implementation", "sectors": ["Energy"]}, "type": "Feature", "geometry": {"coordinates": [114.45452, -8.2272], "type": "Point"}}, {"id": 2484, "properties": {"id": "46004-42362-013-LN3083 ", "locationName": "Antosari", "title": "JAVA-BALI 500-KILOVOLT POWER TRANSMISSION CROSSING PROJECT", "status": "Implementation", "sectors": ["Energy"]}, "type": "Feature", "geometry": {"coordinates": [115.01398, -8.49966], "type": "Point"}}, {"id": 2485, "properties": {"id": "46004-46421-001-LN3094", "locationName": "Kabupaten Tapanuli Tengah", "title": "CORAL REEF REHAB&MANAGEMENT PROGRAM-CORAL TRIANGLE INITIATIVE PRO", "status": "Implementation", "sectors": ["Agriculture, natural resources and rural development"]}, "type": "Feature", "geometry": {"coordinates": [98.6677, 1.8541], "type": "Point"}}, {"id": 2486, "properties": {"id": "46004-46421-001-LN3094", "locationName": "Kabupaten Nias", "title": "CORAL REEF REHAB&MANAGEMENT PROGRAM-CORAL TRIANGLE INITIATIVE PRO", "status": "Implementation", "sectors": ["Agriculture, natural resources and rural development"]}, "type": "Feature", "geometry": {"coordinates": [97.5046, 1.1963], "type": "Point"}}, {"id": 2487, "properties": {"id": "46004-46421-001-LN3094", "locationName": "Kabupaten Padang Pariaman", "title": "CORAL REEF REHAB&MANAGEMENT PROGRAM-CORAL TRIANGLE INITIATIVE PRO", "status": "Implementation", "sectors": ["Agriculture, natural resources and rural development"]}, "type": "Feature", "geometry": {"coordinates": [100.615, -1.0076], "type": "Point"}}, {"id": 2488, "properties": {"id": "46004-46421-001-LN3094", "locationName": "Kepulauan Anambas", "title": "CORAL REEF REHAB&MANAGEMENT PROGRAM-CORAL TRIANGLE INITIATIVE PRO", "status": "Implementation", "sectors": ["Agriculture, natural resources and rural development"]}, "type": "Feature", "geometry": {"coordinates": [106.0, 3.0], "type": "Point"}}, {"id": 2489, "properties": {"id": "46004-46421-001-LN3094", "locationName": "Batam", "title": "CORAL REEF REHAB&MANAGEMENT PROGRAM-CORAL TRIANGLE INITIATIVE PRO", "status": "Implementation", "sectors": ["Agriculture, natural resources and rural development"]}, "type": "Feature", "geometry": {"coordinates": [104.02491, 1.14937], "type": "Point"}}, {"id": 2490, "properties": {"id": "46004-46421-001-LN3094", "locationName": "Pulau Pieh", "title": "CORAL REEF REHAB&MANAGEMENT PROGRAM-CORAL TRIANGLE INITIATIVE PRO", "status": "Implementation", "sectors": ["Agriculture, natural resources and rural development"]}, "type": "Feature", "geometry": {"coordinates": [100.10214, -0.87473], "type": "Point"}}, {"id": 2491, "properties": {"id": "46004-46421-001-LN3094", "locationName": "Selat Bintan", "title": "CORAL REEF REHAB&MANAGEMENT PROGRAM-CORAL TRIANGLE INITIATIVE PRO", "status": "Implementation", "sectors": ["Agriculture, natural resources and rural development"]}, "type": "Feature", "geometry": {"coordinates": [104.38382, 1.01387], "type": "Point"}}, {"id": 2492, "properties": {"id": "46004-46421-001-LN3094", "locationName": "North Lombok Regency", "title": "CORAL REEF REHAB&MANAGEMENT PROGRAM-CORAL TRIANGLE INITIATIVE PRO", "status": "Implementation", "sectors": ["Agriculture, natural resources and rural development"]}, "type": "Feature", "geometry": {"coordinates": [116.40152, -8.35214], "type": "Point"}}, {"id": 2493, "properties": {"id": "46004-46421-001-LN3094", "locationName": "Lingga", "title": "CORAL REEF REHAB&MANAGEMENT PROGRAM-CORAL TRIANGLE INITIATIVE PRO", "status": "Implementation", "sectors": ["Agriculture, natural resources and rural development"]}, "type": "Feature", "geometry": {"coordinates": [104.61667, 0.2], "type": "Point"}}, {"id": 2494, "properties": {"id": "46004-46421-001-LN3094", "locationName": "Natuna District", "title": "CORAL REEF REHAB&MANAGEMENT PROGRAM-CORAL TRIANGLE INITIATIVE PRO", "status": "Implementation", "sectors": ["Agriculture, natural resources and rural development"]}, "type": "Feature", "geometry": {"coordinates": [107.97639, 4.71417], "type": "Point"}}, {"id": 2495, "properties": {"id": "46004-46421-001-LN3094", "locationName": "Mentawai District", "title": "CORAL REEF REHAB&MANAGEMENT PROGRAM-CORAL TRIANGLE INITIATIVE PRO", "status": "Implementation", "sectors": ["Agriculture, natural resources and rural development"]}, "type": "Feature", "geometry": {"coordinates": [99.51889, 1.98917], "type": "Point"}}, {"id": 2496, "properties": {"id": "46004-46421-001-LN3094", "locationName": "Anambas District", "title": "CORAL REEF REHAB&MANAGEMENT PROGRAM-CORAL TRIANGLE INITIATIVE PRO", "status": "Implementation", "sectors": ["Agriculture, natural resources and rural development"]}, "type": "Feature", "geometry": {"coordinates": [106.0, 3.0], "type": "Point"}}]}