{"id": "SB", "properties": {"name": "Solomon Islands", "bounds": [155.50798587300008, -12.290622653999918, 168.8258569670002, -6.599867445999806]}, "type": "FeatureCollection", "features": [{"id": 9216, "properties": {"id": "46004-40263-022-GRNT0127", "locationName": "Solomon Islands", "title": "DOMESTIC MARITIME SUPPORT (SECTOR) PROJECT", "status": "Implementation", "sectors": ["Transport"]}, "type": "Feature", "geometry": {"coordinates": [159.0, -8.0], "type": "Point"}}, {"id": 9217, "properties": {"id": "46004-43381-012-GRNT0175", "locationName": "Solomon Islands", "title": "SECOND ROAD IMPROVEMENT (SECTOR) PROJECT - ADF", "status": "Implementation", "sectors": ["Transport"]}, "type": "Feature", "geometry": {"coordinates": [159.0, -8.0], "type": "Point"}}, {"id": 9218, "properties": {"id": "46004-43381-012-GRNT0175", "locationName": "Malaita Province", "title": "SECOND ROAD IMPROVEMENT (SECTOR) PROJECT - ADF", "status": "Implementation", "sectors": ["Transport"]}, "type": "Feature", "geometry": {"coordinates": [161.0, -9.0], "type": "Point"}}, {"id": 9219, "properties": {"id": "46004-43381-012-GRNT0175", "locationName": "Guadalcanal Island", "title": "SECOND ROAD IMPROVEMENT (SECTOR) PROJECT - ADF", "status": "Implementation", "sectors": ["Transport"]}, "type": "Feature", "geometry": {"coordinates": [160.17562, -9.61933], "type": "Point"}}, {"id": 9220, "properties": {"id": "46004-43381-012-GRNT0175", "locationName": "Makira-Ulawa Province", "title": "SECOND ROAD IMPROVEMENT (SECTOR) PROJECT - ADF", "status": "Implementation", "sectors": ["Transport"]}, "type": "Feature", "geometry": {"coordinates": [161.78517, -10.55751], "type": "Point"}}, {"id": 9221, "properties": {"id": "46004-41171-022-GRNT0243", "locationName": "Solomon Islands", "title": "TRANSPORT SECTOR DEVELOPMENT PROJECT", "status": "Implementation", "sectors": ["Transport"]}, "type": "Feature", "geometry": {"coordinates": [159.0, -8.0], "type": "Point"}}, {"id": 9222, "properties": {"id": "46004-44382-022-LN2897", "locationName": "Noro", "title": "BROADBAND FOR DEVELOPMENT PROJECT", "status": "Implementation", "sectors": ["Information and communication technology"]}, "type": "Feature", "geometry": {"coordinates": [157.19978, -8.22274], "type": "Point"}}, {"id": 9223, "properties": {"id": "46004-44382-022-LN2897", "locationName": "Honiara", "title": "BROADBAND FOR DEVELOPMENT PROJECT", "status": "Implementation", "sectors": ["Information and communication technology"]}, "type": "Feature", "geometry": {"coordinates": [159.95, -9.43333], "type": "Point"}}, {"id": 9224, "properties": {"id": "46004-44382-022-LN2897", "locationName": "Auki", "title": "BROADBAND FOR DEVELOPMENT PROJECT", "status": "Implementation", "sectors": ["Information and communication technology"]}, "type": "Feature", "geometry": {"coordinates": [160.70335, -8.76761], "type": "Point"}}, {"id": 9225, "properties": {"id": "46004-44382-022-LN2897", "locationName": "PPC-1 BU5 Connection to Pipe Pacific Cable 1", "title": "BROADBAND FOR DEVELOPMENT PROJECT", "status": "Implementation", "sectors": ["Information and communication technology"]}, "type": "Feature", "geometry": {"coordinates": [157.02759, -10.21763], "type": "Point"}}, {"id": 9226, "properties": {"id": "46004-44382-022-GRNT0304", "locationName": "Noro", "title": "BROADBAND FOR DEVELOPMENT PROJECT", "status": "Implementation", "sectors": ["Information and communication technology"]}, "type": "Feature", "geometry": {"coordinates": [157.19978, -8.22274], "type": "Point"}}, {"id": 9227, "properties": {"id": "46004-44382-022-GRNT0304", "locationName": "Honiara", "title": "BROADBAND FOR DEVELOPMENT PROJECT", "status": "Implementation", "sectors": ["Information and communication technology"]}, "type": "Feature", "geometry": {"coordinates": [159.95, -9.43333], "type": "Point"}}, {"id": 9228, "properties": {"id": "46004-44382-022-GRNT0304", "locationName": "Auki", "title": "BROADBAND FOR DEVELOPMENT PROJECT", "status": "Implementation", "sectors": ["Information and communication technology"]}, "type": "Feature", "geometry": {"coordinates": [160.70335, -8.76761], "type": "Point"}}, {"id": 9229, "properties": {"id": "46004-44382-022-GRNT0304", "locationName": "PPC-1 BU5 Connection to Pipe Pacific Cable 1", "title": "BROADBAND FOR DEVELOPMENT PROJECT", "status": "Implementation", "sectors": ["Information and communication technology"]}, "type": "Feature", "geometry": {"coordinates": [157.02759, -10.21763], "type": "Point"}}, {"id": 9230, "properties": {"id": "46004-46497-001-GRNT0339", "locationName": "Solomon Islands", "title": "ECONOMIC AND FINANCIAL REFORM PROGRAM", "status": "Completion", "sectors": ["Public sector management"]}, "type": "Feature", "geometry": {"coordinates": [159.0, -8.0], "type": "Point"}}, {"id": 9231, "properties": {"id": "46004-39581-012-GRNT0048", "locationName": "Warihito", "title": "ROAD IMPROVEMENT (SECTOR) PROJECT (ADF)", "status": "Completion", "sectors": ["Transport"]}, "type": "Feature", "geometry": {"coordinates": [162.02554, -10.50494], "type": "Point"}}, {"id": 9232, "properties": {"id": "46004-39581-012-GRNT0048", "locationName": "Wainari\u2019i", "title": "ROAD IMPROVEMENT (SECTOR) PROJECT (ADF)", "status": "Completion", "sectors": ["Transport"]}, "type": "Feature", "geometry": {"coordinates": [161.55918, -10.29101], "type": "Point"}}, {"id": 9233, "properties": {"id": "46004-39581-012-GRNT0048", "locationName": "Makira-Ulawa Province", "title": "ROAD IMPROVEMENT (SECTOR) PROJECT (ADF)", "status": "Completion", "sectors": ["Transport"]}, "type": "Feature", "geometry": {"coordinates": [161.78517, -10.55751], "type": "Point"}}, {"id": 9234, "properties": {"id": "46004-41105-012-GRNT0078", "locationName": "Western Province", "title": "EMERGENCY ASSISTANCE PROJECT", "status": "Completion", "sectors": ["Multisector"]}, "type": "Feature", "geometry": {"coordinates": [157.0, -8.0], "type": "Point"}}, {"id": 9235, "properties": {"id": "46004-41105-012-GRNT0078", "locationName": "Vella Lavella Island", "title": "EMERGENCY ASSISTANCE PROJECT", "status": "Completion", "sectors": ["Multisector"]}, "type": "Feature", "geometry": {"coordinates": [156.65293, -7.73526], "type": "Point"}}, {"id": 9236, "properties": {"id": "46004-41105-012-GRNT0078", "locationName": "Ughele", "title": "EMERGENCY ASSISTANCE PROJECT", "status": "Completion", "sectors": ["Multisector"]}, "type": "Feature", "geometry": {"coordinates": [157.35, -8.43333], "type": "Point"}}, {"id": 9237, "properties": {"id": "46004-41105-012-GRNT0078", "locationName": "Nusa Tupe", "title": "EMERGENCY ASSISTANCE PROJECT", "status": "Completion", "sectors": ["Multisector"]}, "type": "Feature", "geometry": {"coordinates": [156.86556, -8.09989], "type": "Point"}}, {"id": 9238, "properties": {"id": "46004-41105-012-GRNT0078", "locationName": "Taro Island", "title": "EMERGENCY ASSISTANCE PROJECT", "status": "Completion", "sectors": ["Multisector"]}, "type": "Feature", "geometry": {"coordinates": [156.39688, -6.71128], "type": "Point"}}, {"id": 9239, "properties": {"id": "46004-41105-012-GRNT0078", "locationName": "Simbo Island", "title": "EMERGENCY ASSISTANCE PROJECT", "status": "Completion", "sectors": ["Multisector"]}, "type": "Feature", "geometry": {"coordinates": [156.53915, -8.27831], "type": "Point"}}, {"id": 9240, "properties": {"id": "46004-41105-012-GRNT0078", "locationName": "Sasamungga", "title": "EMERGENCY ASSISTANCE PROJECT", "status": "Completion", "sectors": ["Multisector"]}, "type": "Feature", "geometry": {"coordinates": [156.76355, -7.04108], "type": "Point"}}, {"id": 9241, "properties": {"id": "46004-41105-012-GRNT0078", "locationName": "Sagheraghi", "title": "EMERGENCY ASSISTANCE PROJECT", "status": "Completion", "sectors": ["Multisector"]}, "type": "Feature", "geometry": {"coordinates": [156.77513, -8.04206], "type": "Point"}}, {"id": 9242, "properties": {"id": "46004-41105-012-GRNT0078", "locationName": "Mono Island", "title": "EMERGENCY ASSISTANCE PROJECT", "status": "Completion", "sectors": ["Multisector"]}, "type": "Feature", "geometry": {"coordinates": [155.5604, -7.36409], "type": "Point"}}, {"id": 9243, "properties": {"id": "46004-41105-012-GRNT0078", "locationName": "Maleai", "title": "EMERGENCY ASSISTANCE PROJECT", "status": "Completion", "sectors": ["Multisector"]}, "type": "Feature", "geometry": {"coordinates": [155.84465, -7.10788], "type": "Point"}}, {"id": 9244, "properties": {"id": "46004-41105-012-GRNT0078", "locationName": "Lambete", "title": "EMERGENCY ASSISTANCE PROJECT", "status": "Completion", "sectors": ["Multisector"]}, "type": "Feature", "geometry": {"coordinates": [157.2707, -8.32853], "type": "Point"}}, {"id": 9245, "properties": {"id": "46004-41105-012-GRNT0078", "locationName": "Kolombangara", "title": "EMERGENCY ASSISTANCE PROJECT", "status": "Completion", "sectors": ["Multisector"]}, "type": "Feature", "geometry": {"coordinates": [156.78333, -8.08333], "type": "Point"}}, {"id": 9246, "properties": {"id": "46004-41105-012-GRNT0078", "locationName": "Gizo", "title": "EMERGENCY ASSISTANCE PROJECT", "status": "Completion", "sectors": ["Multisector"]}, "type": "Feature", "geometry": {"coordinates": [156.84186, -8.10303], "type": "Point"}}, {"id": 9247, "properties": {"id": "46004-41105-012-GRNT0078", "locationName": "Falamae", "title": "EMERGENCY ASSISTANCE PROJECT", "status": "Completion", "sectors": ["Multisector"]}, "type": "Feature", "geometry": {"coordinates": [155.57494, -7.39874], "type": "Point"}}, {"id": 9248, "properties": {"id": "46004-41105-012-GRNT0078", "locationName": "Choiseul", "title": "EMERGENCY ASSISTANCE PROJECT", "status": "Completion", "sectors": ["Multisector"]}, "type": "Feature", "geometry": {"coordinates": [156.86279, -6.99186], "type": "Point"}}]}