{"id": "TH", "properties": {"name": "Thailand", "bounds": [97.35140100100008, 5.62989003500013, 105.65099776200006, 20.4450064090001]}, "type": "FeatureCollection", "features": [{"id": 9249, "properties": {"id": "46004-41682-013-LN2608", "locationName": "Amphoe Mueang Krabi", "title": "GREATER MEKONG SUBREGION HIGHWAY EXPANSION PROJECT", "status": "Implementation", "sectors": ["Transport", "Information and communication technology"]}, "type": "Feature", "geometry": {"coordinates": [98.86662, 8.15947], "type": "Point"}}, {"id": 9250, "properties": {"id": "46004-41682-013-LN2608", "locationName": "Amphoe Wang Thong", "title": "GREATER MEKONG SUBREGION HIGHWAY EXPANSION PROJECT", "status": "Implementation", "sectors": ["Transport", "Information and communication technology"]}, "type": "Feature", "geometry": {"coordinates": [100.58333, 16.85], "type": "Point"}}, {"id": 9251, "properties": {"id": "46004-41682-013-LN2608", "locationName": "Amphoe Sikhio", "title": "GREATER MEKONG SUBREGION HIGHWAY EXPANSION PROJECT", "status": "Implementation", "sectors": ["Transport", "Information and communication technology"]}, "type": "Feature", "geometry": {"coordinates": [101.60672, 14.94275], "type": "Point"}}, {"id": 9252, "properties": {"id": "46004-41682-013-LN2608", "locationName": "Amphoe Sattahip", "title": "GREATER MEKONG SUBREGION HIGHWAY EXPANSION PROJECT", "status": "Implementation", "sectors": ["Transport", "Information and communication technology"]}, "type": "Feature", "geometry": {"coordinates": [100.92754, 12.71743], "type": "Point"}}, {"id": 9253, "properties": {"id": "46004-41682-013-LN2608", "locationName": "Amphoe Sathing Phra", "title": "GREATER MEKONG SUBREGION HIGHWAY EXPANSION PROJECT", "status": "Implementation", "sectors": ["Transport", "Information and communication technology"]}, "type": "Feature", "geometry": {"coordinates": [100.42228, 7.47963], "type": "Point"}}, {"id": 9254, "properties": {"id": "46004-41682-013-LN2608", "locationName": "Amphoe Mueang Sa Kaeo", "title": "GREATER MEKONG SUBREGION HIGHWAY EXPANSION PROJECT", "status": "Implementation", "sectors": ["Transport", "Information and communication technology"]}, "type": "Feature", "geometry": {"coordinates": [102.10626, 13.92969], "type": "Point"}}, {"id": 9255, "properties": {"id": "46004-41682-013-LN2608", "locationName": "Sa Kaeo", "title": "GREATER MEKONG SUBREGION HIGHWAY EXPANSION PROJECT", "status": "Implementation", "sectors": ["Transport", "Information and communication technology"]}, "type": "Feature", "geometry": {"coordinates": [102.07222, 13.81411], "type": "Point"}}, {"id": 9256, "properties": {"id": "46004-41682-013-LN2608", "locationName": "Phitsanulok", "title": "GREATER MEKONG SUBREGION HIGHWAY EXPANSION PROJECT", "status": "Implementation", "sectors": ["Transport", "Information and communication technology"]}, "type": "Feature", "geometry": {"coordinates": [100.25858, 16.82481], "type": "Point"}}, {"id": 9257, "properties": {"id": "46004-41682-013-LN2608", "locationName": "Amphoe Phanom Sarakham", "title": "GREATER MEKONG SUBREGION HIGHWAY EXPANSION PROJECT", "status": "Implementation", "sectors": ["Transport", "Information and communication technology"]}, "type": "Feature", "geometry": {"coordinates": [101.41202, 13.73806], "type": "Point"}}, {"id": 9258, "properties": {"id": "46004-41682-013-LN2608", "locationName": "Phanom Sarakham", "title": "GREATER MEKONG SUBREGION HIGHWAY EXPANSION PROJECT", "status": "Implementation", "sectors": ["Transport", "Information and communication technology"]}, "type": "Feature", "geometry": {"coordinates": [101.3553, 13.74787], "type": "Point"}}, {"id": 9259, "properties": {"id": "46004-41682-013-LN2608", "locationName": "Amphoe Nakhon Thai", "title": "GREATER MEKONG SUBREGION HIGHWAY EXPANSION PROJECT", "status": "Implementation", "sectors": ["Transport", "Information and communication technology"]}, "type": "Feature", "geometry": {"coordinates": [100.86438, 17.09426], "type": "Point"}}, {"id": 9260, "properties": {"id": "46004-41682-013-LN2608", "locationName": "Amphoe Mueang Ubon Ratchathani", "title": "GREATER MEKONG SUBREGION HIGHWAY EXPANSION PROJECT", "status": "Implementation", "sectors": ["Transport", "Information and communication technology"]}, "type": "Feature", "geometry": {"coordinates": [104.83052, 15.29662], "type": "Point"}}, {"id": 9261, "properties": {"id": "46004-41682-013-LN2608", "locationName": "Amphoe Mueang Phitsanulok", "title": "GREATER MEKONG SUBREGION HIGHWAY EXPANSION PROJECT", "status": "Implementation", "sectors": ["Transport", "Information and communication technology"]}, "type": "Feature", "geometry": {"coordinates": [100.27298, 16.8404], "type": "Point"}}, {"id": 9262, "properties": {"id": "46004-41682-013-LN2608", "locationName": "Amphoe Mueang Nakhon Si Thammarat", "title": "GREATER MEKONG SUBREGION HIGHWAY EXPANSION PROJECT", "status": "Implementation", "sectors": ["Transport", "Information and communication technology"]}, "type": "Feature", "geometry": {"coordinates": [99.98537, 8.44013], "type": "Point"}}, {"id": 9263, "properties": {"id": "46004-41682-013-LN2608", "locationName": "Amphoe Lom Sak", "title": "GREATER MEKONG SUBREGION HIGHWAY EXPANSION PROJECT", "status": "Implementation", "sectors": ["Transport", "Information and communication technology"]}, "type": "Feature", "geometry": {"coordinates": [101.31139, 16.72837], "type": "Point"}}, {"id": 9264, "properties": {"id": "46004-41682-013-LN2608", "locationName": "Lom Sak", "title": "GREATER MEKONG SUBREGION HIGHWAY EXPANSION PROJECT", "status": "Implementation", "sectors": ["Transport", "Information and communication technology"]}, "type": "Feature", "geometry": {"coordinates": [101.24225, 16.77983], "type": "Point"}}, {"id": 9265, "properties": {"id": "46004-41682-013-LN2608", "locationName": "Amphoe Khamcha-i", "title": "GREATER MEKONG SUBREGION HIGHWAY EXPANSION PROJECT", "status": "Implementation", "sectors": ["Transport", "Information and communication technology"]}, "type": "Feature", "geometry": {"coordinates": [104.35929, 16.61452], "type": "Point"}}, {"id": 9266, "properties": {"id": "46004-41682-013-LN2608", "locationName": "Changwat Chachoengsao", "title": "GREATER MEKONG SUBREGION HIGHWAY EXPANSION PROJECT", "status": "Implementation", "sectors": ["Transport", "Information and communication technology"]}, "type": "Feature", "geometry": {"coordinates": [101.41666, 13.63105], "type": "Point"}}, {"id": 9267, "properties": {"id": "46004-41682-013-LN2608", "locationName": "Ban Nong Bua Khok", "title": "GREATER MEKONG SUBREGION HIGHWAY EXPANSION PROJECT", "status": "Implementation", "sectors": ["Transport", "Information and communication technology"]}, "type": "Feature", "geometry": {"coordinates": [101.82767, 15.41933], "type": "Point"}}, {"id": 9268, "properties": {"id": "46004-41682-013-LN2608", "locationName": "Changwat Prachin Buri", "title": "GREATER MEKONG SUBREGION HIGHWAY EXPANSION PROJECT", "status": "Implementation", "sectors": ["Transport", "Information and communication technology"]}, "type": "Feature", "geometry": {"coordinates": [101.66667, 14.08333], "type": "Point"}}, {"id": 9269, "properties": {"id": "46004-41682-013-LN2608", "locationName": "Changwat Sa Kaeo", "title": "GREATER MEKONG SUBREGION HIGHWAY EXPANSION PROJECT", "status": "Implementation", "sectors": ["Transport", "Information and communication technology"]}, "type": "Feature", "geometry": {"coordinates": [102.33333, 13.75], "type": "Point"}}, {"id": 9270, "properties": {"id": "46004-41682-013-LN2608", "locationName": "Phang-Nga", "title": "GREATER MEKONG SUBREGION HIGHWAY EXPANSION PROJECT", "status": "Implementation", "sectors": ["Transport", "Information and communication technology"]}, "type": "Feature", "geometry": {"coordinates": [98.26447, 8.7005], "type": "Point"}}, {"id": 9271, "properties": {"id": "46004-41682-013-LN2608", "locationName": "Amphoe Khao Kho", "title": "GREATER MEKONG SUBREGION HIGHWAY EXPANSION PROJECT", "status": "Implementation", "sectors": ["Transport", "Information and communication technology"]}, "type": "Feature", "geometry": {"coordinates": [100.9945, 16.66313], "type": "Point"}}, {"id": 9272, "properties": {"id": "46004-41325-013-LN2665", "locationName": "Thailand", "title": "CAPITAL MARKET DEVELOPMENT PROGRAM", "status": "Completion", "sectors": ["Finance"]}, "type": "Feature", "geometry": {"coordinates": [101.0, 15.5], "type": "Point"}}]}