{"id": "AF", "type": "FeatureCollection", "features": [{"type": "Feature", "geometry": {"type": "Point", "coordinates": [69.33333, 33.66667]}, "properties": {"id": "46004-39370-022-GRNT0126", "sectors": ["Agriculture, natural resources and rural development"], "title": "AGRICULTURE MARKET INFRASTRUCTURE PROJECT", "status": "Implementation", "locationName": "Paktia"}}, {"type": "Feature", "geometry": {"type": "Point", "coordinates": [70.41667, 34.33333]}, "properties": {"id": "46004-39370-022-GRNT0126", "sectors": ["Agriculture, natural resources and rural development"], "title": "AGRICULTURE MARKET INFRASTRUCTURE PROJECT", "status": "Implementation", "locationName": "Nangarh\u0101r"}}, {"type": "Feature", "geometry": {"type": "Point", "coordinates": [67.11087, 36.70904]}, "properties": {"id": "46004-39370-022-GRNT0126", "sectors": ["Agriculture, natural resources and rural development"], "title": "AGRICULTURE MARKET INFRASTRUCTURE PROJECT", "status": "Implementation", "locationName": "Mazari Sharif"}}, {"type": "Feature", "geometry": {"type": "Point", "coordinates": [68.857, 36.72896]}, "properties": {"id": "46004-39370-022-GRNT0126", "sectors": ["Agriculture, natural resources and rural development"], "title": "AGRICULTURE MARKET INFRASTRUCTURE PROJECT", "status": "Implementation", "locationName": "Kunduz"}}, {"type": "Feature", "geometry": {"type": "Point", "coordinates": [68.75, 36.75]}, "properties": {"id": "46004-39370-022-GRNT0126", "sectors": ["Agriculture, natural resources and rural development"], "title": "AGRICULTURE MARKET INFRASTRUCTURE PROJECT", "status": "Implementation", "locationName": "Kunduz"}}, {"type": "Feature", "geometry": {"type": "Point", "coordinates": [69.04754, 34.63335]}, "properties": {"id": "46004-39370-022-GRNT0126", "sectors": ["Agriculture, natural resources and rural development"], "title": "AGRICULTURE MARKET INFRASTRUCTURE PROJECT", "status": "Implementation", "locationName": "K\u0101r\u0113z-e M\u012br"}}, {"type": "Feature", "geometry": {"type": "Point", "coordinates": [65.75, 31.0]}, "properties": {"id": "46004-39370-022-GRNT0126", "sectors": ["Agriculture, natural resources and rural development"], "title": "AGRICULTURE MARKET INFRASTRUCTURE PROJECT", "status": "Implementation", "locationName": "Kandah\u0101r"}}, {"type": "Feature", "geometry": {"type": "Point", "coordinates": [69.41667, 34.5]}, "properties": {"id": "46004-39370-022-GRNT0126", "sectors": ["Agriculture, natural resources and rural development"], "title": "AGRICULTURE MARKET INFRASTRUCTURE PROJECT", "status": "Implementation", "locationName": "Kabul"}}, {"type": "Feature", "geometry": {"type": "Point", "coordinates": [69.17233, 34.52813]}, "properties": {"id": "46004-39370-022-GRNT0126", "sectors": ["Agriculture, natural resources and rural development"], "title": "AGRICULTURE MARKET INFRASTRUCTURE PROJECT", "status": "Implementation", "locationName": "Kabul"}}, {"type": "Feature", "geometry": {"type": "Point", "coordinates": [62.0, 34.5]}, "properties": {"id": "46004-39370-022-GRNT0126", "sectors": ["Agriculture, natural resources and rural development"], "title": "AGRICULTURE MARKET INFRASTRUCTURE PROJECT", "status": "Implementation", "locationName": "Herat"}}, {"type": "Feature", "geometry": {"type": "Point", "coordinates": [62.19967, 34.34817]}, "properties": {"id": "46004-39370-022-GRNT0126", "sectors": ["Agriculture, natural resources and rural development"], "title": "AGRICULTURE MARKET INFRASTRUCTURE PROJECT", "status": "Implementation", "locationName": "Herat"}}, {"type": "Feature", "geometry": {"type": "Point", "coordinates": [67.0, 36.75]}, "properties": {"id": "46004-39370-022-GRNT0126", "sectors": ["Agriculture, natural resources and rural development"], "title": "AGRICULTURE MARKET INFRASTRUCTURE PROJECT", "status": "Implementation", "locationName": "Balkh"}}, {"type": "Feature", "geometry": {"type": "Point", "coordinates": [69.1337, 34.41972]}, "properties": {"id": "46004-39370-022-GRNT0126", "sectors": ["Agriculture, natural resources and rural development"], "title": "AGRICULTURE MARKET INFRASTRUCTURE PROJECT", "status": "Implementation", "locationName": "Gul B\u0101gh"}}, {"type": "Feature", "geometry": {"type": "Point", "coordinates": [69.53451, 36.73605]}, "properties": {"id": "46004-42094-022-GRNT0134", "sectors": ["Energy"], "title": "MFF:ENERGY SECTOR DEVELOPMENT INVESTMENT PROGRAM -", "status": "Implementation", "locationName": "Taloqan"}}, {"type": "Feature", "geometry": {"type": "Point", "coordinates": [65.7529, 36.66757]}, "properties": {"id": "46004-42094-022-GRNT0134", "sectors": ["Energy"], "title": "MFF:ENERGY SECTOR DEVELOPMENT INVESTMENT PROGRAM -", "status": "Implementation", "locationName": "Shibirgh\u0101n"}}, {"type": "Feature", "geometry": {"type": "Point", "coordinates": [68.857, 36.72896]}, "properties": {"id": "46004-42094-022-GRNT0134", "sectors": ["Energy"], "title": "MFF:ENERGY SECTOR DEVELOPMENT INVESTMENT PROGRAM -", "status": "Implementation", "locationName": "Kunduz"}}, {"type": "Feature", "geometry": {"type": "Point", "coordinates": [67.25, 34.75]}, "properties": {"id": "46004-42094-022-GRNT0134", "sectors": ["Energy"], "title": "MFF:ENERGY SECTOR DEVELOPMENT INVESTMENT PROGRAM -", "status": "Implementation", "locationName": "Wil\u0101yat-e B\u0101my\u0101n"}}, {"type": "Feature", "geometry": {"type": "Point", "coordinates": [70.90664, 37.00254]}, "properties": {"id": "46004-42094-022-GRNT0134", "sectors": ["Energy"], "title": "MFF:ENERGY SECTOR DEVELOPMENT INVESTMENT PROGRAM -", "status": "Implementation", "locationName": "Bah\u0101rak"}}, {"type": "Feature", "geometry": {"type": "Point", "coordinates": [68.70829, 36.13068]}, "properties": {"id": "46004-42094-022-GRNT0134", "sectors": ["Energy"], "title": "MFF:ENERGY SECTOR DEVELOPMENT INVESTMENT PROGRAM -", "status": "Implementation", "locationName": "Baghlan"}}, {"type": "Feature", "geometry": {"type": "Point", "coordinates": [72.0, 36.75]}, "properties": {"id": "46004-42094-022-GRNT0134", "sectors": ["Energy"], "title": "MFF:ENERGY SECTOR DEVELOPMENT INVESTMENT PROGRAM -", "status": "Implementation", "locationName": "Badakhshan"}}, {"type": "Feature", "geometry": {"type": "Point", "coordinates": [70.89999, 37.03761]}, "properties": {"id": "46004-42094-022-GRNT0134", "sectors": ["Energy"], "title": "MFF:ENERGY SECTOR DEVELOPMENT INVESTMENT PROGRAM -", "status": "Implementation", "locationName": "Bah\u0101rak"}}, {"type": "Feature", "geometry": {"type": "Point", "coordinates": [70.80747, 36.56115]}, "properties": {"id": "46004-42094-022-GRNT0134", "sectors": ["Energy"], "title": "MFF:ENERGY SECTOR DEVELOPMENT INVESTMENT PROGRAM -", "status": "Implementation", "locationName": "Jurm"}}, {"type": "Feature", "geometry": {"type": "Point", "coordinates": [69.11185, 36.60632]}, "properties": {"id": "46004-42094-022-GRNT0134", "sectors": ["Energy"], "title": "MFF:ENERGY SECTOR DEVELOPMENT INVESTMENT PROGRAM -", "status": "Implementation", "locationName": "Khan Abad"}}, {"type": "Feature", "geometry": {"type": "Point", "coordinates": [69.60377, 36.73973]}, "properties": {"id": "46004-42094-022-GRNT0134", "sectors": ["Energy"], "title": "MFF:ENERGY SECTOR DEVELOPMENT INVESTMENT PROGRAM -", "status": "Implementation", "locationName": "T\u0101luq\u0101n"}}, {"type": "Feature", "geometry": {"type": "Point", "coordinates": [68.84385, 36.79256]}, "properties": {"id": "46004-42094-022-GRNT0134", "sectors": ["Energy"], "title": "MFF:ENERGY SECTOR DEVELOPMENT INVESTMENT PROGRAM -", "status": "Implementation", "locationName": "Kunduz"}}, {"type": "Feature", "geometry": {"type": "Point", "coordinates": [64.29318, 35.68747]}, "properties": {"id": "46004-42095-022-GRNT0135", "sectors": ["Transport"], "title": "MFF:ROAD NETWORK DEVELOPMENT INVESTMENT PROGRAM -", "status": "Completion", "locationName": "Sangalak-i-Kaisar"}}, {"type": "Feature", "geometry": {"type": "Point", "coordinates": [66.90854, 36.20532]}, "properties": {"id": "46004-42095-022-GRNT0135", "sectors": ["Transport"], "title": "MFF:ROAD NETWORK DEVELOPMENT INVESTMENT PROGRAM -", "status": "Completion", "locationName": "Pul-e Baraq"}}, {"type": "Feature", "geometry": {"type": "Point", "coordinates": [67.11087, 36.70904]}, "properties": {"id": "46004-42095-022-GRNT0135", "sectors": ["Transport"], "title": "MFF:ROAD NETWORK DEVELOPMENT INVESTMENT PROGRAM -", "status": "Completion", "locationName": "Mazari Sharif"}}, {"type": "Feature", "geometry": {"type": "Point", "coordinates": [64.83333, 36.25]}, "properties": {"id": "46004-42095-022-GRNT0135", "sectors": ["Transport"], "title": "MFF:ROAD NETWORK DEVELOPMENT INVESTMENT PROGRAM -", "status": "Completion", "locationName": "Faryab"}}, {"type": "Feature", "geometry": {"type": "Point", "coordinates": [65.12376, 36.95293]}, "properties": {"id": "46004-42095-022-GRNT0135", "sectors": ["Transport"], "title": "MFF:ROAD NETWORK DEVELOPMENT INVESTMENT PROGRAM -", "status": "Completion", "locationName": "Andkh\u014dy"}}, {"type": "Feature", "geometry": {"type": "Point", "coordinates": [66.94271, 34.9828]}, "properties": {"id": "46004-42095-022-GRNT0135", "sectors": ["Transport"], "title": "MFF:ROAD NETWORK DEVELOPMENT INVESTMENT PROGRAM -", "status": "Completion", "locationName": "Yak\u0101wlang"}}, {"type": "Feature", "geometry": {"type": "Point", "coordinates": [65.28301, 36.85437]}, "properties": {"id": "46004-42095-022-GRNT0135", "sectors": ["Transport"], "title": "MFF:ROAD NETWORK DEVELOPMENT INVESTMENT PROGRAM -", "status": "Completion", "locationName": "Andkh\u014dy"}}, {"type": "Feature", "geometry": {"type": "Point", "coordinates": [64.27908, 35.64137]}, "properties": {"id": "46004-42095-022-GRNT0135", "sectors": ["Transport"], "title": "MFF:ROAD NETWORK DEVELOPMENT INVESTMENT PROGRAM -", "status": "Completion", "locationName": "Qa\u012b\u015f\u0101r"}}, {"type": "Feature", "geometry": {"type": "Point", "coordinates": [67.32699, 35.82467]}, "properties": {"id": "46004-42095-022-GRNT0135", "sectors": ["Transport"], "title": "MFF:ROAD NETWORK DEVELOPMENT INVESTMENT PROGRAM -", "status": "Completion", "locationName": "Dara-I-Suf"}}, {"type": "Feature", "geometry": {"type": "Point", "coordinates": [67.67298, 34.79547]}, "properties": {"id": "46004-42095-022-GRNT0135", "sectors": ["Transport"], "title": "MFF:ROAD NETWORK DEVELOPMENT INVESTMENT PROGRAM -", "status": "Completion", "locationName": "Bamyan"}}, {"type": "Feature", "geometry": {"type": "Point", "coordinates": [66.90979, 36.29404]}, "properties": {"id": "46004-42095-022-GRNT0135", "sectors": ["Transport"], "title": "MFF:ROAD NETWORK DEVELOPMENT INVESTMENT PROGRAM -", "status": "Completion", "locationName": "Sholgara"}}, {"type": "Feature", "geometry": {"type": "Point", "coordinates": [67.1157, 36.70993]}, "properties": {"id": "46004-42095-022-GRNT0135", "sectors": ["Transport"], "title": "MFF:ROAD NETWORK DEVELOPMENT INVESTMENT PROGRAM -", "status": "Completion", "locationName": "Maz\u0101r-e Shar\u012bf"}}, {"type": "Feature", "geometry": {"type": "Point", "coordinates": [67.4241, 37.2214]}, "properties": {"id": "46004-42533-022-GRNT0161", "sectors": ["Transport"], "title": "HAIRATAN TO MAZAR-E-SHARIF RAILWAY PROJECT", "status": "Completion", "locationName": "Hairatan"}}, {"type": "Feature", "geometry": {"type": "Point", "coordinates": [67.54203, 37.12746]}, "properties": {"id": "46004-42533-022-GRNT0161", "sectors": ["Transport"], "title": "HAIRATAN TO MAZAR-E-SHARIF RAILWAY PROJECT", "status": "Completion", "locationName": "Kaldar"}}, {"type": "Feature", "geometry": {"type": "Point", "coordinates": [67.1157, 36.70993]}, "properties": {"id": "46004-42533-022-GRNT0161", "sectors": ["Transport"], "title": "HAIRATAN TO MAZAR-E-SHARIF RAILWAY PROJECT", "status": "Completion", "locationName": "Mazar-e Sharif"}}, {"type": "Feature", "geometry": {"type": "Point", "coordinates": [67.11087, 36.70904]}, "properties": {"id": "46004-42533-022-GRNT0161", "sectors": ["Transport"], "title": "HAIRATAN TO MAZAR-E-SHARIF RAILWAY PROJECT", "status": "Completion", "locationName": "Mazar-e Sharif"}}, {"type": "Feature", "geometry": {"type": "Point", "coordinates": [67.21497, 36.84655]}, "properties": {"id": "46004-42533-022-GRNT0161", "sectors": ["Transport"], "title": "HAIRATAN TO MAZAR-E-SHARIF RAILWAY PROJECT", "status": "Completion", "locationName": "Nahri Shahi"}}, {"type": "Feature", "geometry": {"type": "Point", "coordinates": [66.94282, 37.02737]}, "properties": {"id": "46004-42091-032-GRNT0167", "sectors": ["Agriculture, natural resources and rural development"], "title": "MFF:WATER RESOURCES DEVELOPMENT INVESTMENT PROGRAM", "status": "Implementation", "locationName": "Z\u0101d\u012b\u0101n"}}, {"type": "Feature", "geometry": {"type": "Point", "coordinates": [69.61131, 37.46572]}, "properties": {"id": "46004-42091-032-GRNT0167", "sectors": ["Agriculture, natural resources and rural development"], "title": "MFF:WATER RESOURCES DEVELOPMENT INVESTMENT PROGRAM", "status": "Implementation", "locationName": "Yang\u012b Qal\u2018ah"}}, {"type": "Feature", "geometry": {"type": "Point", "coordinates": [66.15284, 36.88642]}, "properties": {"id": "46004-42091-032-GRNT0167", "sectors": ["Agriculture, natural resources and rural development"], "title": "MFF:WATER RESOURCES DEVELOPMENT INVESTMENT PROGRAM", "status": "Implementation", "locationName": "Surkh"}}, {"type": "Feature", "geometry": {"type": "Point", "coordinates": [67.03786, 36.6862]}, "properties": {"id": "46004-42091-032-GRNT0167", "sectors": ["Agriculture, natural resources and rural development"], "title": "MFF:WATER RESOURCES DEVELOPMENT INVESTMENT PROGRAM", "status": "Implementation", "locationName": "Sherabad"}}, {"type": "Feature", "geometry": {"type": "Point", "coordinates": [66.98877, 36.94691]}, "properties": {"id": "46004-42091-032-GRNT0167", "sectors": ["Agriculture, natural resources and rural development"], "title": "MFF:WATER RESOURCES DEVELOPMENT INVESTMENT PROGRAM", "status": "Implementation", "locationName": "Sar-e \u0100sy\u0101b"}}, {"type": "Feature", "geometry": {"type": "Point", "coordinates": [66.84352, 36.68772]}, "properties": {"id": "46004-42091-032-GRNT0167", "sectors": ["Agriculture, natural resources and rural development"], "title": "MFF:WATER RESOURCES DEVELOPMENT INVESTMENT PROGRAM", "status": "Implementation", "locationName": "Samar Qand\u012b\u0101n"}}, {"type": "Feature", "geometry": {"type": "Point", "coordinates": [66.01984, 36.88444]}, "properties": {"id": "46004-42091-032-GRNT0167", "sectors": ["Agriculture, natural resources and rural development"], "title": "MFF:WATER RESOURCES DEVELOPMENT INVESTMENT PROGRAM", "status": "Implementation", "locationName": "Qarah Buyin"}}, {"type": "Feature", "geometry": {"type": "Point", "coordinates": [66.96689, 36.65406]}, "properties": {"id": "46004-42091-032-GRNT0167", "sectors": ["Agriculture, natural resources and rural development"], "title": "MFF:WATER RESOURCES DEVELOPMENT INVESTMENT PROGRAM", "status": "Implementation", "locationName": "Pusht-e B\u0101gh"}}, {"type": "Feature", "geometry": {"type": "Point", "coordinates": [66.88815, 37.01077]}, "properties": {"id": "46004-42091-032-GRNT0167", "sectors": ["Agriculture, natural resources and rural development"], "title": "MFF:WATER RESOURCES DEVELOPMENT INVESTMENT PROGRAM", "status": "Implementation", "locationName": "Nakhch\u012br\u0101b\u0101d"}}, {"type": "Feature", "geometry": {"type": "Point", "coordinates": [66.89798, 36.73644]}, "properties": {"id": "46004-42091-032-GRNT0167", "sectors": ["Agriculture, natural resources and rural development"], "title": "MFF:WATER RESOURCES DEVELOPMENT INVESTMENT PROGRAM", "status": "Implementation", "locationName": "M\u014dy Mubarak"}}, {"type": "Feature", "geometry": {"type": "Point", "coordinates": [66.11399, 36.93424]}, "properties": {"id": "46004-42091-032-GRNT0167", "sectors": ["Agriculture, natural resources and rural development"], "title": "MFF:WATER RESOURCES DEVELOPMENT INVESTMENT PROGRAM", "status": "Implementation", "locationName": "Mingajik-e Qulighajar"}}, {"type": "Feature", "geometry": {"type": "Point", "coordinates": [66.13849, 36.85907]}, "properties": {"id": "46004-42091-032-GRNT0167", "sectors": ["Agriculture, natural resources and rural development"], "title": "MFF:WATER RESOURCES DEVELOPMENT INVESTMENT PROGRAM", "status": "Implementation", "locationName": "Kaltah Sh\u0101kh"}}, {"type": "Feature", "geometry": {"type": "Point", "coordinates": [65.83333, 36.83333]}, "properties": {"id": "46004-42091-032-GRNT0167", "sectors": ["Agriculture, natural resources and rural development"], "title": "MFF:WATER RESOURCES DEVELOPMENT INVESTMENT PROGRAM", "status": "Implementation", "locationName": "Wil\u0101yat-e Jowzj\u0101n"}}, {"type": "Feature", "geometry": {"type": "Point", "coordinates": [67.26778, 36.72833]}, "properties": {"id": "46004-42091-032-GRNT0167", "sectors": ["Agriculture, natural resources and rural development"], "title": "MFF:WATER RESOURCES DEVELOPMENT INVESTMENT PROGRAM", "status": "Implementation", "locationName": "Gowr-i-Mar"}}, {"type": "Feature", "geometry": {"type": "Point", "coordinates": [66.86787, 36.73035]}, "properties": {"id": "46004-42091-032-GRNT0167", "sectors": ["Agriculture, natural resources and rural development"], "title": "MFF:WATER RESOURCES DEVELOPMENT INVESTMENT PROGRAM", "status": "Implementation", "locationName": "Deh-e Q\u0101\u1e95\u012b"}}, {"type": "Feature", "geometry": {"type": "Point", "coordinates": [66.38478, 36.9195]}, "properties": {"id": "46004-42091-032-GRNT0167", "sectors": ["Agriculture, natural resources and rural development"], "title": "MFF:WATER RESOURCES DEVELOPMENT INVESTMENT PROGRAM", "status": "Implementation", "locationName": "Chakish"}}, {"type": "Feature", "geometry": {"type": "Point", "coordinates": [67.0, 36.75]}, "properties": {"id": "46004-42091-032-GRNT0167", "sectors": ["Agriculture, natural resources and rural development"], "title": "MFF:WATER RESOURCES DEVELOPMENT INVESTMENT PROGRAM", "status": "Implementation", "locationName": "Balkh"}}, {"type": "Feature", "geometry": {"type": "Point", "coordinates": [66.8972, 36.75635]}, "properties": {"id": "46004-42091-032-GRNT0167", "sectors": ["Agriculture, natural resources and rural development"], "title": "MFF:WATER RESOURCES DEVELOPMENT INVESTMENT PROGRAM", "status": "Implementation", "locationName": "Balkh"}}, {"type": "Feature", "geometry": {"type": "Point", "coordinates": [67.01543, 36.74232]}, "properties": {"id": "46004-42091-032-GRNT0167", "sectors": ["Agriculture, natural resources and rural development"], "title": "MFF:WATER RESOURCES DEVELOPMENT INVESTMENT PROGRAM", "status": "Implementation", "locationName": "B\u0101b\u0101 Qushqar"}}, {"type": "Feature", "geometry": {"type": "Point", "coordinates": [66.18341, 36.905]}, "properties": {"id": "46004-42091-032-GRNT0167", "sectors": ["Agriculture, natural resources and rural development"], "title": "MFF:WATER RESOURCES DEVELOPMENT INVESTMENT PROGRAM", "status": "Implementation", "locationName": "\u0100qchah"}}, {"type": "Feature", "geometry": {"type": "Point", "coordinates": [66.87738, 36.78052]}, "properties": {"id": "46004-42091-032-GRNT0167", "sectors": ["Agriculture, natural resources and rural development"], "title": "MFF:WATER RESOURCES DEVELOPMENT INVESTMENT PROGRAM", "status": "Implementation", "locationName": "Qal\u2018achah"}}, {"type": "Feature", "geometry": {"type": "Point", "coordinates": [67.06315, 36.98026]}, "properties": {"id": "46004-42091-032-GRNT0167", "sectors": ["Agriculture, natural resources and rural development"], "title": "MFF:WATER RESOURCES DEVELOPMENT INVESTMENT PROGRAM", "status": "Implementation", "locationName": "Kha\u012br\u0101b\u0101d"}}, {"type": "Feature", "geometry": {"type": "Point", "coordinates": [66.95507, 36.95025]}, "properties": {"id": "46004-42091-032-GRNT0167", "sectors": ["Agriculture, natural resources and rural development"], "title": "MFF:WATER RESOURCES DEVELOPMENT INVESTMENT PROGRAM", "status": "Implementation", "locationName": "Shingil\u0101b\u0101d"}}, {"type": "Feature", "geometry": {"type": "Point", "coordinates": [66.33153, 37.0488]}, "properties": {"id": "46004-42091-032-GRNT0167", "sectors": ["Agriculture, natural resources and rural development"], "title": "MFF:WATER RESOURCES DEVELOPMENT INVESTMENT PROGRAM", "status": "Implementation", "locationName": "Mard\u012b\u0101n"}}, {"type": "Feature", "geometry": {"type": "Point", "coordinates": [69.17233, 34.52813]}, "properties": {"id": "46004-42094-032-GRNT0184", "sectors": ["Energy"], "title": "MFF:ENERGY SECTOR DEVELOPMENT INVESTMENT PROGRAM-P", "status": "Implementation", "locationName": "Kabul"}}, {"type": "Feature", "geometry": {"type": "Point", "coordinates": [69.07788, 34.50145]}, "properties": {"id": "46004-42094-032-GRNT0184", "sectors": ["Energy"], "title": "MFF:ENERGY SECTOR DEVELOPMENT INVESTMENT PROGRAM-P", "status": "Implementation", "locationName": "Dasht-e Barch\u012b"}}, {"type": "Feature", "geometry": {"type": "Point", "coordinates": [69.10549, 34.49614]}, "properties": {"id": "46004-42094-032-GRNT0184", "sectors": ["Energy"], "title": "MFF:ENERGY SECTOR DEVELOPMENT INVESTMENT PROGRAM-P", "status": "Implementation", "locationName": "Kabul"}}, {"type": "Feature", "geometry": {"type": "Point", "coordinates": [62.0, 34.5]}, "properties": {"id": "46004-36252-013-LN2227", "sectors": ["Agriculture, natural resources and rural development"], "title": "WESTERN BASINS WATER RESOURCES MANAGEMENT PROJECT", "status": "Implementation", "locationName": "Herat"}}, {"type": "Feature", "geometry": {"type": "Point", "coordinates": [65.0, 34.0]}, "properties": {"id": "46004-36252-013-LN2227", "sectors": ["Agriculture, natural resources and rural development"], "title": "WESTERN BASINS WATER RESOURCES MANAGEMENT PROJECT", "status": "Implementation", "locationName": "Ghowr"}}, {"type": "Feature", "geometry": {"type": "Point", "coordinates": [63.75, 35.0]}, "properties": {"id": "46004-36252-013-LN2227", "sectors": ["Agriculture, natural resources and rural development"], "title": "WESTERN BASINS WATER RESOURCES MANAGEMENT PROJECT", "status": "Implementation", "locationName": "Badghis"}}, {"type": "Feature", "geometry": {"type": "Point", "coordinates": [64.08969, 35.04995]}, "properties": {"id": "46004-36252-013-LN2227", "sectors": ["Agriculture, natural resources and rural development"], "title": "WESTERN BASINS WATER RESOURCES MANAGEMENT PROJECT", "status": "Implementation", "locationName": "R\u014dd-e M\u016brgh\u0101b"}}, {"type": "Feature", "geometry": {"type": "Point", "coordinates": [63.4163, 34.38112]}, "properties": {"id": "46004-36252-013-LN2227", "sectors": ["Agriculture, natural resources and rural development"], "title": "WESTERN BASINS WATER RESOURCES MANAGEMENT PROJECT", "status": "Implementation", "locationName": "Harirud"}}, {"type": "Feature", "geometry": {"type": "Point", "coordinates": [66.97378, 34.73525]}, "properties": {"id": "46004-39467-013-LN2257", "sectors": ["Transport"], "title": "NORTH-SOUTH CORRIDOR PROJECT", "status": "Implementation", "locationName": "B\u0101z\u0101r-e Yak\u0101wlang"}}, {"type": "Feature", "geometry": {"type": "Point", "coordinates": [66.90854, 36.20532]}, "properties": {"id": "46004-39467-013-LN2257", "sectors": ["Transport"], "title": "NORTH-SOUTH CORRIDOR PROJECT", "status": "Implementation", "locationName": "Pul-e Baraq"}}, {"type": "Feature", "geometry": {"type": "Point", "coordinates": [67.11087, 36.70904]}, "properties": {"id": "46004-39467-013-LN2257", "sectors": ["Transport"], "title": "NORTH-SOUTH CORRIDOR PROJECT", "status": "Implementation", "locationName": "Mazari Sharif"}}, {"type": "Feature", "geometry": {"type": "Point", "coordinates": [67.82734, 34.82156]}, "properties": {"id": "46004-39467-013-LN2257", "sectors": ["Transport"], "title": "NORTH-SOUTH CORRIDOR PROJECT", "status": "Implementation", "locationName": "B\u0101my\u0101n"}}, {"type": "Feature", "geometry": {"type": "Point", "coordinates": [66.94271, 34.9828]}, "properties": {"id": "46004-39467-013-LN2257", "sectors": ["Transport"], "title": "NORTH-SOUTH CORRIDOR PROJECT", "status": "Implementation", "locationName": "Yak\u0101wlang"}}, {"type": "Feature", "geometry": {"type": "Point", "coordinates": [67.32699, 35.82467]}, "properties": {"id": "46004-39467-013-LN2257", "sectors": ["Transport"], "title": "NORTH-SOUTH CORRIDOR PROJECT", "status": "Implementation", "locationName": "Dara-I-Suf"}}, {"type": "Feature", "geometry": {"type": "Point", "coordinates": [67.67298, 34.79547]}, "properties": {"id": "46004-39467-013-LN2257", "sectors": ["Transport"], "title": "NORTH-SOUTH CORRIDOR PROJECT", "status": "Implementation", "locationName": "Bamyan"}}, {"type": "Feature", "geometry": {"type": "Point", "coordinates": [66.90979, 36.29404]}, "properties": {"id": "46004-39467-013-LN2257", "sectors": ["Transport"], "title": "NORTH-SOUTH CORRIDOR PROJECT", "status": "Implementation", "locationName": "Sholgara"}}, {"type": "Feature", "geometry": {"type": "Point", "coordinates": [67.1157, 36.70993]}, "properties": {"id": "46004-39467-013-LN2257", "sectors": ["Transport"], "title": "NORTH-SOUTH CORRIDOR PROJECT", "status": "Implementation", "locationName": "Maz\u0101r-e Shar\u012bf"}}, {"type": "Feature", "geometry": {"type": "Point", "coordinates": [68.61126, 37.19041]}, "properties": {"id": "46004-40043-013-GRNT0230", "sectors": ["Energy"], "title": "REGIONAL POWER TRANSMISSION INTERCONNECTION PROJEC", "status": "Completion", "locationName": "Qizil Qal\u2018ah"}}, {"type": "Feature", "geometry": {"type": "Point", "coordinates": [68.857, 36.72896]}, "properties": {"id": "46004-40043-013-GRNT0230", "sectors": ["Energy"], "title": "REGIONAL POWER TRANSMISSION INTERCONNECTION PROJEC", "status": "Completion", "locationName": "Kunduz"}}, {"type": "Feature", "geometry": {"type": "Point", "coordinates": [68.64001, 36.00118]}, "properties": {"id": "46004-40043-013-GRNT0230", "sectors": ["Energy"], "title": "REGIONAL POWER TRANSMISSION INTERCONNECTION PROJEC", "status": "Completion", "locationName": "Puli Khumri"}}, {"type": "Feature", "geometry": {"type": "Point", "coordinates": [68.61126, 37.19041]}, "properties": {"id": "46004-40043-013-LN2304", "sectors": ["Energy"], "title": "REGIONAL POWER TRANSMISSION INTERCONNECTION PROJ-AFHAN COMPONENT", "status": "Completion", "locationName": "Qizil Qal\u2018ah"}}, {"type": "Feature", "geometry": {"type": "Point", "coordinates": [68.857, 36.72896]}, "properties": {"id": "46004-40043-013-LN2304", "sectors": ["Energy"], "title": "REGIONAL POWER TRANSMISSION INTERCONNECTION PROJ-AFHAN COMPONENT", "status": "Completion", "locationName": "Kunduz"}}, {"type": "Feature", "geometry": {"type": "Point", "coordinates": [68.64001, 36.00118]}, "properties": {"id": "46004-40043-013-LN2304", "sectors": ["Energy"], "title": "REGIONAL POWER TRANSMISSION INTERCONNECTION PROJ-AFHAN COMPONENT", "status": "Completion", "locationName": "Puli Khumri"}}, {"type": "Feature", "geometry": {"type": "Point", "coordinates": [64.29318, 35.68747]}, "properties": {"id": "46004-42095-032-GRNT0244", "sectors": ["Transport"], "title": "MFF: ROAD NETWORK DEVELOPMENT INVESTMENT PROGRAM-T", "status": "Implementation", "locationName": "Sangalak-i-Kaisar"}}, {"type": "Feature", "geometry": {"type": "Point", "coordinates": [69.57242, 34.9789]}, "properties": {"id": "46004-42095-032-GRNT0244", "sectors": ["Transport"], "title": "MFF: ROAD NETWORK DEVELOPMENT INVESTMENT PROGRAM-T", "status": "Implementation", "locationName": "Nijr\u0101b"}}, {"type": "Feature", "geometry": {"type": "Point", "coordinates": [63.32886, 35.58408]}, "properties": {"id": "46004-42095-032-GRNT0244", "sectors": ["Transport"], "title": "MFF: ROAD NETWORK DEVELOPMENT INVESTMENT PROGRAM-T", "status": "Implementation", "locationName": "Bala Murghab"}}, {"type": "Feature", "geometry": {"type": "Point", "coordinates": [63.10416, 34.75231]}, "properties": {"id": "46004-42095-032-GRNT0244", "sectors": ["Transport"], "title": "MFF: ROAD NETWORK DEVELOPMENT INVESTMENT PROGRAM-T", "status": "Implementation", "locationName": "L\u0101m\u0101n"}}, {"type": "Feature", "geometry": {"type": "Point", "coordinates": [69.23778, 35.11833]}, "properties": {"id": "46004-42095-032-GRNT0244", "sectors": ["Transport"], "title": "MFF: ROAD NETWORK DEVELOPMENT INVESTMENT PROGRAM-T", "status": "Implementation", "locationName": "Jabal Saraj"}}, {"type": "Feature", "geometry": {"type": "Point", "coordinates": [70.58002, 37.11664]}, "properties": {"id": "46004-42095-032-GRNT0244", "sectors": ["Transport"], "title": "MFF: ROAD NETWORK DEVELOPMENT INVESTMENT PROGRAM-T", "status": "Implementation", "locationName": "Fayzabad"}}, {"type": "Feature", "geometry": {"type": "Point", "coordinates": [69.8946, 33.5503]}, "properties": {"id": "46004-42095-032-GRNT0244", "sectors": ["Transport"], "title": "MFF: ROAD NETWORK DEVELOPMENT INVESTMENT PROGRAM-T", "status": "Implementation", "locationName": "Sabar\u012b"}}, {"type": "Feature", "geometry": {"type": "Point", "coordinates": [69.39947, 36.80192]}, "properties": {"id": "46004-42095-032-GRNT0244", "sectors": ["Transport"], "title": "MFF: ROAD NETWORK DEVELOPMENT INVESTMENT PROGRAM-T", "status": "Implementation", "locationName": "Bah\u0101rak"}}, {"type": "Feature", "geometry": {"type": "Point", "coordinates": [69.36859, 34.46484]}, "properties": {"id": "46004-42095-032-GRNT0244", "sectors": ["Transport"], "title": "MFF: ROAD NETWORK DEVELOPMENT INVESTMENT PROGRAM-T", "status": "Implementation", "locationName": "Bagr\u0101m\u012b"}}, {"type": "Feature", "geometry": {"type": "Point", "coordinates": [70.55364, 34.09014]}, "properties": {"id": "46004-42095-032-GRNT0244", "sectors": ["Transport"], "title": "MFF: ROAD NETWORK DEVELOPMENT INVESTMENT PROGRAM-T", "status": "Implementation", "locationName": "Sur\u016bb\u012b"}}, {"type": "Feature", "geometry": {"type": "Point", "coordinates": [70.61222, 37.21347]}, "properties": {"id": "46004-42095-032-GRNT0244", "sectors": ["Transport"], "title": "MFF: ROAD NETWORK DEVELOPMENT INVESTMENT PROGRAM-T", "status": "Implementation", "locationName": "Fa\u012b\u1e95\u0101b\u0101d"}}, {"type": "Feature", "geometry": {"type": "Point", "coordinates": [63.46962, 35.46208]}, "properties": {"id": "46004-42095-032-GRNT0244", "sectors": ["Transport"], "title": "MFF: ROAD NETWORK DEVELOPMENT INVESTMENT PROGRAM-T", "status": "Implementation", "locationName": "Murgh\u0101b"}}, {"type": "Feature", "geometry": {"type": "Point", "coordinates": [64.27908, 35.64137]}, "properties": {"id": "46004-42095-032-GRNT0244", "sectors": ["Transport"], "title": "MFF: ROAD NETWORK DEVELOPMENT INVESTMENT PROGRAM-T", "status": "Implementation", "locationName": "Qa\u012b\u015f\u0101r"}}, {"type": "Feature", "geometry": {"type": "Point", "coordinates": [69.32819, 34.49347]}, "properties": {"id": "46004-42095-032-GRNT0244", "sectors": ["Transport"], "title": "MFF: ROAD NETWORK DEVELOPMENT INVESTMENT PROGRAM-T", "status": "Implementation", "locationName": "Bagr\u0101m\u012b"}}, {"type": "Feature", "geometry": {"type": "Point", "coordinates": [69.63337, 35.04224]}, "properties": {"id": "46004-42095-032-GRNT0244", "sectors": ["Transport"], "title": "MFF: ROAD NETWORK DEVELOPMENT INVESTMENT PROGRAM-T", "status": "Implementation", "locationName": "Nijr\u0101b"}}, {"type": "Feature", "geometry": {"type": "Point", "coordinates": [70.56797, 34.27302]}, "properties": {"id": "46004-42095-032-GRNT0244", "sectors": ["Transport"], "title": "MFF: ROAD NETWORK DEVELOPMENT INVESTMENT PROGRAM-T", "status": "Implementation", "locationName": "R\u014dd\u0101t"}}, {"type": "Feature", "geometry": {"type": "Point", "coordinates": [69.60377, 36.73973]}, "properties": {"id": "46004-42095-032-GRNT0244", "sectors": ["Transport"], "title": "MFF: ROAD NETWORK DEVELOPMENT INVESTMENT PROGRAM-T", "status": "Implementation", "locationName": "T\u0101luq\u0101n"}}, {"type": "Feature", "geometry": {"type": "Point", "coordinates": [69.9118, 33.54352]}, "properties": {"id": "46004-42095-032-GRNT0244", "sectors": ["Transport"], "title": "MFF: ROAD NETWORK DEVELOPMENT INVESTMENT PROGRAM-T", "status": "Implementation", "locationName": "\u015eabar\u012b"}}, {"type": "Feature", "geometry": {"type": "Point", "coordinates": [69.18465, 35.10862]}, "properties": {"id": "46004-42095-032-GRNT0244", "sectors": ["Transport"], "title": "MFF: ROAD NETWORK DEVELOPMENT INVESTMENT PROGRAM-T", "status": "Implementation", "locationName": "Jabal Saraj"}}, {"type": "Feature", "geometry": {"type": "Point", "coordinates": [63.05603, 34.88199]}, "properties": {"id": "46004-42095-032-GRNT0244", "sectors": ["Transport"], "title": "MFF: ROAD NETWORK DEVELOPMENT INVESTMENT PROGRAM-T", "status": "Implementation", "locationName": "Qala-i-Naw"}}, {"type": "Feature", "geometry": {"type": "Point", "coordinates": [69.57242, 34.9789]}, "properties": {"id": "46004-44482-022-GRNT0261", "sectors": ["Transport"], "title": "MFF-TRNSPRT NETWRK DEVL INVSTMENT PROGRAM-TRANCHE", "status": "Implementation", "locationName": "Nijrab"}}, {"type": "Feature", "geometry": {"type": "Point", "coordinates": [67.11087, 36.70904]}, "properties": {"id": "46004-44482-022-GRNT0261", "sectors": ["Transport"], "title": "MFF-TRNSPRT NETWRK DEVL INVSTMENT PROGRAM-TRANCHE", "status": "Implementation", "locationName": "Mazar-e Sharif"}}, {"type": "Feature", "geometry": {"type": "Point", "coordinates": [69.34, 35.01]}, "properties": {"id": "46004-44482-022-GRNT0261", "sectors": ["Transport"], "title": "MFF-TRNSPRT NETWRK DEVL INVSTMENT PROGRAM-TRANCHE", "status": "Implementation", "locationName": "Mahmoud Raqi"}}, {"type": "Feature", "geometry": {"type": "Point", "coordinates": [69.3, 35.11667]}, "properties": {"id": "46004-44482-022-GRNT0261", "sectors": ["Transport"], "title": "MFF-TRNSPRT NETWRK DEVL INVSTMENT PROGRAM-TRANCHE", "status": "Implementation", "locationName": "Kohistan"}}, {"type": "Feature", "geometry": {"type": "Point", "coordinates": [69.41667, 34.5]}, "properties": {"id": "46004-44482-022-GRNT0261", "sectors": ["Transport"], "title": "MFF-TRNSPRT NETWRK DEVL INVSTMENT PROGRAM-TRANCHE", "status": "Implementation", "locationName": "Wilayat-e Kabul"}}, {"type": "Feature", "geometry": {"type": "Point", "coordinates": [69.29167, 35.06481]}, "properties": {"id": "46004-44482-022-GRNT0261", "sectors": ["Transport"], "title": "MFF-TRNSPRT NETWRK DEVL INVSTMENT PROGRAM-TRANCHE", "status": "Implementation", "locationName": "Jamalaghah"}}, {"type": "Feature", "geometry": {"type": "Point", "coordinates": [69.23778, 35.11833]}, "properties": {"id": "46004-44482-022-GRNT0261", "sectors": ["Transport"], "title": "MFF-TRNSPRT NETWRK DEVL INVSTMENT PROGRAM-TRANCHE", "status": "Implementation", "locationName": "Jabal os Saraj"}}, {"type": "Feature", "geometry": {"type": "Point", "coordinates": [67.4241, 37.2214]}, "properties": {"id": "46004-44482-022-GRNT0261", "sectors": ["Transport"], "title": "MFF-TRNSPRT NETWRK DEVL INVSTMENT PROGRAM-TRANCHE", "status": "Implementation", "locationName": "Hairatan"}}, {"type": "Feature", "geometry": {"type": "Point", "coordinates": [69.5092, 35.01661]}, "properties": {"id": "46004-44482-022-GRNT0261", "sectors": ["Transport"], "title": "MFF-TRNSPRT NETWRK DEVL INVSTMENT PROGRAM-TRANCHE", "status": "Implementation", "locationName": "Giawah-ye Pa'in"}}, {"type": "Feature", "geometry": {"type": "Point", "coordinates": [70.58002, 37.11664]}, "properties": {"id": "46004-44482-022-GRNT0261", "sectors": ["Transport"], "title": "MFF-TRNSPRT NETWRK DEVL INVSTMENT PROGRAM-TRANCHE", "status": "Implementation", "locationName": "Fayzabad"}}, {"type": "Feature", "geometry": {"type": "Point", "coordinates": [69.4976, 35.06602]}, "properties": {"id": "46004-44482-022-GRNT0261", "sectors": ["Transport"], "title": "MFF-TRNSPRT NETWRK DEVL INVSTMENT PROGRAM-TRANCHE", "status": "Implementation", "locationName": "Durnamah"}}, {"type": "Feature", "geometry": {"type": "Point", "coordinates": [70.90664, 37.00254]}, "properties": {"id": "46004-44482-022-GRNT0261", "sectors": ["Transport"], "title": "MFF-TRNSPRT NETWRK DEVL INVSTMENT PROGRAM-TRANCHE", "status": "Implementation", "locationName": "Baharak"}}, {"type": "Feature", "geometry": {"type": "Point", "coordinates": [69.27427, 34.49376]}, "properties": {"id": "46004-44482-022-GRNT0261", "sectors": ["Transport"], "title": "MFF-TRNSPRT NETWRK DEVL INVSTMENT PROGRAM-TRANCHE", "status": "Implementation", "locationName": "Bagrami"}}, {"type": "Feature", "geometry": {"type": "Point", "coordinates": [66.0, 33.0]}, "properties": {"id": "46004-44482-022-GRNT0261", "sectors": ["Transport"], "title": "MFF-TRNSPRT NETWRK DEVL INVSTMENT PROGRAM-TRANCHE", "status": "Implementation", "locationName": "Islamic Republic of Afghanistan"}}, {"type": "Feature", "geometry": {"type": "Point", "coordinates": [69.26964, 35.1459]}, "properties": {"id": "46004-44482-022-GRNT0261", "sectors": ["Transport"], "title": "MFF-TRNSPRT NETWRK DEVL INVSTMENT PROGRAM-TRANCHE", "status": "Implementation", "locationName": "Gul Bahar"}}, {"type": "Feature", "geometry": {"type": "Point", "coordinates": [70.89999, 37.03761]}, "properties": {"id": "46004-44482-022-GRNT0261", "sectors": ["Transport"], "title": "MFF-TRNSPRT NETWRK DEVL INVSTMENT PROGRAM-TRANCHE", "status": "Implementation", "locationName": "Baharak"}}, {"type": "Feature", "geometry": {"type": "Point", "coordinates": [70.61222, 37.21347]}, "properties": {"id": "46004-44482-022-GRNT0261", "sectors": ["Transport"], "title": "MFF-TRNSPRT NETWRK DEVL INVSTMENT PROGRAM-TRANCHE", "status": "Implementation", "locationName": "Faizabad"}}, {"type": "Feature", "geometry": {"type": "Point", "coordinates": [69.32819, 34.49347]}, "properties": {"id": "46004-44482-022-GRNT0261", "sectors": ["Transport"], "title": "MFF-TRNSPRT NETWRK DEVL INVSTMENT PROGRAM-TRANCHE", "status": "Implementation", "locationName": "Bagrami"}}, {"type": "Feature", "geometry": {"type": "Point", "coordinates": [69.47342, 35.10575]}, "properties": {"id": "46004-44482-022-GRNT0261", "sectors": ["Transport"], "title": "MFF-TRNSPRT NETWRK DEVL INVSTMENT PROGRAM-TRANCHE", "status": "Implementation", "locationName": "Koh Band"}}, {"type": "Feature", "geometry": {"type": "Point", "coordinates": [69.39984, 35.01368]}, "properties": {"id": "46004-44482-022-GRNT0261", "sectors": ["Transport"], "title": "MFF-TRNSPRT NETWRK DEVL INVSTMENT PROGRAM-TRANCHE", "status": "Implementation", "locationName": "Mahmud-e Raqi"}}, {"type": "Feature", "geometry": {"type": "Point", "coordinates": [69.63337, 35.04224]}, "properties": {"id": "46004-44482-022-GRNT0261", "sectors": ["Transport"], "title": "MFF-TRNSPRT NETWRK DEVL INVSTMENT PROGRAM-TRANCHE", "status": "Implementation", "locationName": "Nijrab"}}, {"type": "Feature", "geometry": {"type": "Point", "coordinates": [67.54203, 37.12746]}, "properties": {"id": "46004-44482-022-GRNT0261", "sectors": ["Transport"], "title": "MFF-TRNSPRT NETWRK DEVL INVSTMENT PROGRAM-TRANCHE", "status": "Implementation", "locationName": "Kaldar"}}, {"type": "Feature", "geometry": {"type": "Point", "coordinates": [69.18465, 35.10862]}, "properties": {"id": "46004-44482-022-GRNT0261", "sectors": ["Transport"], "title": "MFF-TRNSPRT NETWRK DEVL INVSTMENT PROGRAM-TRANCHE", "status": "Implementation", "locationName": "Jabal us Saraj"}}, {"type": "Feature", "geometry": {"type": "Point", "coordinates": [67.21497, 36.84655]}, "properties": {"id": "46004-44482-022-GRNT0261", "sectors": ["Transport"], "title": "MFF-TRNSPRT NETWRK DEVL INVSTMENT PROGRAM-TRANCHE", "status": "Implementation", "locationName": "Nahri Shahi"}}, {"type": "Feature", "geometry": {"type": "Point", "coordinates": [67.1157, 36.70993]}, "properties": {"id": "46004-44482-022-GRNT0261", "sectors": ["Transport"], "title": "MFF-TRNSPRT NETWRK DEVL INVSTMENT PROGRAM-TRANCHE", "status": "Implementation", "locationName": "Mazar-e Sharif"}}, {"type": "Feature", "geometry": {"type": "Point", "coordinates": [64.57005, 31.82089]}, "properties": {"id": "46004-42094-042-GRNT0280", "sectors": ["Energy"], "title": "MFF:ENERGY SECTOR DEVELOPMENT INVESTMENT PROGRAM-T", "status": "Implementation", "locationName": "Gereshk"}}, {"type": "Feature", "geometry": {"type": "Point", "coordinates": [68.75, 32.41667]}, "properties": {"id": "46004-44482-023-GRNT0327", "sectors": ["Transport"], "title": "MFF:TRANSPORT NETWORK DEVELOPMENT INVESTMENT PROGR", "status": "Implementation", "locationName": "Wilayat-e Paktika"}}, {"type": "Feature", "geometry": {"type": "Point", "coordinates": [70.41667, 34.33333]}, "properties": {"id": "46004-44482-023-GRNT0327", "sectors": ["Transport"], "title": "MFF:TRANSPORT NETWORK DEVELOPMENT INVESTMENT PROGR", "status": "Implementation", "locationName": "Nangarhar"}}, {"type": "Feature", "geometry": {"type": "Point", "coordinates": [70.45153, 34.42647]}, "properties": {"id": "46004-44482-023-GRNT0327", "sectors": ["Transport"], "title": "MFF:TRANSPORT NETWORK DEVELOPMENT INVESTMENT PROGR", "status": "Implementation", "locationName": "Jalalabad"}}, {"type": "Feature", "geometry": {"type": "Point", "coordinates": [64.0, 31.0]}, "properties": {"id": "46004-44482-023-GRNT0327", "sectors": ["Transport"], "title": "MFF:TRANSPORT NETWORK DEVELOPMENT INVESTMENT PROGR", "status": "Implementation", "locationName": "Helmand"}}, {"type": "Feature", "geometry": {"type": "Point", "coordinates": [64.57005, 31.82089]}, "properties": {"id": "46004-44482-023-GRNT0327", "sectors": ["Transport"], "title": "MFF:TRANSPORT NETWORK DEVELOPMENT INVESTMENT PROGR", "status": "Implementation", "locationName": "Gereshk"}}, {"type": "Feature", "geometry": {"type": "Point", "coordinates": [64.31485, 31.6793]}, "properties": {"id": "46004-44482-023-GRNT0327", "sectors": ["Transport"], "title": "MFF:TRANSPORT NETWORK DEVELOPMENT INVESTMENT PROGR", "status": "Implementation", "locationName": "Chah Anjir"}}, {"type": "Feature", "geometry": {"type": "Point", "coordinates": [66.0, 33.0]}, "properties": {"id": "46004-44482-023-GRNT0327", "sectors": ["Transport"], "title": "MFF:TRANSPORT NETWORK DEVELOPMENT INVESTMENT PROGR", "status": "Implementation", "locationName": "Islamic Republic of Afghanistan"}}, {"type": "Feature", "geometry": {"type": "Point", "coordinates": [69.27167, 32.51917]}, "properties": {"id": "46004-44482-023-GRNT0327", "sectors": ["Transport"], "title": "MFF:TRANSPORT NETWORK DEVELOPMENT INVESTMENT PROGR", "status": "Implementation", "locationName": "Angoor Adda"}}, {"type": "Feature", "geometry": {"type": "Point", "coordinates": [63.86144, 31.62594]}, "properties": {"id": "46004-44482-023-GRNT0327", "sectors": ["Transport"], "title": "MFF:TRANSPORT NETWORK DEVELOPMENT INVESTMENT PROGR", "status": "Implementation", "locationName": "Nad `Ali"}}, {"type": "Feature", "geometry": {"type": "Point", "coordinates": [64.60853, 31.82936]}, "properties": {"id": "46004-44482-023-GRNT0327", "sectors": ["Transport"], "title": "MFF:TRANSPORT NETWORK DEVELOPMENT INVESTMENT PROGR", "status": "Implementation", "locationName": "Nahr-e Saraj"}}, {"type": "Feature", "geometry": {"type": "Point", "coordinates": [69.77015, 34.28164]}, "properties": {"id": "46004-44482-023-GRNT0327", "sectors": ["Transport"], "title": "MFF:TRANSPORT NETWORK DEVELOPMENT INVESTMENT PROGR", "status": "Implementation", "locationName": "Hisarak"}}, {"type": "Feature", "geometry": {"type": "Point", "coordinates": [70.44959, 34.41712]}, "properties": {"id": "46004-44482-023-GRNT0327", "sectors": ["Transport"], "title": "MFF:TRANSPORT NETWORK DEVELOPMENT INVESTMENT PROGR", "status": "Implementation", "locationName": "Jalalabad"}}, {"type": "Feature", "geometry": {"type": "Point", "coordinates": [70.14675, 34.22706]}, "properties": {"id": "46004-44482-023-GRNT0327", "sectors": ["Transport"], "title": "MFF:TRANSPORT NETWORK DEVELOPMENT INVESTMENT PROGR", "status": "Implementation", "locationName": "Khugyani"}}, {"type": "Feature", "geometry": {"type": "Point", "coordinates": [69.98013, 34.19418]}, "properties": {"id": "46004-44482-023-GRNT0327", "sectors": ["Transport"], "title": "MFF:TRANSPORT NETWORK DEVELOPMENT INVESTMENT PROGR", "status": "Implementation", "locationName": "Sherzad"}}, {"type": "Feature", "geometry": {"type": "Point", "coordinates": [70.27444, 34.39385]}, "properties": {"id": "46004-44482-023-GRNT0327", "sectors": ["Transport"], "title": "MFF:TRANSPORT NETWORK DEVELOPMENT INVESTMENT PROGR", "status": "Implementation", "locationName": "Surkh Rod"}}, {"type": "Feature", "geometry": {"type": "Point", "coordinates": [69.27614, 32.71332]}, "properties": {"id": "46004-44482-023-GRNT0327", "sectors": ["Transport"], "title": "MFF:TRANSPORT NETWORK DEVELOPMENT INVESTMENT PROGR", "status": "Implementation", "locationName": "Bermal"}}, {"type": "Feature", "geometry": {"type": "Point", "coordinates": [69.19243, 32.97518]}, "properties": {"id": "46004-44482-023-GRNT0327", "sectors": ["Transport"], "title": "MFF:TRANSPORT NETWORK DEVELOPMENT INVESTMENT PROGR", "status": "Implementation", "locationName": "Urgun"}}, {"type": "Feature", "geometry": {"type": "Point", "coordinates": [69.0343, 33.06067]}, "properties": {"id": "46004-44482-023-GRNT0327", "sectors": ["Transport"], "title": "MFF:TRANSPORT NETWORK DEVELOPMENT INVESTMENT PROGR", "status": "Implementation", "locationName": "Sar Rowzah"}}, {"type": "Feature", "geometry": {"type": "Point", "coordinates": [69.04727, 32.75172]}, "properties": {"id": "46004-44482-023-GRNT0327", "sectors": ["Transport"], "title": "MFF:TRANSPORT NETWORK DEVELOPMENT INVESTMENT PROGR", "status": "Implementation", "locationName": "Sarobi"}}, {"type": "Feature", "geometry": {"type": "Point", "coordinates": [68.72573, 33.20084]}, "properties": {"id": "46004-44482-023-GRNT0327", "sectors": ["Transport"], "title": "MFF:TRANSPORT NETWORK DEVELOPMENT INVESTMENT PROGR", "status": "Implementation", "locationName": "Sharan"}}, {"type": "Feature", "geometry": {"type": "Point", "coordinates": [68.73045, 33.17568]}, "properties": {"id": "46004-44482-023-GRNT0327", "sectors": ["Transport"], "title": "MFF:TRANSPORT NETWORK DEVELOPMENT INVESTMENT PROGR", "status": "Implementation", "locationName": "Sharan"}}, {"type": "Feature", "geometry": {"type": "Point", "coordinates": [62.0, 34.5]}, "properties": {"id": "46004-36252-013-GRNT0033", "sectors": ["Agriculture, natural resources and rural development"], "title": "WESTERN BASINS WATER RESOURCES MANAGEMENT", "status": "Implementation", "locationName": "Herat"}}, {"type": "Feature", "geometry": {"type": "Point", "coordinates": [65.0, 34.0]}, "properties": {"id": "46004-36252-013-GRNT0033", "sectors": ["Agriculture, natural resources and rural development"], "title": "WESTERN BASINS WATER RESOURCES MANAGEMENT", "status": "Implementation", "locationName": "Ghowr"}}, {"type": "Feature", "geometry": {"type": "Point", "coordinates": [63.75, 35.0]}, "properties": {"id": "46004-36252-013-GRNT0033", "sectors": ["Agriculture, natural resources and rural development"], "title": "WESTERN BASINS WATER RESOURCES MANAGEMENT", "status": "Implementation", "locationName": "Badghis"}}, {"type": "Feature", "geometry": {"type": "Point", "coordinates": [64.08969, 35.04995]}, "properties": {"id": "46004-36252-013-GRNT0033", "sectors": ["Agriculture, natural resources and rural development"], "title": "WESTERN BASINS WATER RESOURCES MANAGEMENT", "status": "Implementation", "locationName": "R\u014dd-e M\u016brgh\u0101b"}}, {"type": "Feature", "geometry": {"type": "Point", "coordinates": [63.4163, 34.38112]}, "properties": {"id": "46004-36252-013-GRNT0033", "sectors": ["Agriculture, natural resources and rural development"], "title": "WESTERN BASINS WATER RESOURCES MANAGEMENT", "status": "Implementation", "locationName": "Harirud"}}, {"type": "Feature", "geometry": {"type": "Point", "coordinates": [65.7529, 36.66757]}, "properties": {"id": "46004-42094-052-GRNT0332", "sectors": ["Energy"], "title": "MFF:ENERGY SECTOR DEVELOPMENT_INVESTMENT_PROGRAM-P", "status": "Implementation", "locationName": "Shibirgh\u0101n"}}, {"type": "Feature", "geometry": {"type": "Point", "coordinates": [69.02274, 33.99529]}, "properties": {"id": "46004-42094-052-GRNT0332", "sectors": ["Energy"], "title": "MFF:ENERGY SECTOR DEVELOPMENT_INVESTMENT_PROGRAM-P", "status": "Implementation", "locationName": "Pul-e \u2018Alam"}}, {"type": "Feature", "geometry": {"type": "Point", "coordinates": [67.11087, 36.70904]}, "properties": {"id": "46004-42094-052-GRNT0332", "sectors": ["Energy"], "title": "MFF:ENERGY SECTOR DEVELOPMENT_INVESTMENT_PROGRAM-P", "status": "Implementation", "locationName": "Mazari Sharif"}}, {"type": "Feature", "geometry": {"type": "Point", "coordinates": [69.22592, 33.59744]}, "properties": {"id": "46004-42094-052-GRNT0332", "sectors": ["Energy"], "title": "MFF:ENERGY SECTOR DEVELOPMENT_INVESTMENT_PROGRAM-P", "status": "Implementation", "locationName": "Gardez"}}, {"type": "Feature", "geometry": {"type": "Point", "coordinates": [65.12376, 36.95293]}, "properties": {"id": "46004-42094-052-GRNT0332", "sectors": ["Energy"], "title": "MFF:ENERGY SECTOR DEVELOPMENT_INVESTMENT_PROGRAM-P", "status": "Implementation", "locationName": "Andkh\u014dy"}}, {"type": "Feature", "geometry": {"type": "Point", "coordinates": [65.28301, 36.85437]}, "properties": {"id": "46004-42094-052-GRNT0332", "sectors": ["Energy"], "title": "MFF:ENERGY SECTOR DEVELOPMENT_INVESTMENT_PROGRAM-P", "status": "Implementation", "locationName": "Andkh\u014dy"}}, {"type": "Feature", "geometry": {"type": "Point", "coordinates": [69.05159, 33.97374]}, "properties": {"id": "46004-42094-052-GRNT0332", "sectors": ["Energy"], "title": "MFF:ENERGY SECTOR DEVELOPMENT_INVESTMENT_PROGRAM-P", "status": "Implementation", "locationName": "Pul-i-Alam"}}, {"type": "Feature", "geometry": {"type": "Point", "coordinates": [65.74885, 36.56624]}, "properties": {"id": "46004-42094-052-GRNT0332", "sectors": ["Energy"], "title": "MFF:ENERGY SECTOR DEVELOPMENT_INVESTMENT_PROGRAM-P", "status": "Implementation", "locationName": "Shibirgh\u0101n"}}, {"type": "Feature", "geometry": {"type": "Point", "coordinates": [69.24159, 33.60134]}, "properties": {"id": "46004-42094-052-GRNT0332", "sectors": ["Energy"], "title": "MFF:ENERGY SECTOR DEVELOPMENT_INVESTMENT_PROGRAM-P", "status": "Implementation", "locationName": "Gard\u0113z"}}, {"type": "Feature", "geometry": {"type": "Point", "coordinates": [67.1157, 36.70993]}, "properties": {"id": "46004-42094-052-GRNT0332", "sectors": ["Energy"], "title": "MFF:ENERGY SECTOR DEVELOPMENT_INVESTMENT_PROGRAM-P", "status": "Implementation", "locationName": "Maz\u0101r-e Shar\u012bf"}}, {"type": "Feature", "geometry": {"type": "Point", "coordinates": [67.28915, 35.80693]}, "properties": {"id": "46004-44482-024-GRNT0355", "sectors": ["Transport"], "title": "MFF:TRANSPRT NETWORK DEVT INVSTMNT PROGRAM-TRANCHE", "status": "Implementation", "locationName": "Zayraki"}}, {"type": "Feature", "geometry": {"type": "Point", "coordinates": [66.97378, 34.73525]}, "properties": {"id": "46004-44482-024-GRNT0355", "sectors": ["Transport"], "title": "MFF:TRANSPRT NETWORK DEVT INVSTMNT PROGRAM-TRANCHE", "status": "Implementation", "locationName": "Bazar-e Yakawlang"}}, {"type": "Feature", "geometry": {"type": "Point", "coordinates": [67.19774, 35.63935]}, "properties": {"id": "46004-44482-024-GRNT0355", "sectors": ["Transport"], "title": "MFF:TRANSPRT NETWORK DEVT INVSTMNT PROGRAM-TRANCHE", "status": "Implementation", "locationName": "Surkh Joy"}}, {"type": "Feature", "geometry": {"type": "Point", "coordinates": [67.22047, 35.529]}, "properties": {"id": "46004-44482-024-GRNT0355", "sectors": ["Transport"], "title": "MFF:TRANSPRT NETWORK DEVT INVSTMNT PROGRAM-TRANCHE", "status": "Implementation", "locationName": "Safed Khak"}}, {"type": "Feature", "geometry": {"type": "Point", "coordinates": [67.23333, 35.53688]}, "properties": {"id": "46004-44482-024-GRNT0355", "sectors": ["Transport"], "title": "MFF:TRANSPRT NETWORK DEVT INVSTMNT PROGRAM-TRANCHE", "status": "Implementation", "locationName": "Sar-e Bum"}}, {"type": "Feature", "geometry": {"type": "Point", "coordinates": [67.22407, 35.66605]}, "properties": {"id": "46004-44482-024-GRNT0355", "sectors": ["Transport"], "title": "MFF:TRANSPRT NETWORK DEVT INVSTMNT PROGRAM-TRANCHE", "status": "Implementation", "locationName": "Sadmardah"}}, {"type": "Feature", "geometry": {"type": "Point", "coordinates": [67.1889, 35.6303]}, "properties": {"id": "46004-44482-024-GRNT0355", "sectors": ["Transport"], "title": "MFF:TRANSPRT NETWORK DEVT INVSTMNT PROGRAM-TRANCHE", "status": "Implementation", "locationName": "Rashak"}}, {"type": "Feature", "geometry": {"type": "Point", "coordinates": [67.28722, 35.90932]}, "properties": {"id": "46004-44482-024-GRNT0355", "sectors": ["Transport"], "title": "MFF:TRANSPRT NETWORK DEVT INVSTMNT PROGRAM-TRANCHE", "status": "Implementation", "locationName": "Qal`ah"}}, {"type": "Feature", "geometry": {"type": "Point", "coordinates": [67.14129, 35.4435]}, "properties": {"id": "46004-44482-024-GRNT0355", "sectors": ["Transport"], "title": "MFF:TRANSPRT NETWORK DEVT INVSTMNT PROGRAM-TRANCHE", "status": "Implementation", "locationName": "Qal`ah Now"}}, {"type": "Feature", "geometry": {"type": "Point", "coordinates": [67.14132, 35.43392]}, "properties": {"id": "46004-44482-024-GRNT0355", "sectors": ["Transport"], "title": "MFF:TRANSPRT NETWORK DEVT INVSTMNT PROGRAM-TRANCHE", "status": "Implementation", "locationName": "Kotah"}}, {"type": "Feature", "geometry": {"type": "Point", "coordinates": [67.27296, 35.74714]}, "properties": {"id": "46004-44482-024-GRNT0355", "sectors": ["Transport"], "title": "MFF:TRANSPRT NETWORK DEVT INVSTMNT PROGRAM-TRANCHE", "status": "Implementation", "locationName": "Hasani"}}, {"type": "Feature", "geometry": {"type": "Point", "coordinates": [68.2609, 34.50982]}, "properties": {"id": "46004-44482-024-GRNT0355", "sectors": ["Transport"], "title": "MFF:TRANSPRT NETWORK DEVT INVSTMNT PROGRAM-TRANCHE", "status": "Implementation", "locationName": "Gardan Dewal"}}, {"type": "Feature", "geometry": {"type": "Point", "coordinates": [67.13788, 35.42606]}, "properties": {"id": "46004-44482-024-GRNT0355", "sectors": ["Transport"], "title": "MFF:TRANSPRT NETWORK DEVT INVSTMNT PROGRAM-TRANCHE", "status": "Implementation", "locationName": "Darah-ye Daymirdad"}}, {"type": "Feature", "geometry": {"type": "Point", "coordinates": [66.89256, 34.73931]}, "properties": {"id": "46004-44482-024-GRNT0355", "sectors": ["Transport"], "title": "MFF:TRANSPRT NETWORK DEVT INVSTMNT PROGRAM-TRANCHE", "status": "Implementation", "locationName": "Deh-e Tarchi"}}, {"type": "Feature", "geometry": {"type": "Point", "coordinates": [67.25876, 35.6777]}, "properties": {"id": "46004-44482-024-GRNT0355", "sectors": ["Transport"], "title": "MFF:TRANSPRT NETWORK DEVT INVSTMNT PROGRAM-TRANCHE", "status": "Implementation", "locationName": "Chahar Deh"}}, {"type": "Feature", "geometry": {"type": "Point", "coordinates": [65.25094, 34.51952]}, "properties": {"id": "46004-44482-024-GRNT0355", "sectors": ["Transport"], "title": "MFF:TRANSPRT NETWORK DEVT INVSTMNT PROGRAM-TRANCHE", "status": "Implementation", "locationName": "Chaghcharan"}}, {"type": "Feature", "geometry": {"type": "Point", "coordinates": [67.15438, 35.48427]}, "properties": {"id": "46004-44482-024-GRNT0355", "sectors": ["Transport"], "title": "MFF:TRANSPRT NETWORK DEVT INVSTMNT PROGRAM-TRANCHE", "status": "Implementation", "locationName": "Ahangaran"}}, {"type": "Feature", "geometry": {"type": "Point", "coordinates": [66.0, 33.0]}, "properties": {"id": "46004-44482-024-GRNT0355", "sectors": ["Transport"], "title": "MFF:TRANSPRT NETWORK DEVT INVSTMNT PROGRAM-TRANCHE", "status": "Implementation", "locationName": "Islamic Republic of Afghanistan"}}, {"type": "Feature", "geometry": {"type": "Point", "coordinates": [66.87779, 34.78947]}, "properties": {"id": "46004-44482-024-GRNT0355", "sectors": ["Transport"], "title": "MFF:TRANSPRT NETWORK DEVT INVSTMNT PROGRAM-TRANCHE", "status": "Implementation", "locationName": "Baghalak"}}, {"type": "Feature", "geometry": {"type": "Point", "coordinates": [66.87859, 34.73986]}, "properties": {"id": "46004-44482-024-GRNT0355", "sectors": ["Transport"], "title": "MFF:TRANSPRT NETWORK DEVT INVSTMNT PROGRAM-TRANCHE", "status": "Implementation", "locationName": "Marghistan"}}, {"type": "Feature", "geometry": {"type": "Point", "coordinates": [66.91654, 34.73733]}, "properties": {"id": "46004-44482-024-GRNT0355", "sectors": ["Transport"], "title": "MFF:TRANSPRT NETWORK DEVT INVSTMNT PROGRAM-TRANCHE", "status": "Implementation", "locationName": "Gird Bayd"}}, {"type": "Feature", "geometry": {"type": "Point", "coordinates": [66.92976, 34.42332]}, "properties": {"id": "46004-44482-024-GRNT0355", "sectors": ["Transport"], "title": "MFF:TRANSPRT NETWORK DEVT INVSTMNT PROGRAM-TRANCHE", "status": "Implementation", "locationName": "Panjab"}}, {"type": "Feature", "geometry": {"type": "Point", "coordinates": [66.94271, 34.9828]}, "properties": {"id": "46004-44482-024-GRNT0355", "sectors": ["Transport"], "title": "MFF:TRANSPRT NETWORK DEVT INVSTMNT PROGRAM-TRANCHE", "status": "Implementation", "locationName": "Yakawlang"}}, {"type": "Feature", "geometry": {"type": "Point", "coordinates": [65.34743, 34.72821]}, "properties": {"id": "46004-44482-024-GRNT0355", "sectors": ["Transport"], "title": "MFF:TRANSPRT NETWORK DEVT INVSTMNT PROGRAM-TRANCHE", "status": "Implementation", "locationName": "Chaghcharan"}}, {"type": "Feature", "geometry": {"type": "Point", "coordinates": [66.27661, 34.60268]}, "properties": {"id": "46004-44482-024-GRNT0355", "sectors": ["Transport"], "title": "MFF:TRANSPRT NETWORK DEVT INVSTMNT PROGRAM-TRANCHE", "status": "Implementation", "locationName": "La`l wa Sar Jangal"}}, {"type": "Feature", "geometry": {"type": "Point", "coordinates": [67.32699, 35.82467]}, "properties": {"id": "46004-44482-024-GRNT0355", "sectors": ["Transport"], "title": "MFF:TRANSPRT NETWORK DEVT INVSTMNT PROGRAM-TRANCHE", "status": "Implementation", "locationName": "Dara-I-Suf"}}, {"type": "Feature", "geometry": {"type": "Point", "coordinates": [69.10549, 34.49614]}, "properties": {"id": "46004-44482-024-GRNT0355", "sectors": ["Transport"], "title": "MFF:TRANSPRT NETWORK DEVT INVSTMNT PROGRAM-TRANCHE", "status": "Implementation", "locationName": "Kabul"}}, {"type": "Feature", "geometry": {"type": "Point", "coordinates": [67.79737, 34.40391]}, "properties": {"id": "46004-44482-024-GRNT0355", "sectors": ["Transport"], "title": "MFF:TRANSPRT NETWORK DEVT INVSTMNT PROGRAM-TRANCHE", "status": "Implementation", "locationName": "Markazi Bihsud"}}, {"type": "Feature", "geometry": {"type": "Point", "coordinates": [68.17271, 34.58878]}, "properties": {"id": "46004-44482-024-GRNT0355", "sectors": ["Transport"], "title": "MFF:TRANSPRT NETWORK DEVT INVSTMNT PROGRAM-TRANCHE", "status": "Implementation", "locationName": "Hisa-I-Awal Bihsud"}}, {"type": "Feature", "geometry": {"type": "Point", "coordinates": [69.75, 36.66667]}, "properties": {"id": "46004-42091-043-GRNT0362", "sectors": ["Agriculture, natural resources and rural development"], "title": "MFF:WATER RESOURCES DEVELOPMENT INVESTMENT PROGRAM", "status": "Implementation", "locationName": "Wil\u0101yat-e Takh\u0101r"}}, {"type": "Feature", "geometry": {"type": "Point", "coordinates": [69.2233, 36.97395]}, "properties": {"id": "46004-42091-043-GRNT0362", "sectors": ["Agriculture, natural resources and rural development"], "title": "MFF:WATER RESOURCES DEVELOPMENT INVESTMENT PROGRAM", "status": "Implementation", "locationName": "Nahr-e Arch\u012b"}}, {"type": "Feature", "geometry": {"type": "Point", "coordinates": [69.16328, 36.97246]}, "properties": {"id": "46004-42091-043-GRNT0362", "sectors": ["Agriculture, natural resources and rural development"], "title": "MFF:WATER RESOURCES DEVELOPMENT INVESTMENT PROGRAM", "status": "Implementation", "locationName": "Dasht-e Arch\u012b"}}, {"type": "Feature", "geometry": {"type": "Point", "coordinates": [68.85166, 37.10571]}, "properties": {"id": "46004-42091-043-GRNT0362", "sectors": ["Agriculture, natural resources and rural development"], "title": "MFF:WATER RESOURCES DEVELOPMENT INVESTMENT PROGRAM", "status": "Implementation", "locationName": "Im\u0101m \u015e\u0101\u1e29ib"}}, {"type": "Feature", "geometry": {"type": "Point", "coordinates": [69.62146, 36.98433]}, "properties": {"id": "46004-42091-043-GRNT0362", "sectors": ["Agriculture, natural resources and rural development"], "title": "MFF:WATER RESOURCES DEVELOPMENT INVESTMENT PROGRAM", "status": "Implementation", "locationName": "Kwhaja Ghar, Afghanistan"}}, {"type": "Feature", "geometry": {"type": "Point", "coordinates": [68.71512, 35.94458]}, "properties": {"id": "46004-46392-001-GRNT0374", "sectors": ["Energy"], "title": "NORTH-SOUTH POWER TRANSMISSION ENHANCEMENT PROJECT", "status": "Implementation", "locationName": "Pul-e Khumri"}}, {"type": "Feature", "geometry": {"type": "Point", "coordinates": [68.65967, 35.61527]}, "properties": {"id": "46004-46392-001-GRNT0374", "sectors": ["Energy"], "title": "NORTH-SOUTH POWER TRANSMISSION ENHANCEMENT PROJECT", "status": "Implementation", "locationName": "Doshi"}}, {"type": "Feature", "geometry": {"type": "Point", "coordinates": [68.97287, 35.47093]}, "properties": {"id": "46004-46392-001-GRNT0374", "sectors": ["Energy"], "title": "NORTH-SOUTH POWER TRANSMISSION ENHANCEMENT PROJECT", "status": "Implementation", "locationName": "Khinjan"}}, {"type": "Feature", "geometry": {"type": "Point", "coordinates": [69.17192, 34.76782]}, "properties": {"id": "46004-46392-001-GRNT0374", "sectors": ["Energy"], "title": "NORTH-SOUTH POWER TRANSMISSION ENHANCEMENT PROJECT", "status": "Implementation", "locationName": "Kalakan"}}, {"type": "Feature", "geometry": {"type": "Point", "coordinates": [69.11738, 34.72843]}, "properties": {"id": "46004-46392-001-GRNT0374", "sectors": ["Energy"], "title": "NORTH-SOUTH POWER TRANSMISSION ENHANCEMENT PROJECT", "status": "Implementation", "locationName": "Mir Bachah Kot"}}, {"type": "Feature", "geometry": {"type": "Point", "coordinates": [68.93637, 34.54807]}, "properties": {"id": "46004-46392-001-GRNT0374", "sectors": ["Energy"], "title": "NORTH-SOUTH POWER TRANSMISSION ENHANCEMENT PROJECT", "status": "Implementation", "locationName": "Paghman"}}, {"type": "Feature", "geometry": {"type": "Point", "coordinates": [69.19813, 34.84288]}, "properties": {"id": "46004-46392-001-GRNT0374", "sectors": ["Energy"], "title": "NORTH-SOUTH POWER TRANSMISSION ENHANCEMENT PROJECT", "status": "Implementation", "locationName": "Qarah Bagh"}}, {"type": "Feature", "geometry": {"type": "Point", "coordinates": [69.03642, 34.66382]}, "properties": {"id": "46004-46392-001-GRNT0374", "sectors": ["Energy"], "title": "NORTH-SOUTH POWER TRANSMISSION ENHANCEMENT PROJECT", "status": "Implementation", "locationName": "Shakar Darah"}}, {"type": "Feature", "geometry": {"type": "Point", "coordinates": [69.33321, 34.92794]}, "properties": {"id": "46004-46392-001-GRNT0374", "sectors": ["Energy"], "title": "NORTH-SOUTH POWER TRANSMISSION ENHANCEMENT PROJECT", "status": "Implementation", "locationName": "Bagram"}}, {"type": "Feature", "geometry": {"type": "Point", "coordinates": [69.13412, 34.98448]}, "properties": {"id": "46004-46392-001-GRNT0374", "sectors": ["Energy"], "title": "NORTH-SOUTH POWER TRANSMISSION ENHANCEMENT PROJECT", "status": "Implementation", "locationName": "Charikar"}}, {"type": "Feature", "geometry": {"type": "Point", "coordinates": [69.18465, 35.10862]}, "properties": {"id": "46004-46392-001-GRNT0374", "sectors": ["Energy"], "title": "NORTH-SOUTH POWER TRANSMISSION ENHANCEMENT PROJECT", "status": "Implementation", "locationName": "Jabal us Saraj"}}, {"type": "Feature", "geometry": {"type": "Point", "coordinates": [69.15827, 35.27398]}, "properties": {"id": "46004-46392-001-GRNT0374", "sectors": ["Energy"], "title": "NORTH-SOUTH POWER TRANSMISSION ENHANCEMENT PROJECT", "status": "Implementation", "locationName": "Salang"}}, {"type": "Feature", "geometry": {"type": "Point", "coordinates": [68.64001, 36.00118]}, "properties": {"id": "46004-46392-001-GRNT0374", "sectors": ["Energy"], "title": "NORTH-SOUTH POWER TRANSMISSION ENHANCEMENT PROJECT", "status": "Implementation", "locationName": "Puli Khumri"}}, {"type": "Feature", "geometry": {"type": "Point", "coordinates": [68.91667, 34.46666]}, "properties": {"id": "46004-46392-001-GRNT0374", "sectors": ["Energy"], "title": "NORTH-SOUTH POWER TRANSMISSION ENHANCEMENT PROJECT", "status": "Implementation", "locationName": "Arghandeh"}}, {"type": "Feature", "geometry": {"type": "Point", "coordinates": [68.71512, 35.94458]}, "properties": {"id": "46004-42094-075-GRNT0377", "sectors": ["Energy"], "title": "MFF:ENERGY SECTOR DEVELOPMENT INVESTMENT PROGRAM-T", "status": "Implementation", "locationName": "Pul-e Khumr\u012b"}}, {"type": "Feature", "geometry": {"type": "Point", "coordinates": [66.97378, 34.73525]}, "properties": {"id": "46004-39467-013-GRNT0054", "sectors": ["Transport"], "title": "NORTH-SOUTH CORRIDOR PROJECT", "status": "Completion", "locationName": "B\u0101z\u0101r-e Yak\u0101wlang"}}, {"type": "Feature", "geometry": {"type": "Point", "coordinates": [66.90854, 36.20532]}, "properties": {"id": "46004-39467-013-GRNT0054", "sectors": ["Transport"], "title": "NORTH-SOUTH CORRIDOR PROJECT", "status": "Completion", "locationName": "Pul-e Baraq"}}, {"type": "Feature", "geometry": {"type": "Point", "coordinates": [67.11087, 36.70904]}, "properties": {"id": "46004-39467-013-GRNT0054", "sectors": ["Transport"], "title": "NORTH-SOUTH CORRIDOR PROJECT", "status": "Completion", "locationName": "Mazari Sharif"}}, {"type": "Feature", "geometry": {"type": "Point", "coordinates": [67.82734, 34.82156]}, "properties": {"id": "46004-39467-013-GRNT0054", "sectors": ["Transport"], "title": "NORTH-SOUTH CORRIDOR PROJECT", "status": "Completion", "locationName": "B\u0101my\u0101n"}}, {"type": "Feature", "geometry": {"type": "Point", "coordinates": [66.94271, 34.9828]}, "properties": {"id": "46004-39467-013-GRNT0054", "sectors": ["Transport"], "title": "NORTH-SOUTH CORRIDOR PROJECT", "status": "Completion", "locationName": "Yak\u0101wlang"}}, {"type": "Feature", "geometry": {"type": "Point", "coordinates": [67.32699, 35.82467]}, "properties": {"id": "46004-39467-013-GRNT0054", "sectors": ["Transport"], "title": "NORTH-SOUTH CORRIDOR PROJECT", "status": "Completion", "locationName": "Dara-I-Suf"}}, {"type": "Feature", "geometry": {"type": "Point", "coordinates": [67.67298, 34.79547]}, "properties": {"id": "46004-39467-013-GRNT0054", "sectors": ["Transport"], "title": "NORTH-SOUTH CORRIDOR PROJECT", "status": "Completion", "locationName": "Bamyan"}}, {"type": "Feature", "geometry": {"type": "Point", "coordinates": [66.90979, 36.29404]}, "properties": {"id": "46004-39467-013-GRNT0054", "sectors": ["Transport"], "title": "NORTH-SOUTH CORRIDOR PROJECT", "status": "Completion", "locationName": "Sholgara"}}, {"type": "Feature", "geometry": {"type": "Point", "coordinates": [67.1157, 36.70993]}, "properties": {"id": "46004-39467-013-GRNT0054", "sectors": ["Transport"], "title": "NORTH-SOUTH CORRIDOR PROJECT", "status": "Completion", "locationName": "Maz\u0101r-e Shar\u012bf"}}, {"type": "Feature", "geometry": {"type": "Point", "coordinates": [65.7529, 36.66757]}, "properties": {"id": "46004-40333-022-GRNT0081", "sectors": ["Transport"], "title": "ROAD NETWORK DEVELOPMENT PROJECT 1", "status": "Implementation", "locationName": "Shibirgh\u0101n"}}, {"type": "Feature", "geometry": {"type": "Point", "coordinates": [64.29318, 35.68747]}, "properties": {"id": "46004-40333-022-GRNT0081", "sectors": ["Transport"], "title": "ROAD NETWORK DEVELOPMENT PROJECT 1", "status": "Implementation", "locationName": "Sangalak-i-Kaisar"}}, {"type": "Feature", "geometry": {"type": "Point", "coordinates": [63.12891, 34.98735]}, "properties": {"id": "46004-40333-022-GRNT0081", "sectors": ["Transport"], "title": "ROAD NETWORK DEVELOPMENT PROJECT 1", "status": "Implementation", "locationName": "Qala i Naw"}}, {"type": "Feature", "geometry": {"type": "Point", "coordinates": [68.71512, 35.94458]}, "properties": {"id": "46004-40333-022-GRNT0081", "sectors": ["Transport"], "title": "ROAD NETWORK DEVELOPMENT PROJECT 1", "status": "Implementation", "locationName": "Pul-e Khumr\u012b"}}, {"type": "Feature", "geometry": {"type": "Point", "coordinates": [67.47, 36.75]}, "properties": {"id": "46004-40333-022-GRNT0081", "sectors": ["Transport"], "title": "ROAD NETWORK DEVELOPMENT PROJECT 1", "status": "Implementation", "locationName": "Naibabad"}}, {"type": "Feature", "geometry": {"type": "Point", "coordinates": [63.32886, 35.58408]}, "properties": {"id": "46004-40333-022-GRNT0081", "sectors": ["Transport"], "title": "ROAD NETWORK DEVELOPMENT PROJECT 1", "status": "Implementation", "locationName": "Bala Murghab"}}, {"type": "Feature", "geometry": {"type": "Point", "coordinates": [63.10416, 34.75231]}, "properties": {"id": "46004-40333-022-GRNT0081", "sectors": ["Transport"], "title": "ROAD NETWORK DEVELOPMENT PROJECT 1", "status": "Implementation", "locationName": "L\u0101m\u0101n"}}, {"type": "Feature", "geometry": {"type": "Point", "coordinates": [67.4241, 37.2214]}, "properties": {"id": "46004-40333-022-GRNT0081", "sectors": ["Transport"], "title": "ROAD NETWORK DEVELOPMENT PROJECT 1", "status": "Implementation", "locationName": "\u1e28a\u012brat\u0101n"}}, {"type": "Feature", "geometry": {"type": "Point", "coordinates": [66.8972, 36.75635]}, "properties": {"id": "46004-40333-022-GRNT0081", "sectors": ["Transport"], "title": "ROAD NETWORK DEVELOPMENT PROJECT 1", "status": "Implementation", "locationName": "Balkh"}}, {"type": "Feature", "geometry": {"type": "Point", "coordinates": [65.12376, 36.95293]}, "properties": {"id": "46004-40333-022-GRNT0081", "sectors": ["Transport"], "title": "ROAD NETWORK DEVELOPMENT PROJECT 1", "status": "Implementation", "locationName": "Andkh\u014dy"}}, {"type": "Feature", "geometry": {"type": "Point", "coordinates": [63.46962, 35.46208]}, "properties": {"id": "46004-40333-022-GRNT0081", "sectors": ["Transport"], "title": "ROAD NETWORK DEVELOPMENT PROJECT 1", "status": "Implementation", "locationName": "Murgh\u0101b"}}, {"type": "Feature", "geometry": {"type": "Point", "coordinates": [65.28301, 36.85437]}, "properties": {"id": "46004-40333-022-GRNT0081", "sectors": ["Transport"], "title": "ROAD NETWORK DEVELOPMENT PROJECT 1", "status": "Implementation", "locationName": "Andkh\u014dy"}}, {"type": "Feature", "geometry": {"type": "Point", "coordinates": [64.27908, 35.64137]}, "properties": {"id": "46004-40333-022-GRNT0081", "sectors": ["Transport"], "title": "ROAD NETWORK DEVELOPMENT PROJECT 1", "status": "Implementation", "locationName": "Qa\u012b\u015f\u0101r"}}, {"type": "Feature", "geometry": {"type": "Point", "coordinates": [67.54203, 37.12746]}, "properties": {"id": "46004-40333-022-GRNT0081", "sectors": ["Transport"], "title": "ROAD NETWORK DEVELOPMENT PROJECT 1", "status": "Implementation", "locationName": "Kald\u0101r"}}, {"type": "Feature", "geometry": {"type": "Point", "coordinates": [67.74518, 36.81333]}, "properties": {"id": "46004-40333-022-GRNT0081", "sectors": ["Transport"], "title": "ROAD NETWORK DEVELOPMENT PROJECT 1", "status": "Implementation", "locationName": "Khulm"}}, {"type": "Feature", "geometry": {"type": "Point", "coordinates": [65.74885, 36.56624]}, "properties": {"id": "46004-40333-022-GRNT0081", "sectors": ["Transport"], "title": "ROAD NETWORK DEVELOPMENT PROJECT 1", "status": "Implementation", "locationName": "Shibirgh\u0101n"}}, {"type": "Feature", "geometry": {"type": "Point", "coordinates": [63.05603, 34.88199]}, "properties": {"id": "46004-40333-022-GRNT0081", "sectors": ["Transport"], "title": "ROAD NETWORK DEVELOPMENT PROJECT 1", "status": "Implementation", "locationName": "Qala-i-Naw"}}, {"type": "Feature", "geometry": {"type": "Point", "coordinates": [68.64001, 36.00118]}, "properties": {"id": "46004-40333-022-GRNT0081", "sectors": ["Transport"], "title": "ROAD NETWORK DEVELOPMENT PROJECT 1", "status": "Implementation", "locationName": "Puli Khumri"}}], "properties": {"bounds": [60.48677779100012, 29.38660532600005, 74.89230676300014, 38.473673402000145], "name": "Afghanistan"}}