{"id": "AZ", "type": "FeatureCollection", "features": [{"type": "Feature", "geometry": {"type": "Point", "coordinates": [48.87268, 38.63447]}, "properties": {"id": "46004-39176-023-LN2354", "sectors": ["Transport", "Information and communication technology"], "title": "MFF -ROAD NETWORK DEVELOPMENT PROGRAM - PROJECT 1", "status": "Implementation", "locationName": "Qam\u0131\u015fovka"}}, {"type": "Feature", "geometry": {"type": "Point", "coordinates": [48.76583, 38.89042]}, "properties": {"id": "46004-39176-023-LN2354", "sectors": ["Transport", "Information and communication technology"], "title": "MFF -ROAD NETWORK DEVELOPMENT PROGRAM - PROJECT 1", "status": "Implementation", "locationName": "Bolad\u0131"}}, {"type": "Feature", "geometry": {"type": "Point", "coordinates": [48.80414, 38.65965]}, "properties": {"id": "46004-39176-023-LN2354", "sectors": ["Transport", "Information and communication technology"], "title": "MFF -ROAD NETWORK DEVELOPMENT PROGRAM - PROJECT 1", "status": "Implementation", "locationName": "Hirkan"}}, {"type": "Feature", "geometry": {"type": "Point", "coordinates": [48.66667, 38.5]}, "properties": {"id": "46004-39176-023-LN2354", "sectors": ["Transport", "Information and communication technology"], "title": "MFF -ROAD NETWORK DEVELOPMENT PROGRAM - PROJECT 1", "status": "Implementation", "locationName": "Astara District"}}, {"type": "Feature", "geometry": {"type": "Point", "coordinates": [48.87498, 38.45598]}, "properties": {"id": "46004-39176-023-LN2354", "sectors": ["Transport", "Information and communication technology"], "title": "MFF -ROAD NETWORK DEVELOPMENT PROGRAM - PROJECT 1", "status": "Implementation", "locationName": "Astara"}}, {"type": "Feature", "geometry": {"type": "Point", "coordinates": [48.87187, 38.64708]}, "properties": {"id": "46004-39176-023-LN2354", "sectors": ["Transport", "Information and communication technology"], "title": "MFF -ROAD NETWORK DEVELOPMENT PROGRAM - PROJECT 1", "status": "Implementation", "locationName": "Siyavar"}}, {"type": "Feature", "geometry": {"type": "Point", "coordinates": [48.72167, 38.88694]}, "properties": {"id": "46004-39176-023-LN2354", "sectors": ["Transport", "Information and communication technology"], "title": "MFF -ROAD NETWORK DEVELOPMENT PROGRAM - PROJECT 1", "status": "Implementation", "locationName": "Zovlya"}}, {"type": "Feature", "geometry": {"type": "Point", "coordinates": [48.87024, 38.67631]}, "properties": {"id": "46004-39176-023-LN2354", "sectors": ["Transport", "Information and communication technology"], "title": "MFF -ROAD NETWORK DEVELOPMENT PROGRAM - PROJECT 1", "status": "Implementation", "locationName": "Vel"}}, {"type": "Feature", "geometry": {"type": "Point", "coordinates": [48.56396, 38.56911]}, "properties": {"id": "46004-39176-023-LN2354", "sectors": ["Transport", "Information and communication technology"], "title": "MFF -ROAD NETWORK DEVELOPMENT PROGRAM - PROJECT 1", "status": "Implementation", "locationName": "Toradi"}}, {"type": "Feature", "geometry": {"type": "Point", "coordinates": [48.85228, 38.46093]}, "properties": {"id": "46004-39176-023-LN2354", "sectors": ["Transport", "Information and communication technology"], "title": "MFF -ROAD NETWORK DEVELOPMENT PROGRAM - PROJECT 1", "status": "Implementation", "locationName": "Supariba\u011f"}}, {"type": "Feature", "geometry": {"type": "Point", "coordinates": [48.86908, 38.59172]}, "properties": {"id": "46004-39176-023-LN2354", "sectors": ["Transport", "Information and communication technology"], "title": "MFF -ROAD NETWORK DEVELOPMENT PROGRAM - PROJECT 1", "status": "Implementation", "locationName": "\u015eaha\u011fac"}}, {"type": "Feature", "geometry": {"type": "Point", "coordinates": [48.81749, 38.6097]}, "properties": {"id": "46004-39176-023-LN2354", "sectors": ["Transport", "Information and communication technology"], "title": "MFF -ROAD NETWORK DEVELOPMENT PROGRAM - PROJECT 1", "status": "Implementation", "locationName": "Peisar"}}, {"type": "Feature", "geometry": {"type": "Point", "coordinates": [48.66667, 39.0]}, "properties": {"id": "46004-39176-023-LN2354", "sectors": ["Transport", "Information and communication technology"], "title": "MFF -ROAD NETWORK DEVELOPMENT PROGRAM - PROJECT 1", "status": "Implementation", "locationName": "Masally District"}}, {"type": "Feature", "geometry": {"type": "Point", "coordinates": [48.6654, 39.03532]}, "properties": {"id": "46004-39176-023-LN2354", "sectors": ["Transport", "Information and communication technology"], "title": "MFF -ROAD NETWORK DEVELOPMENT PROGRAM - PROJECT 1", "status": "Implementation", "locationName": "Masally"}}, {"type": "Feature", "geometry": {"type": "Point", "coordinates": [48.7917, 38.52872]}, "properties": {"id": "46004-39176-023-LN2354", "sectors": ["Transport", "Information and communication technology"], "title": "MFF -ROAD NETWORK DEVELOPMENT PROGRAM - PROJECT 1", "status": "Implementation", "locationName": "Lovan"}}, {"type": "Feature", "geometry": {"type": "Point", "coordinates": [48.75551, 38.70071]}, "properties": {"id": "46004-39176-023-LN2354", "sectors": ["Transport", "Information and communication technology"], "title": "MFF -ROAD NETWORK DEVELOPMENT PROGRAM - PROJECT 1", "status": "Implementation", "locationName": "Lankaran Rayon"}}, {"type": "Feature", "geometry": {"type": "Point", "coordinates": [48.85062, 38.75428]}, "properties": {"id": "46004-39176-023-LN2354", "sectors": ["Transport", "Information and communication technology"], "title": "MFF -ROAD NETWORK DEVELOPMENT PROGRAM - PROJECT 1", "status": "Implementation", "locationName": "L\u01ddnk\u01ddran"}}, {"type": "Feature", "geometry": {"type": "Point", "coordinates": [48.87268, 38.63447]}, "properties": {"id": "46004-39176-023-LN2355", "sectors": ["Transport"], "title": "MFF-ROAD NETWORK DEVELOPMENT PROGRAM - PROJECT 1", "status": "Implementation", "locationName": "Qam\u0131\u015fovka"}}, {"type": "Feature", "geometry": {"type": "Point", "coordinates": [48.76583, 38.89042]}, "properties": {"id": "46004-39176-023-LN2355", "sectors": ["Transport"], "title": "MFF-ROAD NETWORK DEVELOPMENT PROGRAM - PROJECT 1", "status": "Implementation", "locationName": "Bolad\u0131"}}, {"type": "Feature", "geometry": {"type": "Point", "coordinates": [48.80414, 38.65965]}, "properties": {"id": "46004-39176-023-LN2355", "sectors": ["Transport"], "title": "MFF-ROAD NETWORK DEVELOPMENT PROGRAM - PROJECT 1", "status": "Implementation", "locationName": "Hirkan"}}, {"type": "Feature", "geometry": {"type": "Point", "coordinates": [48.66667, 38.5]}, "properties": {"id": "46004-39176-023-LN2355", "sectors": ["Transport"], "title": "MFF-ROAD NETWORK DEVELOPMENT PROGRAM - PROJECT 1", "status": "Implementation", "locationName": "Astara District"}}, {"type": "Feature", "geometry": {"type": "Point", "coordinates": [48.87498, 38.45598]}, "properties": {"id": "46004-39176-023-LN2355", "sectors": ["Transport"], "title": "MFF-ROAD NETWORK DEVELOPMENT PROGRAM - PROJECT 1", "status": "Implementation", "locationName": "Astara"}}, {"type": "Feature", "geometry": {"type": "Point", "coordinates": [48.87187, 38.64708]}, "properties": {"id": "46004-39176-023-LN2355", "sectors": ["Transport"], "title": "MFF-ROAD NETWORK DEVELOPMENT PROGRAM - PROJECT 1", "status": "Implementation", "locationName": "Siyavar"}}, {"type": "Feature", "geometry": {"type": "Point", "coordinates": [48.72167, 38.88694]}, "properties": {"id": "46004-39176-023-LN2355", "sectors": ["Transport"], "title": "MFF-ROAD NETWORK DEVELOPMENT PROGRAM - PROJECT 1", "status": "Implementation", "locationName": "Zovlya"}}, {"type": "Feature", "geometry": {"type": "Point", "coordinates": [48.87024, 38.67631]}, "properties": {"id": "46004-39176-023-LN2355", "sectors": ["Transport"], "title": "MFF-ROAD NETWORK DEVELOPMENT PROGRAM - PROJECT 1", "status": "Implementation", "locationName": "Vel"}}, {"type": "Feature", "geometry": {"type": "Point", "coordinates": [48.56396, 38.56911]}, "properties": {"id": "46004-39176-023-LN2355", "sectors": ["Transport"], "title": "MFF-ROAD NETWORK DEVELOPMENT PROGRAM - PROJECT 1", "status": "Implementation", "locationName": "Toradi"}}, {"type": "Feature", "geometry": {"type": "Point", "coordinates": [48.85228, 38.46093]}, "properties": {"id": "46004-39176-023-LN2355", "sectors": ["Transport"], "title": "MFF-ROAD NETWORK DEVELOPMENT PROGRAM - PROJECT 1", "status": "Implementation", "locationName": "Supariba\u011f"}}, {"type": "Feature", "geometry": {"type": "Point", "coordinates": [48.86908, 38.59172]}, "properties": {"id": "46004-39176-023-LN2355", "sectors": ["Transport"], "title": "MFF-ROAD NETWORK DEVELOPMENT PROGRAM - PROJECT 1", "status": "Implementation", "locationName": "\u015eaha\u011fac"}}, {"type": "Feature", "geometry": {"type": "Point", "coordinates": [48.81749, 38.6097]}, "properties": {"id": "46004-39176-023-LN2355", "sectors": ["Transport"], "title": "MFF-ROAD NETWORK DEVELOPMENT PROGRAM - PROJECT 1", "status": "Implementation", "locationName": "Peisar"}}, {"type": "Feature", "geometry": {"type": "Point", "coordinates": [48.66667, 39.0]}, "properties": {"id": "46004-39176-023-LN2355", "sectors": ["Transport"], "title": "MFF-ROAD NETWORK DEVELOPMENT PROGRAM - PROJECT 1", "status": "Implementation", "locationName": "Masally District"}}, {"type": "Feature", "geometry": {"type": "Point", "coordinates": [48.6654, 39.03532]}, "properties": {"id": "46004-39176-023-LN2355", "sectors": ["Transport"], "title": "MFF-ROAD NETWORK DEVELOPMENT PROGRAM - PROJECT 1", "status": "Implementation", "locationName": "Masally"}}, {"type": "Feature", "geometry": {"type": "Point", "coordinates": [48.7917, 38.52872]}, "properties": {"id": "46004-39176-023-LN2355", "sectors": ["Transport"], "title": "MFF-ROAD NETWORK DEVELOPMENT PROGRAM - PROJECT 1", "status": "Implementation", "locationName": "Lovan"}}, {"type": "Feature", "geometry": {"type": "Point", "coordinates": [48.75551, 38.70071]}, "properties": {"id": "46004-39176-023-LN2355", "sectors": ["Transport"], "title": "MFF-ROAD NETWORK DEVELOPMENT PROGRAM - PROJECT 1", "status": "Implementation", "locationName": "Lankaran Rayon"}}, {"type": "Feature", "geometry": {"type": "Point", "coordinates": [48.85062, 38.75428]}, "properties": {"id": "46004-39176-023-LN2355", "sectors": ["Transport"], "title": "MFF-ROAD NETWORK DEVELOPMENT PROGRAM - PROJECT 1", "status": "Implementation", "locationName": "L\u01ddnk\u01ddran"}}, {"type": "Feature", "geometry": {"type": "Point", "coordinates": [47.0, 40.66667]}, "properties": {"id": "46004-42085-013-LN2437", "sectors": ["Energy"], "title": "POWER TRANSMISSION ENHANCEMENT PROJECT", "status": "Completion", "locationName": "Yevlakh Rayon"}}, {"type": "Feature", "geometry": {"type": "Point", "coordinates": [48.66667, 40.58333]}, "properties": {"id": "46004-42085-013-LN2437", "sectors": ["Energy"], "title": "POWER TRANSMISSION ENHANCEMENT PROJECT", "status": "Completion", "locationName": "Shamakhi Rayon"}}, {"type": "Feature", "geometry": {"type": "Point", "coordinates": [49.41205, 40.08238]}, "properties": {"id": "46004-42085-013-LN2437", "sectors": ["Energy"], "title": "POWER TRANSMISSION ENHANCEMENT PROJECT", "status": "Completion", "locationName": "Qobustan"}}, {"type": "Feature", "geometry": {"type": "Point", "coordinates": [49.75502, 40.44808]}, "properties": {"id": "46004-42085-013-LN2437", "sectors": ["Energy"], "title": "POWER TRANSMISSION ENHANCEMENT PROJECT", "status": "Completion", "locationName": "Xirdalan"}}, {"type": "Feature", "geometry": {"type": "Point", "coordinates": [47.83333, 40.58333]}, "properties": {"id": "46004-42085-013-LN2437", "sectors": ["Energy"], "title": "POWER TRANSMISSION ENHANCEMENT PROJECT", "status": "Completion", "locationName": "Goychay Rayon"}}, {"type": "Feature", "geometry": {"type": "Point", "coordinates": [48.33333, 40.5]}, "properties": {"id": "46004-42085-013-LN2437", "sectors": ["Energy"], "title": "POWER TRANSMISSION ENHANCEMENT PROJECT", "status": "Completion", "locationName": "Aghsu Rayon"}}, {"type": "Feature", "geometry": {"type": "Point", "coordinates": [48.40087, 40.57028]}, "properties": {"id": "46004-42085-013-LN2437", "sectors": ["Energy"], "title": "POWER TRANSMISSION ENHANCEMENT PROJECT", "status": "Completion", "locationName": "A\u011fsu"}}, {"type": "Feature", "geometry": {"type": "Point", "coordinates": [47.41667, 40.58333]}, "properties": {"id": "46004-42085-013-LN2437", "sectors": ["Energy"], "title": "POWER TRANSMISSION ENHANCEMENT PROJECT", "status": "Completion", "locationName": "Aghdash Rayon"}}, {"type": "Feature", "geometry": {"type": "Point", "coordinates": [47.4738, 40.64699]}, "properties": {"id": "46004-42085-013-LN2437", "sectors": ["Energy"], "title": "POWER TRANSMISSION ENHANCEMENT PROJECT", "status": "Completion", "locationName": "A\u011fda\u015f"}}, {"type": "Feature", "geometry": {"type": "Point", "coordinates": [49.74374, 40.45234]}, "properties": {"id": "46004-42085-013-LN2437", "sectors": ["Energy"], "title": "POWER TRANSMISSION ENHANCEMENT PROJECT", "status": "Completion", "locationName": "Absheron"}}, {"type": "Feature", "geometry": {"type": "Point", "coordinates": [49.0, 40.5]}, "properties": {"id": "46004-42085-013-LN2437", "sectors": ["Energy"], "title": "POWER TRANSMISSION ENHANCEMENT PROJECT", "status": "Completion", "locationName": "Gobustan Rayon"}}, {"type": "Feature", "geometry": {"type": "Point", "coordinates": [45.41222, 39.20889]}, "properties": {"id": "46004-42408-023-LN2571", "sectors": ["Water supply and other urban infrastructure and services"], "title": "MFF-WATER SUPPLY AND SANITATION INVESTMENT PROGRAM - TRANCHE 1", "status": "Implementation", "locationName": "Nakhchivan"}}, {"type": "Feature", "geometry": {"type": "Point", "coordinates": [47.74219, 40.65056]}, "properties": {"id": "46004-42408-023-LN2571", "sectors": ["Water supply and other urban infrastructure and services"], "title": "MFF-WATER SUPPLY AND SANITATION INVESTMENT PROGRAM - TRANCHE 1", "status": "Implementation", "locationName": "G\u00f6y\u00e7ay"}}, {"type": "Feature", "geometry": {"type": "Point", "coordinates": [49.89201, 40.37767]}, "properties": {"id": "46004-42408-023-LN2571", "sectors": ["Water supply and other urban infrastructure and services"], "title": "MFF-WATER SUPPLY AND SANITATION INVESTMENT PROGRAM - TRANCHE 1", "status": "Implementation", "locationName": "Baku"}}, {"type": "Feature", "geometry": {"type": "Point", "coordinates": [48.66667, 39.0]}, "properties": {"id": "46004-39176-043-LN2831", "sectors": ["Transport", "Information and communication technology"], "title": "ROAD NETWORK DEVELOPMENT PROGRAM-TRANCHE 3", "status": "Implementation", "locationName": "Masally District"}}, {"type": "Feature", "geometry": {"type": "Point", "coordinates": [48.6654, 39.03532]}, "properties": {"id": "46004-39176-043-LN2831", "sectors": ["Transport", "Information and communication technology"], "title": "ROAD NETWORK DEVELOPMENT PROGRAM-TRANCHE 3", "status": "Implementation", "locationName": "Masally"}}, {"type": "Feature", "geometry": {"type": "Point", "coordinates": [48.75551, 38.70071]}, "properties": {"id": "46004-39176-043-LN2831", "sectors": ["Transport", "Information and communication technology"], "title": "ROAD NETWORK DEVELOPMENT PROGRAM-TRANCHE 3", "status": "Implementation", "locationName": "Lankaran Rayon"}}, {"type": "Feature", "geometry": {"type": "Point", "coordinates": [48.66667, 38.5]}, "properties": {"id": "46004-39176-043-LN2831", "sectors": ["Transport", "Information and communication technology"], "title": "ROAD NETWORK DEVELOPMENT PROGRAM-TRANCHE 3", "status": "Implementation", "locationName": "Astara District"}}, {"type": "Feature", "geometry": {"type": "Point", "coordinates": [48.87498, 38.45598]}, "properties": {"id": "46004-39176-043-LN2831", "sectors": ["Transport", "Information and communication technology"], "title": "ROAD NETWORK DEVELOPMENT PROGRAM-TRANCHE 3", "status": "Implementation", "locationName": "Astara"}}, {"type": "Feature", "geometry": {"type": "Point", "coordinates": [47.66667, 39.75]}, "properties": {"id": "46004-42408-033-LN2842", "sectors": ["Water supply and other urban infrastructure and services"], "title": "WATER SUPPLY & SANITATION INVESTMENT PROGRAM-TRANCHE 2", "status": "Implementation", "locationName": "Beylagan Rayon"}}, {"type": "Feature", "geometry": {"type": "Point", "coordinates": [45.41817, 39.20991]}, "properties": {"id": "46004-42408-033-LN2842", "sectors": ["Water supply and other urban infrastructure and services"], "title": "WATER SUPPLY & SANITATION INVESTMENT PROGRAM-TRANCHE 2", "status": "Implementation", "locationName": "Nakhichevan"}}, {"type": "Feature", "geometry": {"type": "Point", "coordinates": [47.83333, 40.58333]}, "properties": {"id": "46004-42408-033-LN2842", "sectors": ["Water supply and other urban infrastructure and services"], "title": "WATER SUPPLY & SANITATION INVESTMENT PROGRAM-TRANCHE 2", "status": "Implementation", "locationName": "Goychay Rayon"}}, {"type": "Feature", "geometry": {"type": "Point", "coordinates": [47.41667, 40.58333]}, "properties": {"id": "46004-42408-033-LN2842", "sectors": ["Water supply and other urban infrastructure and services"], "title": "WATER SUPPLY & SANITATION INVESTMENT PROGRAM-TRANCHE 2", "status": "Implementation", "locationName": "Aghdash Rayon"}}, {"type": "Feature", "geometry": {"type": "Point", "coordinates": [48.66667, 39.0]}, "properties": {"id": "46004-45389-002-LN2921", "sectors": ["Transport", "Information and communication technology"], "title": "SECOND ROAD NETWORK DEVELOPMENT INVESTMENT PROGRAM-TRANCHE 1", "status": "Implementation", "locationName": "Masally District"}}, {"type": "Feature", "geometry": {"type": "Point", "coordinates": [48.6654, 39.03532]}, "properties": {"id": "46004-45389-002-LN2921", "sectors": ["Transport", "Information and communication technology"], "title": "SECOND ROAD NETWORK DEVELOPMENT INVESTMENT PROGRAM-TRANCHE 1", "status": "Implementation", "locationName": "Masally"}}, {"type": "Feature", "geometry": {"type": "Point", "coordinates": [48.5, 39.25]}, "properties": {"id": "46004-45389-002-LN2921", "sectors": ["Transport", "Information and communication technology"], "title": "SECOND ROAD NETWORK DEVELOPMENT INVESTMENT PROGRAM-TRANCHE 1", "status": "Implementation", "locationName": "Jalilabad District"}}, {"type": "Feature", "geometry": {"type": "Point", "coordinates": [48.49186, 39.20963]}, "properties": {"id": "46004-45389-002-LN2921", "sectors": ["Transport", "Information and communication technology"], "title": "SECOND ROAD NETWORK DEVELOPMENT INVESTMENT PROGRAM-TRANCHE 1", "status": "Implementation", "locationName": "Dzhalilabad"}}, {"type": "Feature", "geometry": {"type": "Point", "coordinates": [45.43975, 41.24196]}, "properties": {"id": "46004-39176-044-LN3116", "sectors": ["Transport"], "title": "ROAD NETWORK DEVELOPMENT PROGRAM - TRANCHE 4", "status": "Implementation", "locationName": "Poylu-Sadiqli  Bridge"}}, {"type": "Feature", "geometry": {"type": "Point", "coordinates": [45.44175, 41.12754]}, "properties": {"id": "46004-39176-044-LN3116", "sectors": ["Transport"], "title": "ROAD NETWORK DEVELOPMENT PROGRAM - TRANCHE 4", "status": "Implementation", "locationName": "Akstafa-Poylu-Sadiqli Bridge"}}, {"type": "Feature", "geometry": {"type": "Point", "coordinates": [45.35076, 41.30213]}, "properties": {"id": "46004-39176-044-LN3116", "sectors": ["Transport"], "title": "ROAD NETWORK DEVELOPMENT PROGRAM - TRANCHE 4", "status": "Implementation", "locationName": "Poylu-Sadiqli-Gurcustan Bridge"}}, {"type": "Feature", "geometry": {"type": "Point", "coordinates": [45.4399, 41.2264]}, "properties": {"id": "46004-39176-044-LN3116", "sectors": ["Transport"], "title": "ROAD NETWORK DEVELOPMENT PROGRAM - TRANCHE 4", "status": "Implementation", "locationName": "Poylu-Duzqislaq-Qazax Bridge"}}], "properties": {"bounds": [44.77455855300022, 38.392644755, 50.62574303500011, 41.89044159000015], "name": "Azerbaijan"}}