{"id": "BT", "type": "FeatureCollection", "features": [{"type": "Feature", "geometry": {"type": "Point", "coordinates": [89.86667, 27.1]}, "properties": {"id": "46004-37399-013-GRNT0119", "sectors": ["Energy"], "title": "GREEN POWER DEVELOPMENT PROJECT", "status": "Implementation", "locationName": "Dagana Dzongkhag"}}, {"type": "Feature", "geometry": {"type": "Point", "coordinates": [90.16667, 27.03333]}, "properties": {"id": "46004-37399-013-GRNT0119", "sectors": ["Energy"], "title": "GREEN POWER DEVELOPMENT PROJECT", "status": "Implementation", "locationName": "Tsirang Dzongkhag"}}, {"type": "Feature", "geometry": {"type": "Point", "coordinates": [90.13333, 27.5]}, "properties": {"id": "46004-37399-013-GRNT0119", "sectors": ["Energy"], "title": "GREEN POWER DEVELOPMENT PROJECT", "status": "Implementation", "locationName": "Wangdue Phodrang Dzongkhag"}}, {"type": "Feature", "geometry": {"type": "Point", "coordinates": [90.5, 27.5]}, "properties": {"id": "46004-39225-022-GRNT0174", "sectors": ["Transport"], "title": "ROAD NETWORK PROJECT II", "status": "Implementation", "locationName": "Bhutan"}}, {"type": "Feature", "geometry": {"type": "Point", "coordinates": [89.55, 27.0]}, "properties": {"id": "46004-39225-022-GRNT0174", "sectors": ["Transport"], "title": "ROAD NETWORK PROJECT II", "status": "Implementation", "locationName": "Chhukha Dzongkhag"}}, {"type": "Feature", "geometry": {"type": "Point", "coordinates": [89.86667, 27.1]}, "properties": {"id": "46004-39225-022-GRNT0174", "sectors": ["Transport"], "title": "ROAD NETWORK PROJECT II", "status": "Implementation", "locationName": "Dagana Dzongkhag"}}, {"type": "Feature", "geometry": {"type": "Point", "coordinates": [90.41667, 27.03333]}, "properties": {"id": "46004-39225-022-GRNT0174", "sectors": ["Transport"], "title": "ROAD NETWORK PROJECT II", "status": "Implementation", "locationName": "Sarpang Dzongkhag"}}, {"type": "Feature", "geometry": {"type": "Point", "coordinates": [91.36667, 27.0]}, "properties": {"id": "46004-39225-022-GRNT0174", "sectors": ["Transport"], "title": "ROAD NETWORK PROJECT II", "status": "Implementation", "locationName": "Pemagatshel Dzongkhag"}}, {"type": "Feature", "geometry": {"type": "Point", "coordinates": [91.61667, 26.91667]}, "properties": {"id": "46004-39225-022-GRNT0174", "sectors": ["Transport"], "title": "ROAD NETWORK PROJECT II", "status": "Implementation", "locationName": "Samdrup Jongkhar"}}, {"type": "Feature", "geometry": {"type": "Point", "coordinates": [90.98333, 26.86667]}, "properties": {"id": "46004-39225-022-GRNT0174", "sectors": ["Transport"], "title": "ROAD NETWORK PROJECT II", "status": "Implementation", "locationName": "Panbang"}}, {"type": "Feature", "geometry": {"type": "Point", "coordinates": [91.24836, 26.81771]}, "properties": {"id": "46004-39225-022-GRNT0174", "sectors": ["Transport"], "title": "ROAD NETWORK PROJECT II", "status": "Implementation", "locationName": "Nganglam New"}}, {"type": "Feature", "geometry": {"type": "Point", "coordinates": [89.64191, 27.46609]}, "properties": {"id": "46004-38049-013-LN2258", "sectors": ["Water supply and other urban infrastructure and services"], "title": "URBAN INFRASTRUCTURE DEVELOPMENT PROJECT", "status": "Implementation", "locationName": "Thimphu"}}, {"type": "Feature", "geometry": {"type": "Point", "coordinates": [89.87688, 27.07529]}, "properties": {"id": "46004-38049-013-LN2258", "sectors": ["Water supply and other urban infrastructure and services"], "title": "URBAN INFRASTRUCTURE DEVELOPMENT PROJECT", "status": "Implementation", "locationName": "Daga"}}, {"type": "Feature", "geometry": {"type": "Point", "coordinates": [89.39048, 26.85892]}, "properties": {"id": "46004-38049-013-LN2258", "sectors": ["Water supply and other urban infrastructure and services"], "title": "URBAN INFRASTRUCTURE DEVELOPMENT PROJECT", "status": "Implementation", "locationName": "Phuentsholing"}}, {"type": "Feature", "geometry": {"type": "Point", "coordinates": [89.55, 27.0]}, "properties": {"id": "46004-42252-022-GRNT0228", "sectors": ["Energy"], "title": "RURAL RENEWABLE ENERGY DEVELOPMENT PROJECT", "status": "Implementation", "locationName": "Chhukha Dzongkhag"}}, {"type": "Feature", "geometry": {"type": "Point", "coordinates": [90.16667, 27.03333]}, "properties": {"id": "46004-42252-022-GRNT0228", "sectors": ["Energy"], "title": "RURAL RENEWABLE ENERGY DEVELOPMENT PROJECT", "status": "Implementation", "locationName": "Tsirang Dzongkhag"}}, {"type": "Feature", "geometry": {"type": "Point", "coordinates": [90.41667, 27.03333]}, "properties": {"id": "46004-42252-022-GRNT0228", "sectors": ["Energy"], "title": "RURAL RENEWABLE ENERGY DEVELOPMENT PROJECT", "status": "Implementation", "locationName": "Sarpang Dzongkhag"}}, {"type": "Feature", "geometry": {"type": "Point", "coordinates": [91.18333, 27.75]}, "properties": {"id": "46004-42252-022-GRNT0228", "sectors": ["Energy"], "title": "RURAL RENEWABLE ENERGY DEVELOPMENT PROJECT", "status": "Implementation", "locationName": "Lhuentse Dzongkhag"}}, {"type": "Feature", "geometry": {"type": "Point", "coordinates": [91.23333, 27.25]}, "properties": {"id": "46004-42252-022-GRNT0228", "sectors": ["Energy"], "title": "RURAL RENEWABLE ENERGY DEVELOPMENT PROJECT", "status": "Implementation", "locationName": "Mongar Dzongkhag"}}, {"type": "Feature", "geometry": {"type": "Point", "coordinates": [89.08333, 27.03333]}, "properties": {"id": "46004-42252-022-GRNT0228", "sectors": ["Energy"], "title": "RURAL RENEWABLE ENERGY DEVELOPMENT PROJECT", "status": "Implementation", "locationName": "Samtse Dzongkhag"}}, {"type": "Feature", "geometry": {"type": "Point", "coordinates": [91.61667, 26.91667]}, "properties": {"id": "46004-42252-022-GRNT0228", "sectors": ["Energy"], "title": "RURAL RENEWABLE ENERGY DEVELOPMENT PROJECT", "status": "Implementation", "locationName": "Samdrup Jongkhar"}}, {"type": "Feature", "geometry": {"type": "Point", "coordinates": [90.85, 27.08333]}, "properties": {"id": "46004-42252-022-GRNT0228", "sectors": ["Energy"], "title": "RURAL RENEWABLE ENERGY DEVELOPMENT PROJECT", "status": "Implementation", "locationName": "Zhemgang Dzongkhag"}}, {"type": "Feature", "geometry": {"type": "Point", "coordinates": [91.75, 27.25]}, "properties": {"id": "46004-42252-022-GRNT0228", "sectors": ["Energy"], "title": "RURAL RENEWABLE ENERGY DEVELOPMENT PROJECT", "status": "Implementation", "locationName": "Trashigang Dzongkhag"}}, {"type": "Feature", "geometry": {"type": "Point", "coordinates": [89.70886, 27.91313]}, "properties": {"id": "46004-42252-022-GRNT0228", "sectors": ["Energy"], "title": "RURAL RENEWABLE ENERGY DEVELOPMENT PROJECT", "status": "Implementation", "locationName": "Gasa"}}, {"type": "Feature", "geometry": {"type": "Point", "coordinates": [91.45466, 27.58468]}, "properties": {"id": "46004-42252-022-GRNT0228", "sectors": ["Energy"], "title": "RURAL RENEWABLE ENERGY DEVELOPMENT PROJECT", "status": "Implementation", "locationName": "Trashi Yangste"}}, {"type": "Feature", "geometry": {"type": "Point", "coordinates": [89.54151, 27.08602]}, "properties": {"id": "46004-42252-022-GRNT0228", "sectors": ["Energy"], "title": "RURAL RENEWABLE ENERGY DEVELOPMENT PROJECT", "status": "Implementation", "locationName": "Tsimalakha"}}, {"type": "Feature", "geometry": {"type": "Point", "coordinates": [89.86667, 27.1]}, "properties": {"id": "46004-37399-013-LN2463", "sectors": ["Energy"], "title": "GREEN POWER DEVELOPMENT PROJECT", "status": "Completion", "locationName": "Dagana Dzongkhag"}}, {"type": "Feature", "geometry": {"type": "Point", "coordinates": [90.16667, 27.03333]}, "properties": {"id": "46004-37399-013-LN2463", "sectors": ["Energy"], "title": "GREEN POWER DEVELOPMENT PROJECT", "status": "Completion", "locationName": "Tsirang Dzongkhag"}}, {"type": "Feature", "geometry": {"type": "Point", "coordinates": [90.13333, 27.5]}, "properties": {"id": "46004-37399-013-LN2463", "sectors": ["Energy"], "title": "GREEN POWER DEVELOPMENT PROJECT", "status": "Completion", "locationName": "Wangdue Phodrang Dzongkhag"}}, {"type": "Feature", "geometry": {"type": "Point", "coordinates": [89.86667, 27.1]}, "properties": {"id": "46004-37399-013-LN2464", "sectors": ["Energy"], "title": "GREEN POWER DEVELOPMENT PROJECT", "status": "Completion", "locationName": "Dagana Dzongkhag"}}, {"type": "Feature", "geometry": {"type": "Point", "coordinates": [90.16667, 27.03333]}, "properties": {"id": "46004-37399-013-LN2464", "sectors": ["Energy"], "title": "GREEN POWER DEVELOPMENT PROJECT", "status": "Completion", "locationName": "Tsirang Dzongkhag"}}, {"type": "Feature", "geometry": {"type": "Point", "coordinates": [90.13333, 27.5]}, "properties": {"id": "46004-37399-013-LN2464", "sectors": ["Energy"], "title": "GREEN POWER DEVELOPMENT PROJECT", "status": "Completion", "locationName": "Wangdue Phodrang Dzongkhag"}}, {"type": "Feature", "geometry": {"type": "Point", "coordinates": [89.64191, 27.46609]}, "properties": {"id": "46004-44240-013-LN2816", "sectors": ["Water supply and other urban infrastructure and services"], "title": "URBAN INFRASCTRUCTURE PROJECT", "status": "Implementation", "locationName": "Thimphu"}}, {"type": "Feature", "geometry": {"type": "Point", "coordinates": [91.61667, 26.91667]}, "properties": {"id": "46004-44240-013-LN2816", "sectors": ["Water supply and other urban infrastructure and services"], "title": "URBAN INFRASCTRUCTURE PROJECT", "status": "Implementation", "locationName": "Samdrup Jongkhar"}}, {"type": "Feature", "geometry": {"type": "Point", "coordinates": [89.42317, 26.91389]}, "properties": {"id": "46004-44240-013-LN2816", "sectors": ["Water supply and other urban infrastructure and services"], "title": "URBAN INFRASCTRUCTURE PROJECT", "status": "Implementation", "locationName": "Phuentsholing"}}, {"type": "Feature", "geometry": {"type": "Point", "coordinates": [89.39048, 26.85892]}, "properties": {"id": "46004-44240-013-LN2816", "sectors": ["Water supply and other urban infrastructure and services"], "title": "URBAN INFRASCTRUCTURE PROJECT", "status": "Implementation", "locationName": "Phuentsholing"}}, {"type": "Feature", "geometry": {"type": "Point", "coordinates": [91.24836, 26.81771]}, "properties": {"id": "46004-44240-013-LN2816", "sectors": ["Water supply and other urban infrastructure and services"], "title": "URBAN INFRASCTRUCTURE PROJECT", "status": "Implementation", "locationName": "Nganglam New"}}, {"type": "Feature", "geometry": {"type": "Point", "coordinates": [90.46836, 26.88389]}, "properties": {"id": "46004-44239-013-GRNT0295", "sectors": ["Transport"], "title": "AIR TRANSPORT CONNECTIVITY ENHANCEMENT PROJECT", "status": "Implementation", "locationName": "Gelephu Airport"}}, {"type": "Feature", "geometry": {"type": "Point", "coordinates": [91.51457, 27.256]}, "properties": {"id": "46004-44239-013-GRNT0295", "sectors": ["Transport"], "title": "AIR TRANSPORT CONNECTIVITY ENHANCEMENT PROJECT", "status": "Implementation", "locationName": "Yongphulla Airport"}}, {"type": "Feature", "geometry": {"type": "Point", "coordinates": [90.74651, 27.56299]}, "properties": {"id": "46004-44239-013-GRNT0295", "sectors": ["Transport"], "title": "AIR TRANSPORT CONNECTIVITY ENHANCEMENT PROJECT", "status": "Implementation", "locationName": "Bathpalathang Airport"}}, {"type": "Feature", "geometry": {"type": "Point", "coordinates": [90.0, 24.0]}, "properties": {"id": "46004-45260-001-LN2955", "sectors": ["Industry and trade"], "title": "SASEC TRADE FACILITATION PROGRAM (SF)", "status": "Implementation", "locationName": "Bangladesh"}}, {"type": "Feature", "geometry": {"type": "Point", "coordinates": [90.5, 27.5]}, "properties": {"id": "46004-45260-001-LN2955", "sectors": ["Industry and trade"], "title": "SASEC TRADE FACILITATION PROGRAM (SF)", "status": "Implementation", "locationName": "Bhutan"}}, {"type": "Feature", "geometry": {"type": "Point", "coordinates": [84.0, 28.0]}, "properties": {"id": "46004-45260-001-LN2955", "sectors": ["Industry and trade"], "title": "SASEC TRADE FACILITATION PROGRAM (SF)", "status": "Implementation", "locationName": "Nepal"}}, {"type": "Feature", "geometry": {"type": "Point", "coordinates": [90.5, 27.5]}, "properties": {"id": "46004-46371-001-LN2994", "sectors": ["Public sector management"], "title": "STRENGTHENING ECONOMIC MANAGEMENT PROGRAM", "status": "Completion", "locationName": "Bhutan"}}, {"type": "Feature", "geometry": {"type": "Point", "coordinates": [89.86667, 27.1]}, "properties": {"id": "46004-37399-043-LN3034", "sectors": ["Energy"], "title": "GREEN POWER DEVELOPMENT PROJECT - ADDITIONAL FINANCING", "status": "Implementation", "locationName": "Dagana Dzongkhag"}}, {"type": "Feature", "geometry": {"type": "Point", "coordinates": [90.0, 24.0]}, "properties": {"id": "46004-45260-001-GRNT0321", "sectors": ["Industry and trade"], "title": "SASEC TRADE FACILITATION PROGRAM", "status": "Completion", "locationName": "Bangladesh"}}, {"type": "Feature", "geometry": {"type": "Point", "coordinates": [90.5, 27.5]}, "properties": {"id": "46004-45260-001-GRNT0321", "sectors": ["Industry and trade"], "title": "SASEC TRADE FACILITATION PROGRAM", "status": "Completion", "locationName": "Bhutan"}}, {"type": "Feature", "geometry": {"type": "Point", "coordinates": [84.0, 28.0]}, "properties": {"id": "46004-45260-001-GRNT0321", "sectors": ["Industry and trade"], "title": "SASEC TRADE FACILITATION PROGRAM", "status": "Completion", "locationName": "Nepal"}}, {"type": "Feature", "geometry": {"type": "Point", "coordinates": [90.5, 27.5]}, "properties": {"id": "46004-46371-001-GRNT0338", "sectors": ["Public sector management"], "title": "STRENGTHENING ECONOMIC MANAGEMENT PROGRAM", "status": "Completion", "locationName": "Bhutan"}}, {"type": "Feature", "geometry": {"type": "Point", "coordinates": [90.5, 27.5]}, "properties": {"id": "46004-39221-022-GRNT0088", "sectors": ["Industry and trade"], "title": "MICRO, SMALL, AND MEDIUM-SIZED ENTERPRISE SECTOR D", "status": "Completion", "locationName": "Bhutan"}}, {"type": "Feature", "geometry": {"type": "Point", "coordinates": [90.5, 27.5]}, "properties": {"id": "46004-39221-022-GRNT0089", "sectors": ["Industry and trade"], "title": "MICRO, SMALL, AND MEDIUM-SIZED ENTERPRISE SECTOR D", "status": "Completion", "locationName": "Bhutan"}}, {"type": "Feature", "geometry": {"type": "Point", "coordinates": [89.64191, 27.46609]}, "properties": {"id": "46004-40054-013-GRNT0098", "sectors": ["Information and communication technology"], "title": "SASEC INFORMATION HIGHWAY PROJECT (BHUTAN)", "status": "Implementation", "locationName": "Thimphu"}}, {"type": "Feature", "geometry": {"type": "Point", "coordinates": [90.5, 27.5]}, "properties": {"id": "46004-40054-013-GRNT0098", "sectors": ["Information and communication technology"], "title": "SASEC INFORMATION HIGHWAY PROJECT (BHUTAN)", "status": "Implementation", "locationName": "Bhutan"}}, {"type": "Feature", "geometry": {"type": "Point", "coordinates": [89.58333, 27.6]}, "properties": {"id": "46004-40054-013-GRNT0098", "sectors": ["Information and communication technology"], "title": "SASEC INFORMATION HIGHWAY PROJECT (BHUTAN)", "status": "Implementation", "locationName": "Thimphu Dzongkhag"}}, {"type": "Feature", "geometry": {"type": "Point", "coordinates": [89.42317, 26.91389]}, "properties": {"id": "46004-40054-013-GRNT0098", "sectors": ["Information and communication technology"], "title": "SASEC INFORMATION HIGHWAY PROJECT (BHUTAN)", "status": "Implementation", "locationName": "Phuentsholing"}}, {"type": "Feature", "geometry": {"type": "Point", "coordinates": [89.39048, 26.85892]}, "properties": {"id": "46004-40054-013-GRNT0098", "sectors": ["Information and communication technology"], "title": "SASEC INFORMATION HIGHWAY PROJECT (BHUTAN)", "status": "Implementation", "locationName": "Phuentsholing"}}], "properties": {"bounds": [88.73006677200013, 26.69614939400016, 92.08877648900014, 28.358398930786294], "name": "Bhutan"}}