{"id": "KG", "type": "FeatureCollection", "features": [{"type": "Feature", "geometry": {"type": "Point", "coordinates": [73.0, 40.0]}, "properties": {"id": "46004-31197-032-GRNT0122", "sectors": ["Water supply and other urban infrastructure and services"], "title": "COMMUNITY-BASED INFRASTRUCTURE SERVICES SECTOR PRO", "status": "Completion", "locationName": "Osh Oblasty"}}, {"type": "Feature", "geometry": {"type": "Point", "coordinates": [71.0, 39.83333]}, "properties": {"id": "46004-31197-032-GRNT0122", "sectors": ["Water supply and other urban infrastructure and services"], "title": "COMMUNITY-BASED INFRASTRUCTURE SERVICES SECTOR PRO", "status": "Completion", "locationName": "Batken"}}, {"type": "Feature", "geometry": {"type": "Point", "coordinates": [72.5, 41.5]}, "properties": {"id": "46004-31197-032-GRNT0122", "sectors": ["Water supply and other urban infrastructure and services"], "title": "COMMUNITY-BASED INFRASTRUCTURE SERVICES SECTOR PRO", "status": "Completion", "locationName": "Jalal-Abad"}}, {"type": "Feature", "geometry": {"type": "Point", "coordinates": [74.5, 42.41667]}, "properties": {"id": "46004-31197-032-GRNT0122", "sectors": ["Water supply and other urban infrastructure and services"], "title": "COMMUNITY-BASED INFRASTRUCTURE SERVICES SECTOR PRO", "status": "Completion", "locationName": "Chuyskaya Oblast\u2019"}}, {"type": "Feature", "geometry": {"type": "Point", "coordinates": [74.63333, 42.9]}, "properties": {"id": "46004-39674-022-GRNT0123", "sectors": ["Transport"], "title": "CAREC TRANSPORT CORRIDOR 1 (BISHKEK-TORUGART ROAD)", "status": "Completion", "locationName": "Alamedinskiy Rayon"}}, {"type": "Feature", "geometry": {"type": "Point", "coordinates": [75.81058, 41.17017]}, "properties": {"id": "46004-39674-022-GRNT0123", "sectors": ["Transport"], "title": "CAREC TRANSPORT CORRIDOR 1 (BISHKEK-TORUGART ROAD)", "status": "Completion", "locationName": "At-Bashi"}}, {"type": "Feature", "geometry": {"type": "Point", "coordinates": [75.8, 41.16667]}, "properties": {"id": "46004-39674-022-GRNT0123", "sectors": ["Transport"], "title": "CAREC TRANSPORT CORRIDOR 1 (BISHKEK-TORUGART ROAD)", "status": "Completion", "locationName": "At-Bashi"}}, {"type": "Feature", "geometry": {"type": "Point", "coordinates": [76.18709, 42.46017]}, "properties": {"id": "46004-39674-022-GRNT0123", "sectors": ["Transport"], "title": "CAREC TRANSPORT CORRIDOR 1 (BISHKEK-TORUGART ROAD)", "status": "Completion", "locationName": "Balykchy"}}, {"type": "Feature", "geometry": {"type": "Point", "coordinates": [74.59, 42.87]}, "properties": {"id": "46004-39674-022-GRNT0123", "sectors": ["Transport"], "title": "CAREC TRANSPORT CORRIDOR 1 (BISHKEK-TORUGART ROAD)", "status": "Completion", "locationName": "Bishkek"}}, {"type": "Feature", "geometry": {"type": "Point", "coordinates": [75.33333, 42.66667]}, "properties": {"id": "46004-39674-022-GRNT0123", "sectors": ["Transport"], "title": "CAREC TRANSPORT CORRIDOR 1 (BISHKEK-TORUGART ROAD)", "status": "Completion", "locationName": "Chuyskiy Rayon"}}, {"type": "Feature", "geometry": {"type": "Point", "coordinates": [77.17805, 42.59496]}, "properties": {"id": "46004-39674-022-GRNT0123", "sectors": ["Transport"], "title": "CAREC TRANSPORT CORRIDOR 1 (BISHKEK-TORUGART ROAD)", "status": "Completion", "locationName": "Issyk - Kulskaya"}}, {"type": "Feature", "geometry": {"type": "Point", "coordinates": [76.3326, 42.83349]}, "properties": {"id": "46004-39674-022-GRNT0123", "sectors": ["Transport"], "title": "CAREC TRANSPORT CORRIDOR 1 (BISHKEK-TORUGART ROAD)", "status": "Completion", "locationName": "Kemin"}}, {"type": "Feature", "geometry": {"type": "Point", "coordinates": [75.75, 42.21667]}, "properties": {"id": "46004-39674-022-GRNT0123", "sectors": ["Transport"], "title": "CAREC TRANSPORT CORRIDOR 1 (BISHKEK-TORUGART ROAD)", "status": "Completion", "locationName": "Kochkor"}}, {"type": "Feature", "geometry": {"type": "Point", "coordinates": [75.75659, 42.21552]}, "properties": {"id": "46004-39674-022-GRNT0123", "sectors": ["Transport"], "title": "CAREC TRANSPORT CORRIDOR 1 (BISHKEK-TORUGART ROAD)", "status": "Completion", "locationName": "Kochkor"}}, {"type": "Feature", "geometry": {"type": "Point", "coordinates": [75.0, 41.5]}, "properties": {"id": "46004-39674-022-GRNT0123", "sectors": ["Transport"], "title": "CAREC TRANSPORT CORRIDOR 1 (BISHKEK-TORUGART ROAD)", "status": "Completion", "locationName": "Kyrgyzstan"}}, {"type": "Feature", "geometry": {"type": "Point", "coordinates": [75.99111, 41.42866]}, "properties": {"id": "46004-39674-022-GRNT0123", "sectors": ["Transport"], "title": "CAREC TRANSPORT CORRIDOR 1 (BISHKEK-TORUGART ROAD)", "status": "Completion", "locationName": "Naryn"}}, {"type": "Feature", "geometry": {"type": "Point", "coordinates": [76.27108, 41.56807]}, "properties": {"id": "46004-39674-022-GRNT0123", "sectors": ["Transport"], "title": "CAREC TRANSPORT CORRIDOR 1 (BISHKEK-TORUGART ROAD)", "status": "Completion", "locationName": "Tien Shan"}}, {"type": "Feature", "geometry": {"type": "Point", "coordinates": [75.30149, 42.84194]}, "properties": {"id": "46004-39674-022-GRNT0123", "sectors": ["Transport"], "title": "CAREC TRANSPORT CORRIDOR 1 (BISHKEK-TORUGART ROAD)", "status": "Completion", "locationName": "Tokmok"}}, {"type": "Feature", "geometry": {"type": "Point", "coordinates": [76.57973, 42.09757]}, "properties": {"id": "46004-39674-022-GRNT0123", "sectors": ["Transport"], "title": "CAREC TRANSPORT CORRIDOR 1 (BISHKEK-TORUGART ROAD)", "status": "Completion", "locationName": "Tong"}}, {"type": "Feature", "geometry": {"type": "Point", "coordinates": [75.31115, 40.55103]}, "properties": {"id": "46004-39674-022-GRNT0123", "sectors": ["Transport"], "title": "CAREC TRANSPORT CORRIDOR 1 (BISHKEK-TORUGART ROAD)", "status": "Completion", "locationName": "Torugart"}}, {"type": "Feature", "geometry": {"type": "Point", "coordinates": [74.964, 42.636]}, "properties": {"id": "46004-39674-022-GRNT0123", "sectors": ["Transport"], "title": "CAREC TRANSPORT CORRIDOR 1 (BISHKEK-TORUGART ROAD)", "status": "Completion", "locationName": "Ysyk-Ata"}}, {"type": "Feature", "geometry": {"type": "Point", "coordinates": [75.96667, 41.43333]}, "properties": {"id": "46004-42399-013-GRNT0153", "sectors": ["Transport"], "title": "CAREC TRANSPORT CORRIDOR 1 (BISHKEK-TORUGART ROAD)", "status": "Implementation", "locationName": "Naryn"}}, {"type": "Feature", "geometry": {"type": "Point", "coordinates": [75.81058, 41.17017]}, "properties": {"id": "46004-42399-013-GRNT0153", "sectors": ["Transport"], "title": "CAREC TRANSPORT CORRIDOR 1 (BISHKEK-TORUGART ROAD)", "status": "Implementation", "locationName": "At-Bashi"}}, {"type": "Feature", "geometry": {"type": "Point", "coordinates": [76.18709, 42.46017]}, "properties": {"id": "46004-41548-013-GRNT0163", "sectors": ["Water supply and other urban infrastructure and services"], "title": "ISSYK-KUL SUSTAINABLE DEVELOPMENT PROJECT", "status": "Implementation", "locationName": "Balykchy"}}, {"type": "Feature", "geometry": {"type": "Point", "coordinates": [77.25, 42.41667]}, "properties": {"id": "46004-41548-013-GRNT0163", "sectors": ["Water supply and other urban infrastructure and services"], "title": "ISSYK-KUL SUSTAINABLE DEVELOPMENT PROJECT", "status": "Implementation", "locationName": "Issyk Kul"}}, {"type": "Feature", "geometry": {"type": "Point", "coordinates": [78.39362, 42.49068]}, "properties": {"id": "46004-41548-013-GRNT0163", "sectors": ["Water supply and other urban infrastructure and services"], "title": "ISSYK-KUL SUSTAINABLE DEVELOPMENT PROJECT", "status": "Implementation", "locationName": "Karakol"}}, {"type": "Feature", "geometry": {"type": "Point", "coordinates": [77.08225, 42.64944]}, "properties": {"id": "46004-41548-013-GRNT0163", "sectors": ["Water supply and other urban infrastructure and services"], "title": "ISSYK-KUL SUSTAINABLE DEVELOPMENT PROJECT", "status": "Implementation", "locationName": "Cholpon-Ata"}}, {"type": "Feature", "geometry": {"type": "Point", "coordinates": [75.0, 41.5]}, "properties": {"id": "46004-44236-013-GRNT0217", "sectors": ["Public sector management"], "title": "EMERGENCY ASSISTANCE FOR RECOVERY AND RECONSTRUCTI", "status": "Implementation", "locationName": "Kyrgyzstan"}}, {"type": "Feature", "geometry": {"type": "Point", "coordinates": [72.74586, 41.0376]}, "properties": {"id": "46004-44236-013-GRNT0217", "sectors": ["Public sector management"], "title": "EMERGENCY ASSISTANCE FOR RECOVERY AND RECONSTRUCTI", "status": "Implementation", "locationName": "Bazar-Korgon"}}, {"type": "Feature", "geometry": {"type": "Point", "coordinates": [75.0, 41.5]}, "properties": {"id": "46004-43456-023-GRNT0218", "sectors": ["Energy"], "title": "POWER SECTOR IMPROVEMENT PROJECT", "status": "Implementation", "locationName": "Kyrgyzstan"}}, {"type": "Feature", "geometry": {"type": "Point", "coordinates": [75.96667, 41.43333]}, "properties": {"id": "46004-42399-013-LN2533", "sectors": ["Transport"], "title": "CAREC TRANSPORT CORRIDOR 1 (BISHKEK-TORUGART ROAD)", "status": "Implementation", "locationName": "Naryn"}}, {"type": "Feature", "geometry": {"type": "Point", "coordinates": [75.81058, 41.17017]}, "properties": {"id": "46004-42399-013-LN2533", "sectors": ["Transport"], "title": "CAREC TRANSPORT CORRIDOR 1 (BISHKEK-TORUGART ROAD)", "status": "Implementation", "locationName": "At-Bashi"}}, {"type": "Feature", "geometry": {"type": "Point", "coordinates": [76.18709, 42.46017]}, "properties": {"id": "46004-41548-013-LN2556", "sectors": ["Water supply and other urban infrastructure and services"], "title": "ISSYK-KUL SUSTAINABLE DEVELOPMENT", "status": "Implementation", "locationName": "Balykchy"}}, {"type": "Feature", "geometry": {"type": "Point", "coordinates": [77.25, 42.41667]}, "properties": {"id": "46004-41548-013-LN2556", "sectors": ["Water supply and other urban infrastructure and services"], "title": "ISSYK-KUL SUSTAINABLE DEVELOPMENT", "status": "Implementation", "locationName": "Issyk Kul"}}, {"type": "Feature", "geometry": {"type": "Point", "coordinates": [78.39362, 42.49068]}, "properties": {"id": "46004-41548-013-LN2556", "sectors": ["Water supply and other urban infrastructure and services"], "title": "ISSYK-KUL SUSTAINABLE DEVELOPMENT", "status": "Implementation", "locationName": "Karakol"}}, {"type": "Feature", "geometry": {"type": "Point", "coordinates": [77.08225, 42.64944]}, "properties": {"id": "46004-41548-013-LN2556", "sectors": ["Water supply and other urban infrastructure and services"], "title": "ISSYK-KUL SUSTAINABLE DEVELOPMENT", "status": "Implementation", "locationName": "Cholpon-Ata"}}, {"type": "Feature", "geometry": {"type": "Point", "coordinates": [73.24836, 39.72883]}, "properties": {"id": "46004-39676-033-LN2667", "sectors": ["Transport"], "title": "CAREC REGIONAL ROAD CORRIDOR IMPROVEMENT PROJECT (SUPPLEMENTARY)", "status": "Completion", "locationName": "Sary-Tash"}}, {"type": "Feature", "geometry": {"type": "Point", "coordinates": [72.20518, 39.55274]}, "properties": {"id": "46004-39676-033-LN2667", "sectors": ["Transport"], "title": "CAREC REGIONAL ROAD CORRIDOR IMPROVEMENT PROJECT (SUPPLEMENTARY)", "status": "Completion", "locationName": "Daroot-Korgon"}}, {"type": "Feature", "geometry": {"type": "Point", "coordinates": [73.0, 40.0]}, "properties": {"id": "46004-39676-033-LN2667", "sectors": ["Transport"], "title": "CAREC REGIONAL ROAD CORRIDOR IMPROVEMENT PROJECT (SUPPLEMENTARY)", "status": "Completion", "locationName": "Osh Oblasty"}}, {"type": "Feature", "geometry": {"type": "Point", "coordinates": [71.79254, 39.48564]}, "properties": {"id": "46004-39676-033-LN2667", "sectors": ["Transport"], "title": "CAREC REGIONAL ROAD CORRIDOR IMPROVEMENT PROJECT (SUPPLEMENTARY)", "status": "Completion", "locationName": "Karamyk"}}, {"type": "Feature", "geometry": {"type": "Point", "coordinates": [72.7661, 39.92356]}, "properties": {"id": "46004-39676-033-LN2667", "sectors": ["Transport"], "title": "CAREC REGIONAL ROAD CORRIDOR IMPROVEMENT PROJECT (SUPPLEMENTARY)", "status": "Completion", "locationName": "Sary-Mogol"}}, {"type": "Feature", "geometry": {"type": "Point", "coordinates": [73.55941, 39.85862]}, "properties": {"id": "46004-39676-033-LN2667", "sectors": ["Transport"], "title": "CAREC REGIONAL ROAD CORRIDOR IMPROVEMENT PROJECT (SUPPLEMENTARY)", "status": "Completion", "locationName": "Alay District"}}, {"type": "Feature", "geometry": {"type": "Point", "coordinates": [72.2001, 39.552]}, "properties": {"id": "46004-39676-033-LN2667", "sectors": ["Transport"], "title": "CAREC REGIONAL ROAD CORRIDOR IMPROVEMENT PROJECT (SUPPLEMENTARY)", "status": "Completion", "locationName": "Chong-Alay"}}, {"type": "Feature", "geometry": {"type": "Point", "coordinates": [75.0, 41.5]}, "properties": {"id": "46004-44236-013-LN2668", "sectors": ["Public sector management"], "title": "EMERGENCY ASSISTANCE FOR RECOVERY AND RECONSTRUCTION", "status": "Implementation", "locationName": "Kyrgyzstan"}}, {"type": "Feature", "geometry": {"type": "Point", "coordinates": [72.74586, 41.0376]}, "properties": {"id": "46004-44236-013-LN2668", "sectors": ["Public sector management"], "title": "EMERGENCY ASSISTANCE FOR RECOVERY AND RECONSTRUCTION", "status": "Implementation", "locationName": "Bazar-Korgon"}}, {"type": "Feature", "geometry": {"type": "Point", "coordinates": [75.0, 41.5]}, "properties": {"id": "46004-43456-023-LN2671", "sectors": ["Energy"], "title": "POWER SECTOR IMPROVEMENT PROJECT", "status": "Implementation", "locationName": "Kyrgyzstan"}}, {"type": "Feature", "geometry": {"type": "Point", "coordinates": [76.0, 41.0]}, "properties": {"id": "46004-42399-023-LN2755", "sectors": ["Transport"], "title": "CAREC CORRIDOR 1 (BISHKEK-TORUGART ROAD) PROJECT 3", "status": "Implementation", "locationName": "At-Bashinskiy Rayon"}}, {"type": "Feature", "geometry": {"type": "Point", "coordinates": [75.81058, 41.17017]}, "properties": {"id": "46004-42399-023-LN2755", "sectors": ["Transport"], "title": "CAREC CORRIDOR 1 (BISHKEK-TORUGART ROAD) PROJECT 3", "status": "Implementation", "locationName": "At-Bashi"}}, {"type": "Feature", "geometry": {"type": "Point", "coordinates": [75.31115, 40.55103]}, "properties": {"id": "46004-42399-023-LN2755", "sectors": ["Transport"], "title": "CAREC CORRIDOR 1 (BISHKEK-TORUGART ROAD) PROJECT 3", "status": "Implementation", "locationName": "Torugart"}}, {"type": "Feature", "geometry": {"type": "Point", "coordinates": [72.05924, 40.22881]}, "properties": {"id": "46004-44198-013-LN2869", "sectors": ["Energy"], "title": "POWER SECTOR REHABILITATION PROJECT(SF)", "status": "Implementation", "locationName": "Uch-Korgon"}}, {"type": "Feature", "geometry": {"type": "Point", "coordinates": [72.17887, 41.2006]}, "properties": {"id": "46004-44198-013-LN2869", "sectors": ["Energy"], "title": "POWER SECTOR REHABILITATION PROJECT(SF)", "status": "Implementation", "locationName": "Shamaldy-Say"}}, {"type": "Feature", "geometry": {"type": "Point", "coordinates": [75.0, 41.5]}, "properties": {"id": "46004-44198-013-LN2869", "sectors": ["Energy"], "title": "POWER SECTOR REHABILITATION PROJECT(SF)", "status": "Implementation", "locationName": "Kyrgyzstan"}}, {"type": "Feature", "geometry": {"type": "Point", "coordinates": [72.9402, 41.87079]}, "properties": {"id": "46004-44198-013-LN2869", "sectors": ["Energy"], "title": "POWER SECTOR REHABILITATION PROJECT(SF)", "status": "Implementation", "locationName": "Toktogul"}}, {"type": "Feature", "geometry": {"type": "Point", "coordinates": [72.80826, 40.51506]}, "properties": {"id": "46004-38298-023-LN2902", "sectors": ["Education"], "title": "2ND VOCATIONAL EDUCATION & SKILLS DEVELOPMENT PROJECT", "status": "Implementation", "locationName": "Osh"}}, {"type": "Feature", "geometry": {"type": "Point", "coordinates": [75.0, 41.5]}, "properties": {"id": "46004-38298-023-LN2902", "sectors": ["Education"], "title": "2ND VOCATIONAL EDUCATION & SKILLS DEVELOPMENT PROJECT", "status": "Implementation", "locationName": "Kyrgyzstan"}}, {"type": "Feature", "geometry": {"type": "Point", "coordinates": [74.59, 42.87]}, "properties": {"id": "46004-38298-023-LN2902", "sectors": ["Education"], "title": "2ND VOCATIONAL EDUCATION & SKILLS DEVELOPMENT PROJECT", "status": "Implementation", "locationName": "Bishkek"}}, {"type": "Feature", "geometry": {"type": "Point", "coordinates": [72.05924, 40.22881]}, "properties": {"id": "46004-44198-013-GRNT0294", "sectors": ["Energy"], "title": "POWER SECTOR REHABILITATION PROJECT", "status": "Implementation", "locationName": "Uch-Korgon"}}, {"type": "Feature", "geometry": {"type": "Point", "coordinates": [72.17887, 41.2006]}, "properties": {"id": "46004-44198-013-GRNT0294", "sectors": ["Energy"], "title": "POWER SECTOR REHABILITATION PROJECT", "status": "Implementation", "locationName": "Shamaldy-Say"}}, {"type": "Feature", "geometry": {"type": "Point", "coordinates": [75.0, 41.5]}, "properties": {"id": "46004-44198-013-GRNT0294", "sectors": ["Energy"], "title": "POWER SECTOR REHABILITATION PROJECT", "status": "Implementation", "locationName": "Kyrgyzstan"}}, {"type": "Feature", "geometry": {"type": "Point", "coordinates": [72.9402, 41.87079]}, "properties": {"id": "46004-44198-013-GRNT0294", "sectors": ["Energy"], "title": "POWER SECTOR REHABILITATION PROJECT", "status": "Implementation", "locationName": "Toktogul"}}, {"type": "Feature", "geometry": {"type": "Point", "coordinates": [71.79254, 39.48564]}, "properties": {"id": "46004-46124-001-LN2995", "sectors": ["Finance"], "title": "CAREC REGIONAL IMPROVEMENT OF BORDER SERVICES PROJECT(SF)", "status": "Implementation", "locationName": "Karamyk"}}, {"type": "Feature", "geometry": {"type": "Point", "coordinates": [70.7265, 40.12238]}, "properties": {"id": "46004-46124-001-LN2995", "sectors": ["Finance"], "title": "CAREC REGIONAL IMPROVEMENT OF BORDER SERVICES PROJECT(SF)", "status": "Implementation", "locationName": "Guliston"}}, {"type": "Feature", "geometry": {"type": "Point", "coordinates": [72.80826, 40.51506]}, "properties": {"id": "46004-45169-001-LN3056", "sectors": ["Transport"], "title": "CAREC CORRIDOR 3(BISHKEK-OSH RD)IMPROVEMENT PROJECT,PHASE 4", "status": "Implementation", "locationName": "Osh"}}, {"type": "Feature", "geometry": {"type": "Point", "coordinates": [72.86674, 40.59041]}, "properties": {"id": "46004-45169-001-LN3056", "sectors": ["Transport"], "title": "CAREC CORRIDOR 3(BISHKEK-OSH RD)IMPROVEMENT PROJECT,PHASE 4", "status": "Implementation", "locationName": "Madaniyat"}}, {"type": "Feature", "geometry": {"type": "Point", "coordinates": [73.84813, 42.81423]}, "properties": {"id": "46004-45169-001-LN3056", "sectors": ["Transport"], "title": "CAREC CORRIDOR 3(BISHKEK-OSH RD)IMPROVEMENT PROJECT,PHASE 4", "status": "Implementation", "locationName": "Kara-Balta"}}, {"type": "Feature", "geometry": {"type": "Point", "coordinates": [73.0, 40.93333]}, "properties": {"id": "46004-45169-001-LN3056", "sectors": ["Transport"], "title": "CAREC CORRIDOR 3(BISHKEK-OSH RD)IMPROVEMENT PROJECT,PHASE 4", "status": "Implementation", "locationName": "Jalal-Abad"}}, {"type": "Feature", "geometry": {"type": "Point", "coordinates": [74.60022, 42.87781]}, "properties": {"id": "46004-45169-001-LN3056", "sectors": ["Transport"], "title": "CAREC CORRIDOR 3(BISHKEK-OSH RD)IMPROVEMENT PROJECT,PHASE 4", "status": "Implementation", "locationName": "Gorod Bishkek"}}, {"type": "Feature", "geometry": {"type": "Point", "coordinates": [74.59, 42.87]}, "properties": {"id": "46004-45169-001-LN3056", "sectors": ["Transport"], "title": "CAREC CORRIDOR 3(BISHKEK-OSH RD)IMPROVEMENT PROJECT,PHASE 4", "status": "Implementation", "locationName": "Bishkek"}}, {"type": "Feature", "geometry": {"type": "Point", "coordinates": [72.5, 41.5]}, "properties": {"id": "46004-45169-001-LN3056", "sectors": ["Transport"], "title": "CAREC CORRIDOR 3(BISHKEK-OSH RD)IMPROVEMENT PROJECT,PHASE 4", "status": "Implementation", "locationName": "Jalal-Abad"}}, {"type": "Feature", "geometry": {"type": "Point", "coordinates": [73.08, 40.37]}, "properties": {"id": "46004-45169-001-LN3056", "sectors": ["Transport"], "title": "CAREC CORRIDOR 3(BISHKEK-OSH RD)IMPROVEMENT PROJECT,PHASE 4", "status": "Implementation", "locationName": "Kara-Suu"}}, {"type": "Feature", "geometry": {"type": "Point", "coordinates": [73.79485, 42.74613]}, "properties": {"id": "46004-45169-001-LN3056", "sectors": ["Transport"], "title": "CAREC CORRIDOR 3(BISHKEK-OSH RD)IMPROVEMENT PROJECT,PHASE 4", "status": "Implementation", "locationName": "Jaiyl"}}, {"type": "Feature", "geometry": {"type": "Point", "coordinates": [72.80826, 40.51506]}, "properties": {"id": "46004-38298-023-GRNT0307", "sectors": ["Education"], "title": "2ND VOCATIONAL EDUCATION AND SKILLS DEVELOPMENT PR", "status": "Implementation", "locationName": "Osh"}}, {"type": "Feature", "geometry": {"type": "Point", "coordinates": [75.0, 41.5]}, "properties": {"id": "46004-38298-023-GRNT0307", "sectors": ["Education"], "title": "2ND VOCATIONAL EDUCATION AND SKILLS DEVELOPMENT PR", "status": "Implementation", "locationName": "Kyrgyzstan"}}, {"type": "Feature", "geometry": {"type": "Point", "coordinates": [74.59, 42.87]}, "properties": {"id": "46004-38298-023-GRNT0307", "sectors": ["Education"], "title": "2ND VOCATIONAL EDUCATION AND SKILLS DEVELOPMENT PR", "status": "Implementation", "locationName": "Bishkek"}}, {"type": "Feature", "geometry": {"type": "Point", "coordinates": [71.0, 39.83333]}, "properties": {"id": "46004-41544-082-GRNT0319", "sectors": ["Public sector management"], "title": "INVESTMENT CLIMATE IMPROVEMENT PROGRAM - SUBPROGRA", "status": "Completion", "locationName": "Batken"}}, {"type": "Feature", "geometry": {"type": "Point", "coordinates": [74.59, 42.87]}, "properties": {"id": "46004-41544-082-GRNT0319", "sectors": ["Public sector management"], "title": "INVESTMENT CLIMATE IMPROVEMENT PROGRAM - SUBPROGRA", "status": "Completion", "locationName": "Bishkek"}}, {"type": "Feature", "geometry": {"type": "Point", "coordinates": [74.5, 42.41667]}, "properties": {"id": "46004-41544-082-GRNT0319", "sectors": ["Public sector management"], "title": "INVESTMENT CLIMATE IMPROVEMENT PROGRAM - SUBPROGRA", "status": "Completion", "locationName": "Chuyskaya Oblast\u2019"}}, {"type": "Feature", "geometry": {"type": "Point", "coordinates": [78.0, 42.0]}, "properties": {"id": "46004-41544-082-GRNT0319", "sectors": ["Public sector management"], "title": "INVESTMENT CLIMATE IMPROVEMENT PROGRAM - SUBPROGRA", "status": "Completion", "locationName": "Issyk-Kul\u2019skaya Oblast\u2019"}}, {"type": "Feature", "geometry": {"type": "Point", "coordinates": [72.5, 41.5]}, "properties": {"id": "46004-41544-082-GRNT0319", "sectors": ["Public sector management"], "title": "INVESTMENT CLIMATE IMPROVEMENT PROGRAM - SUBPROGRA", "status": "Completion", "locationName": "Jalal-Abad"}}, {"type": "Feature", "geometry": {"type": "Point", "coordinates": [75.0, 41.5]}, "properties": {"id": "46004-41544-082-GRNT0319", "sectors": ["Public sector management"], "title": "INVESTMENT CLIMATE IMPROVEMENT PROGRAM - SUBPROGRA", "status": "Completion", "locationName": "Kyrgyzstan"}}, {"type": "Feature", "geometry": {"type": "Point", "coordinates": [75.96667, 41.43333]}, "properties": {"id": "46004-41544-082-GRNT0319", "sectors": ["Public sector management"], "title": "INVESTMENT CLIMATE IMPROVEMENT PROGRAM - SUBPROGRA", "status": "Completion", "locationName": "Naryn"}}, {"type": "Feature", "geometry": {"type": "Point", "coordinates": [73.0, 40.0]}, "properties": {"id": "46004-41544-082-GRNT0319", "sectors": ["Public sector management"], "title": "INVESTMENT CLIMATE IMPROVEMENT PROGRAM - SUBPROGRA", "status": "Completion", "locationName": "Osh Oblasty"}}, {"type": "Feature", "geometry": {"type": "Point", "coordinates": [72.0, 42.33333]}, "properties": {"id": "46004-41544-082-GRNT0319", "sectors": ["Public sector management"], "title": "INVESTMENT CLIMATE IMPROVEMENT PROGRAM - SUBPROGRA", "status": "Completion", "locationName": "Talas"}}, {"type": "Feature", "geometry": {"type": "Point", "coordinates": [71.79254, 39.48564]}, "properties": {"id": "46004-46124-001-GRNT0340", "sectors": ["Finance"], "title": "CAREC REGIONAL IMPROVEMENT OF BORDER SERVICES PROJ", "status": "Implementation", "locationName": "Karamyk"}}, {"type": "Feature", "geometry": {"type": "Point", "coordinates": [70.7265, 40.12238]}, "properties": {"id": "46004-46124-001-GRNT0340", "sectors": ["Finance"], "title": "CAREC REGIONAL IMPROVEMENT OF BORDER SERVICES PROJ", "status": "Implementation", "locationName": "Guliston"}}, {"type": "Feature", "geometry": {"type": "Point", "coordinates": [72.80826, 40.51506]}, "properties": {"id": "46004-45169-001-GRNT0366", "sectors": ["Transport"], "title": "CAREC CORRIDOR 3(BISHKEK-OSH ROAD)IMPROVEMENT PROJ", "status": "Implementation", "locationName": "Osh"}}, {"type": "Feature", "geometry": {"type": "Point", "coordinates": [72.86674, 40.59041]}, "properties": {"id": "46004-45169-001-GRNT0366", "sectors": ["Transport"], "title": "CAREC CORRIDOR 3(BISHKEK-OSH ROAD)IMPROVEMENT PROJ", "status": "Implementation", "locationName": "Madaniyat"}}, {"type": "Feature", "geometry": {"type": "Point", "coordinates": [73.84813, 42.81423]}, "properties": {"id": "46004-45169-001-GRNT0366", "sectors": ["Transport"], "title": "CAREC CORRIDOR 3(BISHKEK-OSH ROAD)IMPROVEMENT PROJ", "status": "Implementation", "locationName": "Kara-Balta"}}, {"type": "Feature", "geometry": {"type": "Point", "coordinates": [73.0, 40.93333]}, "properties": {"id": "46004-45169-001-GRNT0366", "sectors": ["Transport"], "title": "CAREC CORRIDOR 3(BISHKEK-OSH ROAD)IMPROVEMENT PROJ", "status": "Implementation", "locationName": "Jalal-Abad"}}, {"type": "Feature", "geometry": {"type": "Point", "coordinates": [74.60022, 42.87781]}, "properties": {"id": "46004-45169-001-GRNT0366", "sectors": ["Transport"], "title": "CAREC CORRIDOR 3(BISHKEK-OSH ROAD)IMPROVEMENT PROJ", "status": "Implementation", "locationName": "Gorod Bishkek"}}, {"type": "Feature", "geometry": {"type": "Point", "coordinates": [74.59, 42.87]}, "properties": {"id": "46004-45169-001-GRNT0366", "sectors": ["Transport"], "title": "CAREC CORRIDOR 3(BISHKEK-OSH ROAD)IMPROVEMENT PROJ", "status": "Implementation", "locationName": "Bishkek"}}, {"type": "Feature", "geometry": {"type": "Point", "coordinates": [72.5, 41.5]}, "properties": {"id": "46004-45169-001-GRNT0366", "sectors": ["Transport"], "title": "CAREC CORRIDOR 3(BISHKEK-OSH ROAD)IMPROVEMENT PROJ", "status": "Implementation", "locationName": "Jalal-Abad"}}, {"type": "Feature", "geometry": {"type": "Point", "coordinates": [73.08, 40.37]}, "properties": {"id": "46004-45169-001-GRNT0366", "sectors": ["Transport"], "title": "CAREC CORRIDOR 3(BISHKEK-OSH ROAD)IMPROVEMENT PROJ", "status": "Implementation", "locationName": "Kara-Suu"}}, {"type": "Feature", "geometry": {"type": "Point", "coordinates": [73.79485, 42.74613]}, "properties": {"id": "46004-45169-001-GRNT0366", "sectors": ["Transport"], "title": "CAREC CORRIDOR 3(BISHKEK-OSH ROAD)IMPROVEMENT PROJ", "status": "Implementation", "locationName": "Jaiyl"}}, {"type": "Feature", "geometry": {"type": "Point", "coordinates": [76.18709, 42.46017]}, "properties": {"id": "46004-38298-022-GRNT0074", "sectors": ["Education"], "title": "VOCATIONAL EDUCATION & SKILLS DEVELOPMENT", "status": "Completion", "locationName": "Balykchy"}}, {"type": "Feature", "geometry": {"type": "Point", "coordinates": [71.0, 39.83333]}, "properties": {"id": "46004-38298-022-GRNT0074", "sectors": ["Education"], "title": "VOCATIONAL EDUCATION & SKILLS DEVELOPMENT", "status": "Completion", "locationName": "Batken"}}, {"type": "Feature", "geometry": {"type": "Point", "coordinates": [70.81939, 40.06259]}, "properties": {"id": "46004-38298-022-GRNT0074", "sectors": ["Education"], "title": "VOCATIONAL EDUCATION & SKILLS DEVELOPMENT", "status": "Completion", "locationName": "Batken"}}, {"type": "Feature", "geometry": {"type": "Point", "coordinates": [72.74586, 41.0376]}, "properties": {"id": "46004-38298-022-GRNT0074", "sectors": ["Education"], "title": "VOCATIONAL EDUCATION & SKILLS DEVELOPMENT", "status": "Completion", "locationName": "Bazar-Korgon"}}, {"type": "Feature", "geometry": {"type": "Point", "coordinates": [74.59, 42.87]}, "properties": {"id": "46004-38298-022-GRNT0074", "sectors": ["Education"], "title": "VOCATIONAL EDUCATION & SKILLS DEVELOPMENT", "status": "Completion", "locationName": "Bishkek"}}, {"type": "Feature", "geometry": {"type": "Point", "coordinates": [74.5, 42.41667]}, "properties": {"id": "46004-38298-022-GRNT0074", "sectors": ["Education"], "title": "VOCATIONAL EDUCATION & SKILLS DEVELOPMENT", "status": "Completion", "locationName": "Chuyskaya Oblast\u2019"}}, {"type": "Feature", "geometry": {"type": "Point", "coordinates": [73.44418, 40.3138]}, "properties": {"id": "46004-38298-022-GRNT0074", "sectors": ["Education"], "title": "VOCATIONAL EDUCATION & SKILLS DEVELOPMENT", "status": "Completion", "locationName": "Gul\u2019cha"}}, {"type": "Feature", "geometry": {"type": "Point", "coordinates": [78.0, 42.0]}, "properties": {"id": "46004-38298-022-GRNT0074", "sectors": ["Education"], "title": "VOCATIONAL EDUCATION & SKILLS DEVELOPMENT", "status": "Completion", "locationName": "Issyk-Kul\u2019skaya Oblast\u2019"}}, {"type": "Feature", "geometry": {"type": "Point", "coordinates": [72.5, 41.5]}, "properties": {"id": "46004-38298-022-GRNT0074", "sectors": ["Education"], "title": "VOCATIONAL EDUCATION & SKILLS DEVELOPMENT", "status": "Completion", "locationName": "Jalal-Abad"}}, {"type": "Feature", "geometry": {"type": "Point", "coordinates": [73.0, 40.93333]}, "properties": {"id": "46004-38298-022-GRNT0074", "sectors": ["Education"], "title": "VOCATIONAL EDUCATION & SKILLS DEVELOPMENT", "status": "Completion", "locationName": "Jalal-Abad"}}, {"type": "Feature", "geometry": {"type": "Point", "coordinates": [73.67585, 42.82469]}, "properties": {"id": "46004-38298-022-GRNT0074", "sectors": ["Education"], "title": "VOCATIONAL EDUCATION & SKILLS DEVELOPMENT", "status": "Completion", "locationName": "Kaindy"}}, {"type": "Feature", "geometry": {"type": "Point", "coordinates": [73.84813, 42.81423]}, "properties": {"id": "46004-38298-022-GRNT0074", "sectors": ["Education"], "title": "VOCATIONAL EDUCATION & SKILLS DEVELOPMENT", "status": "Completion", "locationName": "Kara-Balta"}}, {"type": "Feature", "geometry": {"type": "Point", "coordinates": [78.39362, 42.49068]}, "properties": {"id": "46004-38298-022-GRNT0074", "sectors": ["Education"], "title": "VOCATIONAL EDUCATION & SKILLS DEVELOPMENT", "status": "Completion", "locationName": "Karakol"}}, {"type": "Feature", "geometry": {"type": "Point", "coordinates": [72.67027, 41.62828]}, "properties": {"id": "46004-38298-022-GRNT0074", "sectors": ["Education"], "title": "VOCATIONAL EDUCATION & SKILLS DEVELOPMENT", "status": "Completion", "locationName": "Kara-Kul\u2019"}}, {"type": "Feature", "geometry": {"type": "Point", "coordinates": [72.12793, 40.25684]}, "properties": {"id": "46004-38298-022-GRNT0074", "sectors": ["Education"], "title": "VOCATIONAL EDUCATION & SKILLS DEVELOPMENT", "status": "Completion", "locationName": "Kzyl-Kiya"}}, {"type": "Feature", "geometry": {"type": "Point", "coordinates": [71.21228, 42.68108]}, "properties": {"id": "46004-38298-022-GRNT0074", "sectors": ["Education"], "title": "VOCATIONAL EDUCATION & SKILLS DEVELOPMENT", "status": "Completion", "locationName": "Maymak"}}, {"type": "Feature", "geometry": {"type": "Point", "coordinates": [75.96667, 41.43333]}, "properties": {"id": "46004-38298-022-GRNT0074", "sectors": ["Education"], "title": "VOCATIONAL EDUCATION & SKILLS DEVELOPMENT", "status": "Completion", "locationName": "Naryn"}}, {"type": "Feature", "geometry": {"type": "Point", "coordinates": [75.99111, 41.42866]}, "properties": {"id": "46004-38298-022-GRNT0074", "sectors": ["Education"], "title": "VOCATIONAL EDUCATION & SKILLS DEVELOPMENT", "status": "Completion", "locationName": "Naryn"}}, {"type": "Feature", "geometry": {"type": "Point", "coordinates": [72.80826, 40.51506]}, "properties": {"id": "46004-38298-022-GRNT0074", "sectors": ["Education"], "title": "VOCATIONAL EDUCATION & SKILLS DEVELOPMENT", "status": "Completion", "locationName": "Osh"}}, {"type": "Feature", "geometry": {"type": "Point", "coordinates": [73.0, 40.0]}, "properties": {"id": "46004-38298-022-GRNT0074", "sectors": ["Education"], "title": "VOCATIONAL EDUCATION & SKILLS DEVELOPMENT", "status": "Completion", "locationName": "Osh Oblasty"}}, {"type": "Feature", "geometry": {"type": "Point", "coordinates": [69.56779, 39.93652]}, "properties": {"id": "46004-38298-022-GRNT0074", "sectors": ["Education"], "title": "VOCATIONAL EDUCATION & SKILLS DEVELOPMENT", "status": "Completion", "locationName": "Sulyukta"}}, {"type": "Feature", "geometry": {"type": "Point", "coordinates": [72.0, 42.33333]}, "properties": {"id": "46004-38298-022-GRNT0074", "sectors": ["Education"], "title": "VOCATIONAL EDUCATION & SKILLS DEVELOPMENT", "status": "Completion", "locationName": "Talas"}}, {"type": "Feature", "geometry": {"type": "Point", "coordinates": [72.24274, 42.52277]}, "properties": {"id": "46004-38298-022-GRNT0074", "sectors": ["Education"], "title": "VOCATIONAL EDUCATION & SKILLS DEVELOPMENT", "status": "Completion", "locationName": "Talas"}}, {"type": "Feature", "geometry": {"type": "Point", "coordinates": [76.27108, 41.56807]}, "properties": {"id": "46004-38298-022-GRNT0074", "sectors": ["Education"], "title": "VOCATIONAL EDUCATION & SKILLS DEVELOPMENT", "status": "Completion", "locationName": "Tien Shan"}}, {"type": "Feature", "geometry": {"type": "Point", "coordinates": [75.30149, 42.84194]}, "properties": {"id": "46004-38298-022-GRNT0074", "sectors": ["Education"], "title": "VOCATIONAL EDUCATION & SKILLS DEVELOPMENT", "status": "Completion", "locationName": "Tokmok"}}, {"type": "Feature", "geometry": {"type": "Point", "coordinates": [72.9402, 41.87079]}, "properties": {"id": "46004-38298-022-GRNT0074", "sectors": ["Education"], "title": "VOCATIONAL EDUCATION & SKILLS DEVELOPMENT", "status": "Completion", "locationName": "Toktogul"}}, {"type": "Feature", "geometry": {"type": "Point", "coordinates": [73.30068, 40.76994]}, "properties": {"id": "46004-38298-022-GRNT0074", "sectors": ["Education"], "title": "VOCATIONAL EDUCATION & SKILLS DEVELOPMENT", "status": "Completion", "locationName": "Uzgen"}}, {"type": "Feature", "geometry": {"type": "Point", "coordinates": [77.18344, 42.70959]}, "properties": {"id": "46004-38298-022-GRNT0074", "sectors": ["Education"], "title": "VOCATIONAL EDUCATION & SKILLS DEVELOPMENT", "status": "Completion", "locationName": "Ysyk-K\u00f6l"}}, {"type": "Feature", "geometry": {"type": "Point", "coordinates": [69.56779, 39.93652]}, "properties": {"id": "46004-39015-042-GRNT0077", "sectors": ["Public sector management"], "title": "TAX ADMINISTRATION REFORM AND MODERNIZATION PROJEC", "status": "Completion", "locationName": "Sulyukta"}}, {"type": "Feature", "geometry": {"type": "Point", "coordinates": [69.75, 39.83333]}, "properties": {"id": "46004-39015-042-GRNT0077", "sectors": ["Public sector management"], "title": "TAX ADMINISTRATION REFORM AND MODERNIZATION PROJEC", "status": "Completion", "locationName": "Lyaylyakskiy Rayon"}}, {"type": "Feature", "geometry": {"type": "Point", "coordinates": [71.58333, 40.0]}, "properties": {"id": "46004-39015-042-GRNT0077", "sectors": ["Public sector management"], "title": "TAX ADMINISTRATION REFORM AND MODERNIZATION PROJEC", "status": "Completion", "locationName": "Kadamjaiskiy Raion"}}, {"type": "Feature", "geometry": {"type": "Point", "coordinates": [71.0, 39.75]}, "properties": {"id": "46004-39015-042-GRNT0077", "sectors": ["Public sector management"], "title": "TAX ADMINISTRATION REFORM AND MODERNIZATION PROJEC", "status": "Completion", "locationName": "Batkenskiy Rayon"}}, {"type": "Feature", "geometry": {"type": "Point", "coordinates": [78.5, 42.75]}, "properties": {"id": "46004-39015-042-GRNT0077", "sectors": ["Public sector management"], "title": "TAX ADMINISTRATION REFORM AND MODERNIZATION PROJEC", "status": "Completion", "locationName": "Tyupskiy Rayon"}}, {"type": "Feature", "geometry": {"type": "Point", "coordinates": [75.30149, 42.84194]}, "properties": {"id": "46004-39015-042-GRNT0077", "sectors": ["Public sector management"], "title": "TAX ADMINISTRATION REFORM AND MODERNIZATION PROJEC", "status": "Completion", "locationName": "Tokmok"}}, {"type": "Feature", "geometry": {"type": "Point", "coordinates": [72.24274, 42.52277]}, "properties": {"id": "46004-39015-042-GRNT0077", "sectors": ["Public sector management"], "title": "TAX ADMINISTRATION REFORM AND MODERNIZATION PROJEC", "status": "Completion", "locationName": "Talas"}}, {"type": "Feature", "geometry": {"type": "Point", "coordinates": [74.33333, 42.83333]}, "properties": {"id": "46004-39015-042-GRNT0077", "sectors": ["Public sector management"], "title": "TAX ADMINISTRATION REFORM AND MODERNIZATION PROJEC", "status": "Completion", "locationName": "Sokuluk"}}, {"type": "Feature", "geometry": {"type": "Point", "coordinates": [73.30068, 40.76994]}, "properties": {"id": "46004-39015-042-GRNT0077", "sectors": ["Public sector management"], "title": "TAX ADMINISTRATION REFORM AND MODERNIZATION PROJEC", "status": "Completion", "locationName": "Uzgen"}}, {"type": "Feature", "geometry": {"type": "Point", "coordinates": [72.80826, 40.51506]}, "properties": {"id": "46004-39015-042-GRNT0077", "sectors": ["Public sector management"], "title": "TAX ADMINISTRATION REFORM AND MODERNIZATION PROJEC", "status": "Completion", "locationName": "Osh"}}, {"type": "Feature", "geometry": {"type": "Point", "coordinates": [75.99111, 41.42866]}, "properties": {"id": "46004-39015-042-GRNT0077", "sectors": ["Public sector management"], "title": "TAX ADMINISTRATION REFORM AND MODERNIZATION PROJEC", "status": "Completion", "locationName": "Naryn"}}, {"type": "Feature", "geometry": {"type": "Point", "coordinates": [72.12793, 40.25684]}, "properties": {"id": "46004-39015-042-GRNT0077", "sectors": ["Public sector management"], "title": "TAX ADMINISTRATION REFORM AND MODERNIZATION PROJEC", "status": "Completion", "locationName": "Kzyl-Kiya"}}, {"type": "Feature", "geometry": {"type": "Point", "coordinates": [76.3326, 42.83349]}, "properties": {"id": "46004-39015-042-GRNT0077", "sectors": ["Public sector management"], "title": "TAX ADMINISTRATION REFORM AND MODERNIZATION PROJEC", "status": "Completion", "locationName": "Kemin"}}, {"type": "Feature", "geometry": {"type": "Point", "coordinates": [78.39362, 42.49068]}, "properties": {"id": "46004-39015-042-GRNT0077", "sectors": ["Public sector management"], "title": "TAX ADMINISTRATION REFORM AND MODERNIZATION PROJEC", "status": "Completion", "locationName": "Karakol"}}, {"type": "Feature", "geometry": {"type": "Point", "coordinates": [73.0, 40.93333]}, "properties": {"id": "46004-39015-042-GRNT0077", "sectors": ["Public sector management"], "title": "TAX ADMINISTRATION REFORM AND MODERNIZATION PROJEC", "status": "Completion", "locationName": "Jalal-Abad"}}, {"type": "Feature", "geometry": {"type": "Point", "coordinates": [70.81939, 40.06259]}, "properties": {"id": "46004-39015-042-GRNT0077", "sectors": ["Public sector management"], "title": "TAX ADMINISTRATION REFORM AND MODERNIZATION PROJEC", "status": "Completion", "locationName": "Batken"}}, {"type": "Feature", "geometry": {"type": "Point", "coordinates": [74.63333, 42.9]}, "properties": {"id": "46004-39015-042-GRNT0077", "sectors": ["Public sector management"], "title": "TAX ADMINISTRATION REFORM AND MODERNIZATION PROJEC", "status": "Completion", "locationName": "Alamedinskiy Rayon"}}, {"type": "Feature", "geometry": {"type": "Point", "coordinates": [74.964, 42.636]}, "properties": {"id": "46004-39015-042-GRNT0077", "sectors": ["Public sector management"], "title": "TAX ADMINISTRATION REFORM AND MODERNIZATION PROJEC", "status": "Completion", "locationName": "Ysyk-Ata"}}, {"type": "Feature", "geometry": {"type": "Point", "coordinates": [73.08, 40.37]}, "properties": {"id": "46004-39015-042-GRNT0077", "sectors": ["Public sector management"], "title": "TAX ADMINISTRATION REFORM AND MODERNIZATION PROJEC", "status": "Completion", "locationName": "Kara-Suu"}}, {"type": "Feature", "geometry": {"type": "Point", "coordinates": [72.68, 40.07]}, "properties": {"id": "46004-39015-042-GRNT0077", "sectors": ["Public sector management"], "title": "TAX ADMINISTRATION REFORM AND MODERNIZATION PROJEC", "status": "Completion", "locationName": "Nookat"}}, {"type": "Feature", "geometry": {"type": "Point", "coordinates": [77.86308, 42.05302]}, "properties": {"id": "46004-39015-042-GRNT0077", "sectors": ["Public sector management"], "title": "TAX ADMINISTRATION REFORM AND MODERNIZATION PROJEC", "status": "Completion", "locationName": "Jety-\u00d6g\u00fcz"}}, {"type": "Feature", "geometry": {"type": "Point", "coordinates": [74.26057, 42.7957]}, "properties": {"id": "46004-39015-042-GRNT0077", "sectors": ["Public sector management"], "title": "TAX ADMINISTRATION REFORM AND MODERNIZATION PROJEC", "status": "Completion", "locationName": "Oktyabr\u2019"}}, {"type": "Feature", "geometry": {"type": "Point", "coordinates": [78.99135, 42.19937]}, "properties": {"id": "46004-39015-042-GRNT0077", "sectors": ["Public sector management"], "title": "TAX ADMINISTRATION REFORM AND MODERNIZATION PROJEC", "status": "Completion", "locationName": "Ak-Suu"}}, {"type": "Feature", "geometry": {"type": "Point", "coordinates": [71.0, 39.0]}, "properties": {"id": "46004-39676-023-GRNT0084", "sectors": ["Transport"], "title": "CAREC REGIONAL ROAD CORRIDOR IMPROVEMENT PROJECT (", "status": "Completion", "locationName": "Tajikistan"}}, {"type": "Feature", "geometry": {"type": "Point", "coordinates": [70.67358, 39.10055]}, "properties": {"id": "46004-39676-023-GRNT0084", "sectors": ["Transport"], "title": "CAREC REGIONAL ROAD CORRIDOR IMPROVEMENT PROJECT (", "status": "Completion", "locationName": "Nimichi-Poy\u00ebn"}}, {"type": "Feature", "geometry": {"type": "Point", "coordinates": [71.19155, 39.21966]}, "properties": {"id": "46004-39676-023-GRNT0084", "sectors": ["Transport"], "title": "CAREC REGIONAL ROAD CORRIDOR IMPROVEMENT PROJECT (", "status": "Completion", "locationName": "Jirghatol"}}, {"type": "Feature", "geometry": {"type": "Point", "coordinates": [68.77905, 38.53575]}, "properties": {"id": "46004-39676-023-GRNT0084", "sectors": ["Transport"], "title": "CAREC REGIONAL ROAD CORRIDOR IMPROVEMENT PROJECT (", "status": "Completion", "locationName": "Dushanbe"}}, {"type": "Feature", "geometry": {"type": "Point", "coordinates": [73.24836, 39.72883]}, "properties": {"id": "46004-39676-023-GRNT0084", "sectors": ["Transport"], "title": "CAREC REGIONAL ROAD CORRIDOR IMPROVEMENT PROJECT (", "status": "Completion", "locationName": "Sary-Tash"}}, {"type": "Feature", "geometry": {"type": "Point", "coordinates": [73.89872, 39.67925]}, "properties": {"id": "46004-39676-023-GRNT0084", "sectors": ["Transport"], "title": "CAREC REGIONAL ROAD CORRIDOR IMPROVEMENT PROJECT (", "status": "Completion", "locationName": "Irkeshtam"}}, {"type": "Feature", "geometry": {"type": "Point", "coordinates": [72.20518, 39.55274]}, "properties": {"id": "46004-39676-023-GRNT0084", "sectors": ["Transport"], "title": "CAREC REGIONAL ROAD CORRIDOR IMPROVEMENT PROJECT (", "status": "Completion", "locationName": "Daroot-Korgon"}}, {"type": "Feature", "geometry": {"type": "Point", "coordinates": [75.0, 41.5]}, "properties": {"id": "46004-39676-023-GRNT0084", "sectors": ["Transport"], "title": "CAREC REGIONAL ROAD CORRIDOR IMPROVEMENT PROJECT (", "status": "Completion", "locationName": "Kyrgyzstan"}}, {"type": "Feature", "geometry": {"type": "Point", "coordinates": [105.0, 35.0]}, "properties": {"id": "46004-39676-023-GRNT0084", "sectors": ["Transport"], "title": "CAREC REGIONAL ROAD CORRIDOR IMPROVEMENT PROJECT (", "status": "Completion", "locationName": "China"}}, {"type": "Feature", "geometry": {"type": "Point", "coordinates": [70.35998, 39.23491]}, "properties": {"id": "46004-39676-023-GRNT0084", "sectors": ["Transport"], "title": "CAREC REGIONAL ROAD CORRIDOR IMPROVEMENT PROJECT (", "status": "Completion", "locationName": "Nohiyai Rasht"}}, {"type": "Feature", "geometry": {"type": "Point", "coordinates": [71.57632, 39.291]}, "properties": {"id": "46004-39676-023-GRNT0084", "sectors": ["Transport"], "title": "CAREC REGIONAL ROAD CORRIDOR IMPROVEMENT PROJECT (", "status": "Completion", "locationName": "Nohiyai Jirghatol"}}, {"type": "Feature", "geometry": {"type": "Point", "coordinates": [71.79254, 39.48564]}, "properties": {"id": "46004-39676-023-GRNT0084", "sectors": ["Transport"], "title": "CAREC REGIONAL ROAD CORRIDOR IMPROVEMENT PROJECT (", "status": "Completion", "locationName": "Karamyk"}}, {"type": "Feature", "geometry": {"type": "Point", "coordinates": [73.55941, 39.85862]}, "properties": {"id": "46004-39676-023-GRNT0084", "sectors": ["Transport"], "title": "CAREC REGIONAL ROAD CORRIDOR IMPROVEMENT PROJECT (", "status": "Completion", "locationName": "Alay District"}}, {"type": "Feature", "geometry": {"type": "Point", "coordinates": [72.2001, 39.552]}, "properties": {"id": "46004-39676-023-GRNT0084", "sectors": ["Transport"], "title": "CAREC REGIONAL ROAD CORRIDOR IMPROVEMENT PROJECT (", "status": "Completion", "locationName": "Chong-Alay"}}], "properties": {"bounds": [69.22629602000012, 39.189236959000084, 80.2575606690001, 43.261701558000084], "name": "Kyrgyz Republic"}}