{"id": "KH", "type": "FeatureCollection", "features": [{"type": "Feature", "geometry": {"type": "Point", "coordinates": [103.66667, 12.33333]}, "properties": {"id": "46004-42186-013-GRNT0116", "sectors": ["Agriculture, natural resources and rural development"], "title": "EMERGENCY FOOD ASSISTANCE PROJECT", "status": "Implementation", "locationName": "Pursat"}}, {"type": "Feature", "geometry": {"type": "Point", "coordinates": [103.08333, 12.91667]}, "properties": {"id": "46004-42186-013-GRNT0116", "sectors": ["Agriculture, natural resources and rural development"], "title": "EMERGENCY FOOD ASSISTANCE PROJECT", "status": "Implementation", "locationName": "Battambang"}}, {"type": "Feature", "geometry": {"type": "Point", "coordinates": [103.5, 14.16667]}, "properties": {"id": "46004-42186-013-GRNT0116", "sectors": ["Agriculture, natural resources and rural development"], "title": "EMERGENCY FOOD ASSISTANCE PROJECT", "status": "Implementation", "locationName": "\u014et\u00e2r M\u00e9anchey"}}, {"type": "Feature", "geometry": {"type": "Point", "coordinates": [104.0, 13.5]}, "properties": {"id": "46004-42186-013-GRNT0116", "sectors": ["Agriculture, natural resources and rural development"], "title": "EMERGENCY FOOD ASSISTANCE PROJECT", "status": "Implementation", "locationName": "Siem Reap"}}, {"type": "Feature", "geometry": {"type": "Point", "coordinates": [105.0, 12.83333]}, "properties": {"id": "46004-42186-013-GRNT0116", "sectors": ["Agriculture, natural resources and rural development"], "title": "EMERGENCY FOOD ASSISTANCE PROJECT", "status": "Implementation", "locationName": "Kampong Thom"}}, {"type": "Feature", "geometry": {"type": "Point", "coordinates": [104.55, 12.16667]}, "properties": {"id": "46004-42186-013-GRNT0116", "sectors": ["Agriculture, natural resources and rural development"], "title": "EMERGENCY FOOD ASSISTANCE PROJECT", "status": "Implementation", "locationName": "Kampong Chhnang"}}, {"type": "Feature", "geometry": {"type": "Point", "coordinates": [103.0, 13.75]}, "properties": {"id": "46004-42186-013-GRNT0116", "sectors": ["Agriculture, natural resources and rural development"], "title": "EMERGENCY FOOD ASSISTANCE PROJECT", "status": "Implementation", "locationName": "Banteay Meanchey"}}, {"type": "Feature", "geometry": {"type": "Point", "coordinates": [105.0, 13.0]}, "properties": {"id": "46004-41373-012-GRNT0132", "sectors": ["Public sector management"], "title": "PUBLIC FINANCIAL MANAGEMENT FOR RURAL DEVELOPMENT", "status": "Completion", "locationName": "Cambodia"}}, {"type": "Feature", "geometry": {"type": "Point", "coordinates": [105.0, 13.0]}, "properties": {"id": "46004-41373-012-GRNT0133", "sectors": ["Public sector management"], "title": "PUBLIC FINANCIAL MANAGEMENT FOR RURAL DEVELOPMENT", "status": "Completion", "locationName": "Cambodia"}}, {"type": "Feature", "geometry": {"type": "Point", "coordinates": [105.0, 13.0]}, "properties": {"id": "46004-38421-013-GRNT0136", "sectors": ["Public sector management"], "title": "SANITARY & PHYTOSANITARY STANDARDS MANAGEMENT SYST", "status": "Completion", "locationName": "Cambodia"}}, {"type": "Feature", "geometry": {"type": "Point", "coordinates": [103.66667, 12.33333]}, "properties": {"id": "46004-38560-022-GRNT0156", "sectors": ["Water supply and other urban infrastructure and services"], "title": "SECOND RURAL WATER SUPPLY AND SANITATION PROJECT", "status": "Implementation", "locationName": "Pursat"}}, {"type": "Feature", "geometry": {"type": "Point", "coordinates": [103.08333, 12.91667]}, "properties": {"id": "46004-38560-022-GRNT0156", "sectors": ["Water supply and other urban infrastructure and services"], "title": "SECOND RURAL WATER SUPPLY AND SANITATION PROJECT", "status": "Implementation", "locationName": "Battambang"}}, {"type": "Feature", "geometry": {"type": "Point", "coordinates": [103.65238, 12.49167]}, "properties": {"id": "46004-38560-022-GRNT0156", "sectors": ["Water supply and other urban infrastructure and services"], "title": "SECOND RURAL WATER SUPPLY AND SANITATION PROJECT", "status": "Implementation", "locationName": "Ta Lo\u016d"}}, {"type": "Feature", "geometry": {"type": "Point", "coordinates": [102.96232, 13.80208]}, "properties": {"id": "46004-38560-022-GRNT0156", "sectors": ["Water supply and other urban infrastructure and services"], "title": "SECOND RURAL WATER SUPPLY AND SANITATION PROJECT", "status": "Implementation", "locationName": "Svay Ch\u00e9k"}}, {"type": "Feature", "geometry": {"type": "Point", "coordinates": [104.0, 13.5]}, "properties": {"id": "46004-38560-022-GRNT0156", "sectors": ["Water supply and other urban infrastructure and services"], "title": "SECOND RURAL WATER SUPPLY AND SANITATION PROJECT", "status": "Implementation", "locationName": "Siem Reap"}}, {"type": "Feature", "geometry": {"type": "Point", "coordinates": [105.28333, 13.08333]}, "properties": {"id": "46004-38560-022-GRNT0156", "sectors": ["Water supply and other urban infrastructure and services"], "title": "SECOND RURAL WATER SUPPLY AND SANITATION PROJECT", "status": "Implementation", "locationName": "Sr\u014fk S\u00e2nd\u0103n"}}, {"type": "Feature", "geometry": {"type": "Point", "coordinates": [104.62549, 12.39014]}, "properties": {"id": "46004-38560-022-GRNT0156", "sectors": ["Water supply and other urban infrastructure and services"], "title": "SECOND RURAL WATER SUPPLY AND SANITATION PROJECT", "status": "Implementation", "locationName": "Pr\u00e2lay M\u00e9as"}}, {"type": "Feature", "geometry": {"type": "Point", "coordinates": [103.04799, 13.77239]}, "properties": {"id": "46004-38560-022-GRNT0156", "sectors": ["Water supply and other urban infrastructure and services"], "title": "SECOND RURAL WATER SUPPLY AND SANITATION PROJECT", "status": "Implementation", "locationName": "Phum\u012d Ta Pho"}}, {"type": "Feature", "geometry": {"type": "Point", "coordinates": [103.06146, 13.06003]}, "properties": {"id": "46004-38560-022-GRNT0156", "sectors": ["Water supply and other urban infrastructure and services"], "title": "SECOND RURAL WATER SUPPLY AND SANITATION PROJECT", "status": "Implementation", "locationName": "Phum\u012d Ta Kr\u00e9am"}}, {"type": "Feature", "geometry": {"type": "Point", "coordinates": [103.05094, 12.96835]}, "properties": {"id": "46004-38560-022-GRNT0156", "sectors": ["Water supply and other urban infrastructure and services"], "title": "SECOND RURAL WATER SUPPLY AND SANITATION PROJECT", "status": "Implementation", "locationName": "Phum\u012d Sn\u0153\u0306ng"}}, {"type": "Feature", "geometry": {"type": "Point", "coordinates": [102.94157, 13.7536]}, "properties": {"id": "46004-38560-022-GRNT0156", "sectors": ["Water supply and other urban infrastructure and services"], "title": "SECOND RURAL WATER SUPPLY AND SANITATION PROJECT", "status": "Implementation", "locationName": "Phum\u012d Sala Kra\u00f4m"}}, {"type": "Feature", "geometry": {"type": "Point", "coordinates": [104.04207, 13.40432]}, "properties": {"id": "46004-38560-022-GRNT0156", "sectors": ["Water supply and other urban infrastructure and services"], "title": "SECOND RURAL WATER SUPPLY AND SANITATION PROJECT", "status": "Implementation", "locationName": "Phum\u012d P\u00f4p\u00e9l"}}, {"type": "Feature", "geometry": {"type": "Point", "coordinates": [103.10066, 13.02956]}, "properties": {"id": "46004-38560-022-GRNT0156", "sectors": ["Water supply and other urban infrastructure and services"], "title": "SECOND RURAL WATER SUPPLY AND SANITATION PROJECT", "status": "Implementation", "locationName": "Phum\u012d Phnum S\u00e2mp\u014fu"}}, {"type": "Feature", "geometry": {"type": "Point", "coordinates": [103.12646, 13.83298]}, "properties": {"id": "46004-38560-022-GRNT0156", "sectors": ["Water supply and other urban infrastructure and services"], "title": "SECOND RURAL WATER SUPPLY AND SANITATION PROJECT", "status": "Implementation", "locationName": "Phum\u012d Phk\u014f\u00e2m"}}, {"type": "Feature", "geometry": {"type": "Point", "coordinates": [103.67077, 12.66138]}, "properties": {"id": "46004-38560-022-GRNT0156", "sectors": ["Water supply and other urban infrastructure and services"], "title": "SECOND RURAL WATER SUPPLY AND SANITATION PROJECT", "status": "Implementation", "locationName": "Phum\u012d O Ta Pa\u00f4ng"}}, {"type": "Feature", "geometry": {"type": "Point", "coordinates": [105.19357, 13.06685]}, "properties": {"id": "46004-38560-022-GRNT0156", "sectors": ["Water supply and other urban infrastructure and services"], "title": "SECOND RURAL WATER SUPPLY AND SANITATION PROJECT", "status": "Implementation", "locationName": "Phum\u012d Ng\u00f4n"}}, {"type": "Feature", "geometry": {"type": "Point", "coordinates": [103.39833, 13.84706]}, "properties": {"id": "46004-38560-022-GRNT0156", "sectors": ["Water supply and other urban infrastructure and services"], "title": "SECOND RURAL WATER SUPPLY AND SANITATION PROJECT", "status": "Implementation", "locationName": "Phum\u012d N\u0103m Tau"}}, {"type": "Feature", "geometry": {"type": "Point", "coordinates": [105.24463, 12.47562]}, "properties": {"id": "46004-38560-022-GRNT0156", "sectors": ["Water supply and other urban infrastructure and services"], "title": "SECOND RURAL WATER SUPPLY AND SANITATION PROJECT", "status": "Implementation", "locationName": "Phum\u012d Kr\u00e2va"}}, {"type": "Feature", "geometry": {"type": "Point", "coordinates": [102.94465, 13.99766]}, "properties": {"id": "46004-38560-022-GRNT0156", "sectors": ["Water supply and other urban infrastructure and services"], "title": "SECOND RURAL WATER SUPPLY AND SANITATION PROJECT", "status": "Implementation", "locationName": "Phum\u012d Ko\u016dk R\u00f4mi\u0115t"}}, {"type": "Feature", "geometry": {"type": "Point", "coordinates": [105.4, 12.46667]}, "properties": {"id": "46004-38560-022-GRNT0156", "sectors": ["Water supply and other urban infrastructure and services"], "title": "SECOND RURAL WATER SUPPLY AND SANITATION PROJECT", "status": "Implementation", "locationName": "Phum\u012d K\u00f4kir Thum"}}, {"type": "Feature", "geometry": {"type": "Point", "coordinates": [104.48213, 13.41418]}, "properties": {"id": "46004-38560-022-GRNT0156", "sectors": ["Water supply and other urban infrastructure and services"], "title": "SECOND RURAL WATER SUPPLY AND SANITATION PROJECT", "status": "Implementation", "locationName": "Phum\u012d Khvav"}}, {"type": "Feature", "geometry": {"type": "Point", "coordinates": [104.22309, 12.52515]}, "properties": {"id": "46004-38560-022-GRNT0156", "sectors": ["Water supply and other urban infrastructure and services"], "title": "SECOND RURAL WATER SUPPLY AND SANITATION PROJECT", "status": "Implementation", "locationName": "Phum\u012d Kbal Trach"}}, {"type": "Feature", "geometry": {"type": "Point", "coordinates": [103.68968, 13.75427]}, "properties": {"id": "46004-38560-022-GRNT0156", "sectors": ["Water supply and other urban infrastructure and services"], "title": "SECOND RURAL WATER SUPPLY AND SANITATION PROJECT", "status": "Implementation", "locationName": "Phum\u012d Don P\u00e9nh"}}, {"type": "Feature", "geometry": {"type": "Point", "coordinates": [104.30206, 13.10137]}, "properties": {"id": "46004-38560-022-GRNT0156", "sectors": ["Water supply and other urban infrastructure and services"], "title": "SECOND RURAL WATER SUPPLY AND SANITATION PROJECT", "status": "Implementation", "locationName": "Phum\u012d Chikr\u00eang"}}, {"type": "Feature", "geometry": {"type": "Point", "coordinates": [104.08266, 13.37307]}, "properties": {"id": "46004-38560-022-GRNT0156", "sectors": ["Water supply and other urban infrastructure and services"], "title": "SECOND RURAL WATER SUPPLY AND SANITATION PROJECT", "status": "Implementation", "locationName": "Phum\u012d Ch\u0103nt S\u00e2r Khang Cheung"}}, {"type": "Feature", "geometry": {"type": "Point", "coordinates": [105.11928, 12.42872]}, "properties": {"id": "46004-38560-022-GRNT0156", "sectors": ["Water supply and other urban infrastructure and services"], "title": "SECOND RURAL WATER SUPPLY AND SANITATION PROJECT", "status": "Implementation", "locationName": "Phum\u012d B\u0153\u0306ng (1)"}}, {"type": "Feature", "geometry": {"type": "Point", "coordinates": [103.16148, 12.99191]}, "properties": {"id": "46004-38560-022-GRNT0156", "sectors": ["Water supply and other urban infrastructure and services"], "title": "SECOND RURAL WATER SUPPLY AND SANITATION PROJECT", "status": "Implementation", "locationName": "Phum\u012d Bay D\u00e2mr\u0103m"}}, {"type": "Feature", "geometry": {"type": "Point", "coordinates": [103.04724, 13.67197]}, "properties": {"id": "46004-38560-022-GRNT0156", "sectors": ["Water supply and other urban infrastructure and services"], "title": "SECOND RURAL WATER SUPPLY AND SANITATION PROJECT", "status": "Implementation", "locationName": "Phum\u012d Ba\u00f4s Sbov"}}, {"type": "Feature", "geometry": {"type": "Point", "coordinates": [103.1062, 14.07087]}, "properties": {"id": "46004-38560-022-GRNT0156", "sectors": ["Water supply and other urban infrastructure and services"], "title": "SECOND RURAL WATER SUPPLY AND SANITATION PROJECT", "status": "Implementation", "locationName": "Phum\u012d B\u00e2nt\u00e9ay Chhmar"}}, {"type": "Feature", "geometry": {"type": "Point", "coordinates": [105.28856, 12.51729]}, "properties": {"id": "46004-38560-022-GRNT0156", "sectors": ["Water supply and other urban infrastructure and services"], "title": "SECOND RURAL WATER SUPPLY AND SANITATION PROJECT", "status": "Implementation", "locationName": "Phum\u012d B\u0103k Sna Khang Kaeut"}}, {"type": "Feature", "geometry": {"type": "Point", "coordinates": [104.82202, 11.99136]}, "properties": {"id": "46004-38560-022-GRNT0156", "sectors": ["Water supply and other urban infrastructure and services"], "title": "SECOND RURAL WATER SUPPLY AND SANITATION PROJECT", "status": "Implementation", "locationName": "Phum\u012d \u00c2mp\u012dl T\u0153\u0306k"}}, {"type": "Feature", "geometry": {"type": "Point", "coordinates": [104.25348, 12.73792]}, "properties": {"id": "46004-38560-022-GRNT0156", "sectors": ["Water supply and other urban infrastructure and services"], "title": "SECOND RURAL WATER SUPPLY AND SANITATION PROJECT", "status": "Implementation", "locationName": "P\u00e9am Bang"}}, {"type": "Feature", "geometry": {"type": "Point", "coordinates": [105.0, 12.83333]}, "properties": {"id": "46004-38560-022-GRNT0156", "sectors": ["Water supply and other urban infrastructure and services"], "title": "SECOND RURAL WATER SUPPLY AND SANITATION PROJECT", "status": "Implementation", "locationName": "Kampong Thom"}}, {"type": "Feature", "geometry": {"type": "Point", "coordinates": [104.55, 12.16667]}, "properties": {"id": "46004-38560-022-GRNT0156", "sectors": ["Water supply and other urban infrastructure and services"], "title": "SECOND RURAL WATER SUPPLY AND SANITATION PROJECT", "status": "Implementation", "locationName": "Kampong Chhnang"}}, {"type": "Feature", "geometry": {"type": "Point", "coordinates": [103.0, 13.75]}, "properties": {"id": "46004-38560-022-GRNT0156", "sectors": ["Water supply and other urban infrastructure and services"], "title": "SECOND RURAL WATER SUPPLY AND SANITATION PROJECT", "status": "Implementation", "locationName": "Banteay Meanchey"}}, {"type": "Feature", "geometry": {"type": "Point", "coordinates": [104.55549, 11.86788]}, "properties": {"id": "46004-38560-022-GRNT0156", "sectors": ["Water supply and other urban infrastructure and services"], "title": "SECOND RURAL WATER SUPPLY AND SANITATION PROJECT", "status": "Implementation", "locationName": "Sr\u014fk Sameakki Mean Chey"}}, {"type": "Feature", "geometry": {"type": "Point", "coordinates": [103.08333, 12.91667]}, "properties": {"id": "46004-40555-012-GRNT0178", "sectors": ["Education"], "title": "STRENGTHENING TECHNICAL & VOCATIONAL EDUCATION & T", "status": "Implementation", "locationName": "Battambang"}}, {"type": "Feature", "geometry": {"type": "Point", "coordinates": [104.83333, 10.91667]}, "properties": {"id": "46004-40555-012-GRNT0178", "sectors": ["Education"], "title": "STRENGTHENING TECHNICAL & VOCATIONAL EDUCATION & T", "status": "Implementation", "locationName": "Takeo"}}, {"type": "Feature", "geometry": {"type": "Point", "coordinates": [105.83333, 11.16667]}, "properties": {"id": "46004-40555-012-GRNT0178", "sectors": ["Education"], "title": "STRENGTHENING TECHNICAL & VOCATIONAL EDUCATION & T", "status": "Implementation", "locationName": "Svay Rieng"}}, {"type": "Feature", "geometry": {"type": "Point", "coordinates": [104.0, 13.5]}, "properties": {"id": "46004-40555-012-GRNT0178", "sectors": ["Education"], "title": "STRENGTHENING TECHNICAL & VOCATIONAL EDUCATION & T", "status": "Implementation", "locationName": "Siem Reap"}}, {"type": "Feature", "geometry": {"type": "Point", "coordinates": [105.0, 13.75]}, "properties": {"id": "46004-40555-012-GRNT0178", "sectors": ["Education"], "title": "STRENGTHENING TECHNICAL & VOCATIONAL EDUCATION & T", "status": "Implementation", "locationName": "Preah Vihear"}}, {"type": "Feature", "geometry": {"type": "Point", "coordinates": [107.0, 12.75]}, "properties": {"id": "46004-40555-012-GRNT0178", "sectors": ["Education"], "title": "STRENGTHENING TECHNICAL & VOCATIONAL EDUCATION & T", "status": "Implementation", "locationName": "Mondolkiri"}}, {"type": "Feature", "geometry": {"type": "Point", "coordinates": [104.33333, 10.83333]}, "properties": {"id": "46004-40555-012-GRNT0178", "sectors": ["Education"], "title": "STRENGTHENING TECHNICAL & VOCATIONAL EDUCATION & T", "status": "Implementation", "locationName": "Kampot"}}, {"type": "Feature", "geometry": {"type": "Point", "coordinates": [105.0, 13.0]}, "properties": {"id": "46004-40555-012-GRNT0178", "sectors": ["Education"], "title": "STRENGTHENING TECHNICAL & VOCATIONAL EDUCATION & T", "status": "Implementation", "locationName": "Cambodia"}}, {"type": "Feature", "geometry": {"type": "Point", "coordinates": [102.97369, 13.58588]}, "properties": {"id": "46004-41435-013-GRNT0186", "sectors": ["Agriculture, natural resources and rural development"], "title": "TONLE SAP POVERTY REDUCTION AND SMALLHOLDER DEVT P", "status": "Implementation", "locationName": "Sis\u014fph\u014fn"}}, {"type": "Feature", "geometry": {"type": "Point", "coordinates": [103.86056, 13.36179]}, "properties": {"id": "46004-41435-013-GRNT0186", "sectors": ["Agriculture, natural resources and rural development"], "title": "TONLE SAP POVERTY REDUCTION AND SMALLHOLDER DEVT P", "status": "Implementation", "locationName": "Siem Reap"}}, {"type": "Feature", "geometry": {"type": "Point", "coordinates": [105.4635, 11.99339]}, "properties": {"id": "46004-41435-013-GRNT0186", "sectors": ["Agriculture, natural resources and rural development"], "title": "TONLE SAP POVERTY REDUCTION AND SMALLHOLDER DEVT P", "status": "Implementation", "locationName": "Kampong Cham"}}, {"type": "Feature", "geometry": {"type": "Point", "coordinates": [104.87, 12.63]}, "properties": {"id": "46004-41435-013-GRNT0186", "sectors": ["Agriculture, natural resources and rural development"], "title": "TONLE SAP POVERTY REDUCTION AND SMALLHOLDER DEVT P", "status": "Implementation", "locationName": "Stueng Saen"}}, {"type": "Feature", "geometry": {"type": "Point", "coordinates": [103.68262, 13.28709]}, "properties": {"id": "46004-38558-013-GRNT0220", "sectors": ["Agriculture, natural resources and rural development"], "title": "WATER RESOURCES MANAGEMENT SECTOR DEVELOPMENT PROG", "status": "Implementation", "locationName": "O Tuk"}}, {"type": "Feature", "geometry": {"type": "Point", "coordinates": [104.0, 13.5]}, "properties": {"id": "46004-38558-013-GRNT0220", "sectors": ["Agriculture, natural resources and rural development"], "title": "WATER RESOURCES MANAGEMENT SECTOR DEVELOPMENT PROG", "status": "Implementation", "locationName": "Siem Reap"}}, {"type": "Feature", "geometry": {"type": "Point", "coordinates": [103.54779, 13.86566]}, "properties": {"id": "46004-38558-013-GRNT0220", "sectors": ["Agriculture, natural resources and rural development"], "title": "WATER RESOURCES MANAGEMENT SECTOR DEVELOPMENT PROG", "status": "Implementation", "locationName": "Phum\u012d Sl\u00eang Sp\u00e9an"}}, {"type": "Feature", "geometry": {"type": "Point", "coordinates": [104.6443, 11.52161]}, "properties": {"id": "46004-38558-013-GRNT0220", "sectors": ["Agriculture, natural resources and rural development"], "title": "WATER RESOURCES MANAGEMENT SECTOR DEVELOPMENT PROG", "status": "Implementation", "locationName": "Phum\u012d \u00c2ngk Khmau"}}, {"type": "Feature", "geometry": {"type": "Point", "coordinates": [105.19353, 13.00808]}, "properties": {"id": "46004-38558-013-GRNT0220", "sectors": ["Agriculture, natural resources and rural development"], "title": "WATER RESOURCES MANAGEMENT SECTOR DEVELOPMENT PROG", "status": "Implementation", "locationName": "O M\u00e9an"}}, {"type": "Feature", "geometry": {"type": "Point", "coordinates": [105.0, 12.83333]}, "properties": {"id": "46004-38558-013-GRNT0220", "sectors": ["Agriculture, natural resources and rural development"], "title": "WATER RESOURCES MANAGEMENT SECTOR DEVELOPMENT PROG", "status": "Implementation", "locationName": "Kampong Thom"}}, {"type": "Feature", "geometry": {"type": "Point", "coordinates": [103.0, 13.75]}, "properties": {"id": "46004-38558-013-GRNT0220", "sectors": ["Agriculture, natural resources and rural development"], "title": "WATER RESOURCES MANAGEMENT SECTOR DEVELOPMENT PROG", "status": "Implementation", "locationName": "Banteay Meanchey"}}, {"type": "Feature", "geometry": {"type": "Point", "coordinates": [104.54493, 13.74992]}, "properties": {"id": "46004-38558-013-GRNT0220", "sectors": ["Agriculture, natural resources and rural development"], "title": "WATER RESOURCES MANAGEMENT SECTOR DEVELOPMENT PROG", "status": "Implementation", "locationName": "Prasat Pram"}}, {"type": "Feature", "geometry": {"type": "Point", "coordinates": [105.0, 13.0]}, "properties": {"id": "46004-41373-013-GRNT0221", "sectors": ["Public sector management"], "title": "PUBLIC FINANCIAL MANAGEMENT FOR RURAL DEVT PROGRAM", "status": "Completion", "locationName": "Cambodia"}}, {"type": "Feature", "geometry": {"type": "Point", "coordinates": [105.0, 13.0]}, "properties": {"id": "46004-41373-013-GRNT0222", "sectors": ["Public sector management"], "title": "PUBLIC FINANCIAL MANAGEMENT FOR RURAL DEVT PROJECT", "status": "Implementation", "locationName": "Cambodia"}}, {"type": "Feature", "geometry": {"type": "Point", "coordinates": [105.0, 13.0]}, "properties": {"id": "46004-38421-023-GRNT0223", "sectors": ["Public sector management"], "title": "PROMOTING ECONOMIC DIVERSIFICATION PROGRAM-SUBPROG", "status": "Completion", "locationName": "Cambodia"}}, {"type": "Feature", "geometry": {"type": "Point", "coordinates": [105.0, 13.0]}, "properties": {"id": "46004-38421-023-GRNT0224", "sectors": ["Public sector management"], "title": "CAP DEV TO SUPPORT THE PROMOTING ECONOMIC DIVERSIF", "status": "Implementation", "locationName": "Cambodia"}}, {"type": "Feature", "geometry": {"type": "Point", "coordinates": [103.81974, 10.7089]}, "properties": {"id": "46004-37041-013-LN2261", "sectors": ["Energy"], "title": "SECOND POWER TRANSMISSION AND DISTRIBUTION PROJECT", "status": "Implementation", "locationName": "Phum\u012d V\u00e9al R\u00e9nh"}}, {"type": "Feature", "geometry": {"type": "Point", "coordinates": [104.33333, 10.83333]}, "properties": {"id": "46004-37041-013-LN2261", "sectors": ["Energy"], "title": "SECOND POWER TRANSMISSION AND DISTRIBUTION PROJECT", "status": "Implementation", "locationName": "Kampot"}}, {"type": "Feature", "geometry": {"type": "Point", "coordinates": [104.18145, 10.61041]}, "properties": {"id": "46004-37041-013-LN2261", "sectors": ["Energy"], "title": "SECOND POWER TRANSMISSION AND DISTRIBUTION PROJECT", "status": "Implementation", "locationName": "Kampot"}}, {"type": "Feature", "geometry": {"type": "Point", "coordinates": [103.52958, 10.60932]}, "properties": {"id": "46004-37041-013-LN2261", "sectors": ["Energy"], "title": "SECOND POWER TRANSMISSION AND DISTRIBUTION PROJECT", "status": "Implementation", "locationName": "Kampong Saom"}}, {"type": "Feature", "geometry": {"type": "Point", "coordinates": [103.75, 10.66667]}, "properties": {"id": "46004-37041-013-LN2261", "sectors": ["Energy"], "title": "SECOND POWER TRANSMISSION AND DISTRIBUTION PROJECT", "status": "Implementation", "locationName": "Preah Sihanouk"}}, {"type": "Feature", "geometry": {"type": "Point", "coordinates": [103.52958, 10.60932]}, "properties": {"id": "46004-37269-013-LN2288", "sectors": ["Transport"], "title": "GMS:REHABILITATION OF THE RAILWAY IN CAMBODIA PROJECT", "status": "Implementation", "locationName": "Kampong Saom"}}, {"type": "Feature", "geometry": {"type": "Point", "coordinates": [104.55, 12.16667]}, "properties": {"id": "46004-37269-013-LN2288", "sectors": ["Transport"], "title": "GMS:REHABILITATION OF THE RAILWAY IN CAMBODIA PROJECT", "status": "Implementation", "locationName": "Kampong Chhnang"}}, {"type": "Feature", "geometry": {"type": "Point", "coordinates": [103.19822, 13.10271]}, "properties": {"id": "46004-37269-013-LN2288", "sectors": ["Transport"], "title": "GMS:REHABILITATION OF THE RAILWAY IN CAMBODIA PROJECT", "status": "Implementation", "locationName": "Battambang"}}, {"type": "Feature", "geometry": {"type": "Point", "coordinates": [104.67, 12.26]}, "properties": {"id": "46004-37269-013-LN2288", "sectors": ["Transport"], "title": "GMS:REHABILITATION OF THE RAILWAY IN CAMBODIA PROJECT", "status": "Implementation", "locationName": "Kampong Chhnang"}}, {"type": "Feature", "geometry": {"type": "Point", "coordinates": [104.9177, 11.5591]}, "properties": {"id": "46004-37269-013-LN2288", "sectors": ["Transport"], "title": "GMS:REHABILITATION OF THE RAILWAY IN CAMBODIA PROJECT", "status": "Implementation", "locationName": "Phnom Penh"}}, {"type": "Feature", "geometry": {"type": "Point", "coordinates": [103.42, 13.06]}, "properties": {"id": "46004-37269-013-LN2288", "sectors": ["Transport"], "title": "GMS:REHABILITATION OF THE RAILWAY IN CAMBODIA PROJECT", "status": "Implementation", "locationName": "Sangkae"}}, {"type": "Feature", "geometry": {"type": "Point", "coordinates": [103.42, 12.78]}, "properties": {"id": "46004-37269-013-LN2288", "sectors": ["Transport"], "title": "GMS:REHABILITATION OF THE RAILWAY IN CAMBODIA PROJECT", "status": "Implementation", "locationName": "Moung Ruessei"}}, {"type": "Feature", "geometry": {"type": "Point", "coordinates": [103.79, 12.78]}, "properties": {"id": "46004-37269-013-LN2288", "sectors": ["Transport"], "title": "GMS:REHABILITATION OF THE RAILWAY IN CAMBODIA PROJECT", "status": "Implementation", "locationName": "Bakan"}}, {"type": "Feature", "geometry": {"type": "Point", "coordinates": [104.19, 12.48]}, "properties": {"id": "46004-37269-013-LN2288", "sectors": ["Transport"], "title": "GMS:REHABILITATION OF THE RAILWAY IN CAMBODIA PROJECT", "status": "Implementation", "locationName": "Krakor"}}, {"type": "Feature", "geometry": {"type": "Point", "coordinates": [103.09541, 13.27774]}, "properties": {"id": "46004-37269-013-LN2288", "sectors": ["Transport"], "title": "GMS:REHABILITATION OF THE RAILWAY IN CAMBODIA PROJECT", "status": "Implementation", "locationName": "Sr\u014fk Thm\u00e2 Ko\u016dl"}}, {"type": "Feature", "geometry": {"type": "Point", "coordinates": [103.74016, 10.85249]}, "properties": {"id": "46004-37269-013-LN2288", "sectors": ["Transport"], "title": "GMS:REHABILITATION OF THE RAILWAY IN CAMBODIA PROJECT", "status": "Implementation", "locationName": "Sr\u014fk St\u0153\u0306ng Hav"}}, {"type": "Feature", "geometry": {"type": "Point", "coordinates": [102.60956, 13.64699]}, "properties": {"id": "46004-37269-013-LN2288", "sectors": ["Transport"], "title": "GMS:REHABILITATION OF THE RAILWAY IN CAMBODIA PROJECT", "status": "Implementation", "locationName": "Ou Chrov District"}}, {"type": "Feature", "geometry": {"type": "Point", "coordinates": [103.01265, 13.63849]}, "properties": {"id": "46004-37269-013-LN2288", "sectors": ["Transport"], "title": "GMS:REHABILITATION OF THE RAILWAY IN CAMBODIA PROJECT", "status": "Implementation", "locationName": "Serei Saophoan"}}, {"type": "Feature", "geometry": {"type": "Point", "coordinates": [103.53108, 10.62483]}, "properties": {"id": "46004-37269-013-LN2288", "sectors": ["Transport"], "title": "GMS:REHABILITATION OF THE RAILWAY IN CAMBODIA PROJECT", "status": "Implementation", "locationName": "Mittakpheap District"}}, {"type": "Feature", "geometry": {"type": "Point", "coordinates": [104.91601, 11.56245]}, "properties": {"id": "46004-37269-013-LN2288", "sectors": ["Transport"], "title": "GMS:REHABILITATION OF THE RAILWAY IN CAMBODIA PROJECT", "status": "Implementation", "locationName": "Phnom Penh"}}, {"type": "Feature", "geometry": {"type": "Point", "coordinates": [104.56094, 10.6664]}, "properties": {"id": "46004-37269-013-LN2288", "sectors": ["Transport"], "title": "GMS:REHABILITATION OF THE RAILWAY IN CAMBODIA PROJECT", "status": "Implementation", "locationName": "Tuk M\u00e9as"}}, {"type": "Feature", "geometry": {"type": "Point", "coordinates": [104.33333, 12.08333]}, "properties": {"id": "46004-37269-013-LN2288", "sectors": ["Transport"], "title": "GMS:REHABILITATION OF THE RAILWAY IN CAMBODIA PROJECT", "status": "Implementation", "locationName": "Sr\u014fk T\u0153\u0306k Ph\u014fs"}}, {"type": "Feature", "geometry": {"type": "Point", "coordinates": [104.66239, 10.77398]}, "properties": {"id": "46004-37269-013-LN2288", "sectors": ["Transport"], "title": "GMS:REHABILITATION OF THE RAILWAY IN CAMBODIA PROJECT", "status": "Implementation", "locationName": "Tani"}}, {"type": "Feature", "geometry": {"type": "Point", "coordinates": [104.83333, 10.91667]}, "properties": {"id": "46004-37269-013-LN2288", "sectors": ["Transport"], "title": "GMS:REHABILITATION OF THE RAILWAY IN CAMBODIA PROJECT", "status": "Implementation", "locationName": "Takeo"}}, {"type": "Feature", "geometry": {"type": "Point", "coordinates": [104.78498, 10.99081]}, "properties": {"id": "46004-37269-013-LN2288", "sectors": ["Transport"], "title": "GMS:REHABILITATION OF THE RAILWAY IN CAMBODIA PROJECT", "status": "Implementation", "locationName": "Takeo"}}, {"type": "Feature", "geometry": {"type": "Point", "coordinates": [102.97369, 13.58588]}, "properties": {"id": "46004-37269-013-LN2288", "sectors": ["Transport"], "title": "GMS:REHABILITATION OF THE RAILWAY IN CAMBODIA PROJECT", "status": "Implementation", "locationName": "Sis\u014fph\u014fn"}}, {"type": "Feature", "geometry": {"type": "Point", "coordinates": [103.9192, 12.53878]}, "properties": {"id": "46004-37269-013-LN2288", "sectors": ["Transport"], "title": "GMS:REHABILITATION OF THE RAILWAY IN CAMBODIA PROJECT", "status": "Implementation", "locationName": "Pursat"}}, {"type": "Feature", "geometry": {"type": "Point", "coordinates": [104.77828, 10.98081]}, "properties": {"id": "46004-37269-013-LN2288", "sectors": ["Transport"], "title": "GMS:REHABILITATION OF THE RAILWAY IN CAMBODIA PROJECT", "status": "Implementation", "locationName": "Phum\u012d V\u00e9al Sr\u00ea"}}, {"type": "Feature", "geometry": {"type": "Point", "coordinates": [104.62602, 11.23362]}, "properties": {"id": "46004-37269-013-LN2288", "sectors": ["Transport"], "title": "GMS:REHABILITATION OF THE RAILWAY IN CAMBODIA PROJECT", "status": "Implementation", "locationName": "Phum\u012d Sd\u014fk"}}, {"type": "Feature", "geometry": {"type": "Point", "coordinates": [104.91394, 11.57489]}, "properties": {"id": "46004-37269-013-LN2288", "sectors": ["Transport"], "title": "GMS:REHABILITATION OF THE RAILWAY IN CAMBODIA PROJECT", "status": "Implementation", "locationName": "Phnom Penh"}}, {"type": "Feature", "geometry": {"type": "Point", "coordinates": [102.5625, 13.65611]}, "properties": {"id": "46004-37269-013-LN2288", "sectors": ["Transport"], "title": "GMS:REHABILITATION OF THE RAILWAY IN CAMBODIA PROJECT", "status": "Implementation", "locationName": "Pa\u00f4y P\u00eat"}}, {"type": "Feature", "geometry": {"type": "Point", "coordinates": [103.44896, 12.77316]}, "properties": {"id": "46004-37269-013-LN2288", "sectors": ["Transport"], "title": "GMS:REHABILITATION OF THE RAILWAY IN CAMBODIA PROJECT", "status": "Implementation", "locationName": "Mo\u016dng R\u0153ssei"}}, {"type": "Feature", "geometry": {"type": "Point", "coordinates": [103.16667, 13.46667]}, "properties": {"id": "46004-37269-013-LN2288", "sectors": ["Transport"], "title": "GMS:REHABILITATION OF THE RAILWAY IN CAMBODIA PROJECT", "status": "Implementation", "locationName": "Sr\u014fk M\u00f4ngk\u00f3l Borei"}}, {"type": "Feature", "geometry": {"type": "Point", "coordinates": [104.31672, 10.4829]}, "properties": {"id": "46004-37269-013-LN2288", "sectors": ["Transport"], "title": "GMS:REHABILITATION OF THE RAILWAY IN CAMBODIA PROJECT", "status": "Implementation", "locationName": "Krong Kep"}}, {"type": "Feature", "geometry": {"type": "Point", "coordinates": [105.0, 11.41667]}, "properties": {"id": "46004-37269-013-LN2288", "sectors": ["Transport"], "title": "GMS:REHABILITATION OF THE RAILWAY IN CAMBODIA PROJECT", "status": "Implementation", "locationName": "Kandal"}}, {"type": "Feature", "geometry": {"type": "Point", "coordinates": [104.33333, 10.83333]}, "properties": {"id": "46004-37269-013-LN2288", "sectors": ["Transport"], "title": "GMS:REHABILITATION OF THE RAILWAY IN CAMBODIA PROJECT", "status": "Implementation", "locationName": "Kampot"}}, {"type": "Feature", "geometry": {"type": "Point", "coordinates": [104.18145, 10.61041]}, "properties": {"id": "46004-37269-013-LN2288", "sectors": ["Transport"], "title": "GMS:REHABILITATION OF THE RAILWAY IN CAMBODIA PROJECT", "status": "Implementation", "locationName": "Kampot"}}, {"type": "Feature", "geometry": {"type": "Point", "coordinates": [104.33333, 11.5]}, "properties": {"id": "46004-37269-013-LN2288", "sectors": ["Transport"], "title": "GMS:REHABILITATION OF THE RAILWAY IN CAMBODIA PROJECT", "status": "Implementation", "locationName": "Kampong Speu"}}, {"type": "Feature", "geometry": {"type": "Point", "coordinates": [104.91667, 19.25]}, "properties": {"id": "46004-41505-012-GRNT0231", "sectors": ["Health"], "title": "SECOND GMS REGIONAL COMMUNICABLE DISEASES CONTROL", "status": "Implementation", "locationName": "T\u1ec9nh Ngh\u1ec7 An"}}, {"type": "Feature", "geometry": {"type": "Point", "coordinates": [106.3, 9.8]}, "properties": {"id": "46004-41505-012-GRNT0231", "sectors": ["Health"], "title": "SECOND GMS REGIONAL COMMUNICABLE DISEASES CONTROL", "status": "Implementation", "locationName": "T\u1ec9nh Tr\u00e0 Vinh"}}, {"type": "Feature", "geometry": {"type": "Point", "coordinates": [104.16667, 22.3]}, "properties": {"id": "46004-41505-012-GRNT0231", "sectors": ["Health"], "title": "SECOND GMS REGIONAL COMMUNICABLE DISEASES CONTROL", "status": "Implementation", "locationName": "T\u1ec9nh L\u00e0o Cai"}}, {"type": "Feature", "geometry": {"type": "Point", "coordinates": [105.33333, 20.06667]}, "properties": {"id": "46004-41505-012-GRNT0231", "sectors": ["Health"], "title": "SECOND GMS REGIONAL COMMUNICABLE DISEASES CONTROL", "status": "Implementation", "locationName": "T\u1ec9nh Thanh H\u00f3a"}}, {"type": "Feature", "geometry": {"type": "Point", "coordinates": [106.16667, 11.33333]}, "properties": {"id": "46004-41505-012-GRNT0231", "sectors": ["Health"], "title": "SECOND GMS REGIONAL COMMUNICABLE DISEASES CONTROL", "status": "Implementation", "locationName": "T\u1ec9nh T\u00e2y Ninh"}}, {"type": "Feature", "geometry": {"type": "Point", "coordinates": [104.0, 21.16667]}, "properties": {"id": "46004-41505-012-GRNT0231", "sectors": ["Health"], "title": "SECOND GMS REGIONAL COMMUNICABLE DISEASES CONTROL", "status": "Implementation", "locationName": "T\u1ec9nh S\u01a1n La"}}, {"type": "Feature", "geometry": {"type": "Point", "coordinates": [107.0, 16.75]}, "properties": {"id": "46004-41505-012-GRNT0231", "sectors": ["Health"], "title": "SECOND GMS REGIONAL COMMUNICABLE DISEASES CONTROL", "status": "Implementation", "locationName": "T\u1ec9nh Qu\u1ea3ng Tr\u1ecb"}}, {"type": "Feature", "geometry": {"type": "Point", "coordinates": [106.33333, 17.5]}, "properties": {"id": "46004-41505-012-GRNT0231", "sectors": ["Health"], "title": "SECOND GMS REGIONAL COMMUNICABLE DISEASES CONTROL", "status": "Implementation", "locationName": "T\u1ec9nh Qu\u1ea3ng B\u00ecnh"}}, {"type": "Feature", "geometry": {"type": "Point", "coordinates": [106.16667, 10.7]}, "properties": {"id": "46004-41505-012-GRNT0231", "sectors": ["Health"], "title": "SECOND GMS REGIONAL COMMUNICABLE DISEASES CONTROL", "status": "Implementation", "locationName": "Long An"}}, {"type": "Feature", "geometry": {"type": "Point", "coordinates": [105.16667, 10.0]}, "properties": {"id": "46004-41505-012-GRNT0231", "sectors": ["Health"], "title": "SECOND GMS REGIONAL COMMUNICABLE DISEASES CONTROL", "status": "Implementation", "locationName": "T\u1ec9nh Ki\u1ebfn Giang"}}, {"type": "Feature", "geometry": {"type": "Point", "coordinates": [105.75, 18.33333]}, "properties": {"id": "46004-41505-012-GRNT0231", "sectors": ["Health"], "title": "SECOND GMS REGIONAL COMMUNICABLE DISEASES CONTROL", "status": "Implementation", "locationName": "T\u1ec9nh H\u00e0 T\u0129nh"}}, {"type": "Feature", "geometry": {"type": "Point", "coordinates": [105.75, 21.0]}, "properties": {"id": "46004-41505-012-GRNT0231", "sectors": ["Health"], "title": "SECOND GMS REGIONAL COMMUNICABLE DISEASES CONTROL", "status": "Implementation", "locationName": "Th\u00e0nh Ph\u1ed1 H\u00e0 N\u1ed9i"}}, {"type": "Feature", "geometry": {"type": "Point", "coordinates": [105.5, 10.11667]}, "properties": {"id": "46004-41505-012-GRNT0231", "sectors": ["Health"], "title": "SECOND GMS REGIONAL COMMUNICABLE DISEASES CONTROL", "status": "Implementation", "locationName": "Th\u00e0nh Ph\u1ed1 C\u1ea7n Th\u01a1"}}, {"type": "Feature", "geometry": {"type": "Point", "coordinates": [105.63333, 10.58333]}, "properties": {"id": "46004-41505-012-GRNT0231", "sectors": ["Health"], "title": "SECOND GMS REGIONAL COMMUNICABLE DISEASES CONTROL", "status": "Implementation", "locationName": "T\u1ec9nh \u0110\u1ed3ng Th\u00e1p"}}, {"type": "Feature", "geometry": {"type": "Point", "coordinates": [108.25, 12.75]}, "properties": {"id": "46004-41505-012-GRNT0231", "sectors": ["Health"], "title": "SECOND GMS REGIONAL COMMUNICABLE DISEASES CONTROL", "status": "Implementation", "locationName": "T\u1ec9nh \u0110\u1eafk L\u1eafk"}}, {"type": "Feature", "geometry": {"type": "Point", "coordinates": [106.5, 10.16667]}, "properties": {"id": "46004-41505-012-GRNT0231", "sectors": ["Health"], "title": "SECOND GMS REGIONAL COMMUNICABLE DISEASES CONTROL", "status": "Implementation", "locationName": "T\u1ec9nh B\u1ebfn Tre"}}, {"type": "Feature", "geometry": {"type": "Point", "coordinates": [105.16667, 10.5]}, "properties": {"id": "46004-41505-012-GRNT0231", "sectors": ["Health"], "title": "SECOND GMS REGIONAL COMMUNICABLE DISEASES CONTROL", "status": "Implementation", "locationName": "An Giang"}}, {"type": "Feature", "geometry": {"type": "Point", "coordinates": [103.5, 19.41667]}, "properties": {"id": "46004-41505-012-GRNT0231", "sectors": ["Health"], "title": "SECOND GMS REGIONAL COMMUNICABLE DISEASES CONTROL", "status": "Implementation", "locationName": "Xiangkhouang"}}, {"type": "Feature", "geometry": {"type": "Point", "coordinates": [106.25, 15.75]}, "properties": {"id": "46004-41505-012-GRNT0231", "sectors": ["Health"], "title": "SECOND GMS REGIONAL COMMUNICABLE DISEASES CONTROL", "status": "Implementation", "locationName": "Salavan"}}, {"type": "Feature", "geometry": {"type": "Point", "coordinates": [102.33333, 21.75]}, "properties": {"id": "46004-41505-012-GRNT0231", "sectors": ["Health"], "title": "SECOND GMS REGIONAL COMMUNICABLE DISEASES CONTROL", "status": "Implementation", "locationName": "Khoueng Phongsali"}}, {"type": "Feature", "geometry": {"type": "Point", "coordinates": [101.5, 20.16667]}, "properties": {"id": "46004-41505-012-GRNT0231", "sectors": ["Health"], "title": "SECOND GMS REGIONAL COMMUNICABLE DISEASES CONTROL", "status": "Implementation", "locationName": "Khoueng Oudomxai"}}, {"type": "Feature", "geometry": {"type": "Point", "coordinates": [101.33333, 20.91667]}, "properties": {"id": "46004-41505-012-GRNT0231", "sectors": ["Health"], "title": "SECOND GMS REGIONAL COMMUNICABLE DISEASES CONTROL", "status": "Implementation", "locationName": "Louangnamtha"}}, {"type": "Feature", "geometry": {"type": "Point", "coordinates": [105.33333, 17.5]}, "properties": {"id": "46004-41505-012-GRNT0231", "sectors": ["Health"], "title": "SECOND GMS REGIONAL COMMUNICABLE DISEASES CONTROL", "status": "Implementation", "locationName": "Khammouan"}}, {"type": "Feature", "geometry": {"type": "Point", "coordinates": [104.0, 20.5]}, "properties": {"id": "46004-41505-012-GRNT0231", "sectors": ["Health"], "title": "SECOND GMS REGIONAL COMMUNICABLE DISEASES CONTROL", "status": "Implementation", "locationName": "Houaphan"}}, {"type": "Feature", "geometry": {"type": "Point", "coordinates": [106.0, 14.75]}, "properties": {"id": "46004-41505-012-GRNT0231", "sectors": ["Health"], "title": "SECOND GMS REGIONAL COMMUNICABLE DISEASES CONTROL", "status": "Implementation", "locationName": "Champasak"}}, {"type": "Feature", "geometry": {"type": "Point", "coordinates": [107.0, 14.66667]}, "properties": {"id": "46004-41505-012-GRNT0231", "sectors": ["Health"], "title": "SECOND GMS REGIONAL COMMUNICABLE DISEASES CONTROL", "status": "Implementation", "locationName": "Attapu"}}, {"type": "Feature", "geometry": {"type": "Point", "coordinates": [104.83333, 10.91667]}, "properties": {"id": "46004-41505-012-GRNT0231", "sectors": ["Health"], "title": "SECOND GMS REGIONAL COMMUNICABLE DISEASES CONTROL", "status": "Implementation", "locationName": "Takeo"}}, {"type": "Feature", "geometry": {"type": "Point", "coordinates": [105.83333, 11.16667]}, "properties": {"id": "46004-41505-012-GRNT0231", "sectors": ["Health"], "title": "SECOND GMS REGIONAL COMMUNICABLE DISEASES CONTROL", "status": "Implementation", "locationName": "Svay Rieng"}}, {"type": "Feature", "geometry": {"type": "Point", "coordinates": [105.9683, 13.52586]}, "properties": {"id": "46004-41505-012-GRNT0231", "sectors": ["Health"], "title": "SECOND GMS REGIONAL COMMUNICABLE DISEASES CONTROL", "status": "Implementation", "locationName": "Stung Treng"}}, {"type": "Feature", "geometry": {"type": "Point", "coordinates": [107.11667, 13.83333]}, "properties": {"id": "46004-41505-012-GRNT0231", "sectors": ["Health"], "title": "SECOND GMS REGIONAL COMMUNICABLE DISEASES CONTROL", "status": "Implementation", "locationName": "Ratanakiri"}}, {"type": "Feature", "geometry": {"type": "Point", "coordinates": [105.46667, 11.36667]}, "properties": {"id": "46004-41505-012-GRNT0231", "sectors": ["Health"], "title": "SECOND GMS REGIONAL COMMUNICABLE DISEASES CONTROL", "status": "Implementation", "locationName": "Prey Veng"}}, {"type": "Feature", "geometry": {"type": "Point", "coordinates": [107.0, 12.75]}, "properties": {"id": "46004-41505-012-GRNT0231", "sectors": ["Health"], "title": "SECOND GMS REGIONAL COMMUNICABLE DISEASES CONTROL", "status": "Implementation", "locationName": "Mondolkiri"}}, {"type": "Feature", "geometry": {"type": "Point", "coordinates": [106.08333, 12.66667]}, "properties": {"id": "46004-41505-012-GRNT0231", "sectors": ["Health"], "title": "SECOND GMS REGIONAL COMMUNICABLE DISEASES CONTROL", "status": "Implementation", "locationName": "Kratie"}}, {"type": "Feature", "geometry": {"type": "Point", "coordinates": [105.0, 11.41667]}, "properties": {"id": "46004-41505-012-GRNT0231", "sectors": ["Health"], "title": "SECOND GMS REGIONAL COMMUNICABLE DISEASES CONTROL", "status": "Implementation", "locationName": "Kandal"}}, {"type": "Feature", "geometry": {"type": "Point", "coordinates": [104.33333, 10.83333]}, "properties": {"id": "46004-41505-012-GRNT0231", "sectors": ["Health"], "title": "SECOND GMS REGIONAL COMMUNICABLE DISEASES CONTROL", "status": "Implementation", "locationName": "Kampot"}}, {"type": "Feature", "geometry": {"type": "Point", "coordinates": [105.58333, 12.08333]}, "properties": {"id": "46004-41505-012-GRNT0231", "sectors": ["Health"], "title": "SECOND GMS REGIONAL COMMUNICABLE DISEASES CONTROL", "status": "Implementation", "locationName": "Kampong Cham"}}, {"type": "Feature", "geometry": {"type": "Point", "coordinates": [107.0, 15.5]}, "properties": {"id": "46004-41505-012-GRNT0231", "sectors": ["Health"], "title": "SECOND GMS REGIONAL COMMUNICABLE DISEASES CONTROL", "status": "Implementation", "locationName": "Khoueng Xekong"}}, {"type": "Feature", "geometry": {"type": "Point", "coordinates": [100.5, 20.5]}, "properties": {"id": "46004-41505-012-GRNT0231", "sectors": ["Health"], "title": "SECOND GMS REGIONAL COMMUNICABLE DISEASES CONTROL", "status": "Implementation", "locationName": "Khoueng Bokeo"}}, {"type": "Feature", "geometry": {"type": "Point", "coordinates": [104.33333, 18.5]}, "properties": {"id": "46004-41505-012-GRNT0231", "sectors": ["Health"], "title": "SECOND GMS REGIONAL COMMUNICABLE DISEASES CONTROL", "status": "Implementation", "locationName": "Bolikhamxai"}}, {"type": "Feature", "geometry": {"type": "Point", "coordinates": [107.75, 12.16667]}, "properties": {"id": "46004-41505-012-GRNT0231", "sectors": ["Health"], "title": "SECOND GMS REGIONAL COMMUNICABLE DISEASES CONTROL", "status": "Implementation", "locationName": "\u00d0\u1eafk N\u00f4ng"}}, {"type": "Feature", "geometry": {"type": "Point", "coordinates": [102.93333, 21.33333]}, "properties": {"id": "46004-41505-012-GRNT0231", "sectors": ["Health"], "title": "SECOND GMS REGIONAL COMMUNICABLE DISEASES CONTROL", "status": "Implementation", "locationName": "Huy\u1ec7n \u00d0i\u1ec7n Bi\u00ean"}}, {"type": "Feature", "geometry": {"type": "Point", "coordinates": [106.91667, 11.75]}, "properties": {"id": "46004-41505-012-GRNT0231", "sectors": ["Health"], "title": "SECOND GMS REGIONAL COMMUNICABLE DISEASES CONTROL", "status": "Implementation", "locationName": "T\u1ec9nh B\u00ecnh Ph\u01b0\u1edbc"}}, {"type": "Feature", "geometry": {"type": "Point", "coordinates": [104.44904, 10.43269]}, "properties": {"id": "46004-36353-013-LN2373", "sectors": ["Transport"], "title": "GREATER MEKONG & SUBREGION SOUTHERN COASTAL CORRIDOR PROJECT", "status": "Implementation", "locationName": "Phum\u012d Pr\u00eak Chak"}}, {"type": "Feature", "geometry": {"type": "Point", "coordinates": [104.16667, 10.66667]}, "properties": {"id": "46004-36353-013-LN2373", "sectors": ["Transport"], "title": "GREATER MEKONG & SUBREGION SOUTHERN COASTAL CORRIDOR PROJECT", "status": "Implementation", "locationName": "Sr\u014fk K\u00e2mp\u00f4t"}}, {"type": "Feature", "geometry": {"type": "Point", "coordinates": [104.18145, 10.61041]}, "properties": {"id": "46004-36353-013-LN2373", "sectors": ["Transport"], "title": "GREATER MEKONG & SUBREGION SOUTHERN COASTAL CORRIDOR PROJECT", "status": "Implementation", "locationName": "Kampot"}}, {"type": "Feature", "geometry": {"type": "Point", "coordinates": [104.58333, 10.58333]}, "properties": {"id": "46004-36353-013-LN2373", "sectors": ["Transport"], "title": "GREATER MEKONG & SUBREGION SOUTHERN COASTAL CORRIDOR PROJECT", "status": "Implementation", "locationName": "Sr\u014fk K\u00e2mp\u00f3ng Trach"}}, {"type": "Feature", "geometry": {"type": "Point", "coordinates": [104.46736, 10.55876]}, "properties": {"id": "46004-36353-013-LN2373", "sectors": ["Transport"], "title": "GREATER MEKONG & SUBREGION SOUTHERN COASTAL CORRIDOR PROJECT", "status": "Implementation", "locationName": "K\u00e2mp\u00f3ng Trach"}}, {"type": "Feature", "geometry": {"type": "Point", "coordinates": [105.08333, 9.83333]}, "properties": {"id": "46004-36353-013-LN2373", "sectors": ["Transport"], "title": "GREATER MEKONG & SUBREGION SOUTHERN COASTAL CORRIDOR PROJECT", "status": "Implementation", "locationName": "Huy\u1ec7n An Bi\u00ean"}}, {"type": "Feature", "geometry": {"type": "Point", "coordinates": [105.0, 9.66667]}, "properties": {"id": "46004-36353-013-LN2373", "sectors": ["Transport"], "title": "GREATER MEKONG & SUBREGION SOUTHERN COASTAL CORRIDOR PROJECT", "status": "Implementation", "locationName": "Huy\u1ec7n An Minh"}}, {"type": "Feature", "geometry": {"type": "Point", "coordinates": [105.08333, 9.08333]}, "properties": {"id": "46004-36353-013-LN2373", "sectors": ["Transport"], "title": "GREATER MEKONG & SUBREGION SOUTHERN COASTAL CORRIDOR PROJECT", "status": "Implementation", "locationName": "T\u1ec9nh C\u00e0 Mau"}}, {"type": "Feature", "geometry": {"type": "Point", "coordinates": [105.16667, 9.41667]}, "properties": {"id": "46004-36353-013-LN2373", "sectors": ["Transport"], "title": "GREATER MEKONG & SUBREGION SOUTHERN COASTAL CORRIDOR PROJECT", "status": "Implementation", "locationName": "Huy\u1ec7n Th\u1edbi B\u00ecnh"}}, {"type": "Feature", "geometry": {"type": "Point", "coordinates": [104.16667, 10.6]}, "properties": {"id": "46004-36353-013-LN2373", "sectors": ["Transport"], "title": "GREATER MEKONG & SUBREGION SOUTHERN COASTAL CORRIDOR PROJECT", "status": "Implementation", "locationName": "Kampong Bay"}}, {"type": "Feature", "geometry": {"type": "Point", "coordinates": [104.46667, 10.55]}, "properties": {"id": "46004-36353-013-LN2373", "sectors": ["Transport"], "title": "GREATER MEKONG & SUBREGION SOUTHERN COASTAL CORRIDOR PROJECT", "status": "Implementation", "locationName": "Kampong Tranch"}}, {"type": "Feature", "geometry": {"type": "Point", "coordinates": [104.53333, 10.61667]}, "properties": {"id": "46004-36353-013-LN2373", "sectors": ["Transport"], "title": "GREATER MEKONG & SUBREGION SOUTHERN COASTAL CORRIDOR PROJECT", "status": "Implementation", "locationName": "Banteay Meas"}}, {"type": "Feature", "geometry": {"type": "Point", "coordinates": [104.45, 10.41667]}, "properties": {"id": "46004-36353-013-LN2373", "sectors": ["Transport"], "title": "GREATER MEKONG & SUBREGION SOUTHERN COASTAL CORRIDOR PROJECT", "status": "Implementation", "locationName": "X\u00f3m Xa X\u00eda"}}, {"type": "Feature", "geometry": {"type": "Point", "coordinates": [105.08389, 9.35083]}, "properties": {"id": "46004-36353-013-LN2373", "sectors": ["Transport"], "title": "GREATER MEKONG & SUBREGION SOUTHERN COASTAL CORRIDOR PROJECT", "status": "Implementation", "locationName": "Th\u1edbi B\u00ecnh"}}, {"type": "Feature", "geometry": {"type": "Point", "coordinates": [105.16667, 10.0]}, "properties": {"id": "46004-36353-013-LN2373", "sectors": ["Transport"], "title": "GREATER MEKONG & SUBREGION SOUTHERN COASTAL CORRIDOR PROJECT", "status": "Implementation", "locationName": "T\u1ec9nh Ki\u1ebfn Giang"}}, {"type": "Feature", "geometry": {"type": "Point", "coordinates": [105.11222, 9.86194]}, "properties": {"id": "46004-36353-013-LN2373", "sectors": ["Transport"], "title": "GREATER MEKONG & SUBREGION SOUTHERN COASTAL CORRIDOR PROJECT", "status": "Implementation", "locationName": "Ki\u00ean An"}}, {"type": "Feature", "geometry": {"type": "Point", "coordinates": [104.48333, 10.38333]}, "properties": {"id": "46004-36353-013-LN2373", "sectors": ["Transport"], "title": "GREATER MEKONG & SUBREGION SOUTHERN COASTAL CORRIDOR PROJECT", "status": "Implementation", "locationName": "H\u00e0 Ti\u00ean"}}, {"type": "Feature", "geometry": {"type": "Point", "coordinates": [105.15, 9.17694]}, "properties": {"id": "46004-36353-013-LN2373", "sectors": ["Transport"], "title": "GREATER MEKONG & SUBREGION SOUTHERN COASTAL CORRIDOR PROJECT", "status": "Implementation", "locationName": "C\u00e0 Mau"}}, {"type": "Feature", "geometry": {"type": "Point", "coordinates": [105.025, 9.76944]}, "properties": {"id": "46004-36353-013-LN2373", "sectors": ["Transport"], "title": "GREATER MEKONG & SUBREGION SOUTHERN COASTAL CORRIDOR PROJECT", "status": "Implementation", "locationName": "An Bi\u00ean"}}, {"type": "Feature", "geometry": {"type": "Point", "coordinates": [103.66667, 12.33333]}, "properties": {"id": "46004-37287-013-LN2376", "sectors": ["Agriculture, natural resources and rural development"], "title": "TONLE SAP LOWLANDS RURAL DEVELOPMENT PROJECT", "status": "Implementation", "locationName": "Pursat"}}, {"type": "Feature", "geometry": {"type": "Point", "coordinates": [105.09993, 12.23852]}, "properties": {"id": "46004-37287-013-LN2376", "sectors": ["Agriculture, natural resources and rural development"], "title": "TONLE SAP LOWLANDS RURAL DEVELOPMENT PROJECT", "status": "Implementation", "locationName": "Phum\u012d Tr\u0103ng Traeu"}}, {"type": "Feature", "geometry": {"type": "Point", "coordinates": [103.69622, 12.6]}, "properties": {"id": "46004-37287-013-LN2376", "sectors": ["Agriculture, natural resources and rural development"], "title": "TONLE SAP LOWLANDS RURAL DEVELOPMENT PROJECT", "status": "Implementation", "locationName": "Phum\u012d Ruml\u00e9ch"}}, {"type": "Feature", "geometry": {"type": "Point", "coordinates": [104.7998, 11.92482]}, "properties": {"id": "46004-37287-013-LN2376", "sectors": ["Agriculture, natural resources and rural development"], "title": "TONLE SAP LOWLANDS RURAL DEVELOPMENT PROJECT", "status": "Implementation", "locationName": "Phum\u012d Pr\u00eak K\u00f4nl\u00f4ng"}}, {"type": "Feature", "geometry": {"type": "Point", "coordinates": [104.71536, 12.79025]}, "properties": {"id": "46004-37287-013-LN2376", "sectors": ["Agriculture, natural resources and rural development"], "title": "TONLE SAP LOWLANDS RURAL DEVELOPMENT PROJECT", "status": "Implementation", "locationName": "Phum\u012d Pr\u00e2sat"}}, {"type": "Feature", "geometry": {"type": "Point", "coordinates": [104.48621, 12.38196]}, "properties": {"id": "46004-37287-013-LN2376", "sectors": ["Agriculture, natural resources and rural development"], "title": "TONLE SAP LOWLANDS RURAL DEVELOPMENT PROJECT", "status": "Implementation", "locationName": "Phum\u012d Phsar"}}, {"type": "Feature", "geometry": {"type": "Point", "coordinates": [104.65712, 12.82398]}, "properties": {"id": "46004-37287-013-LN2376", "sectors": ["Agriculture, natural resources and rural development"], "title": "TONLE SAP LOWLANDS RURAL DEVELOPMENT PROJECT", "status": "Implementation", "locationName": "Phum\u012d Kr\u00e2s\u0103ng"}}, {"type": "Feature", "geometry": {"type": "Point", "coordinates": [104.69931, 12.81421]}, "properties": {"id": "46004-37287-013-LN2376", "sectors": ["Agriculture, natural resources and rural development"], "title": "TONLE SAP LOWLANDS RURAL DEVELOPMENT PROJECT", "status": "Implementation", "locationName": "Phum\u012d Kb\u0115l"}}, {"type": "Feature", "geometry": {"type": "Point", "coordinates": [104.48034, 12.39864]}, "properties": {"id": "46004-37287-013-LN2376", "sectors": ["Agriculture, natural resources and rural development"], "title": "TONLE SAP LOWLANDS RURAL DEVELOPMENT PROJECT", "status": "Implementation", "locationName": "Phum\u012d K\u00e2mpr\u00f4ng"}}, {"type": "Feature", "geometry": {"type": "Point", "coordinates": [104.51762, 13.06689]}, "properties": {"id": "46004-37287-013-LN2376", "sectors": ["Agriculture, natural resources and rural development"], "title": "TONLE SAP LOWLANDS RURAL DEVELOPMENT PROJECT", "status": "Implementation", "locationName": "Phum\u012d K\u00e2mpr\u00e9al"}}, {"type": "Feature", "geometry": {"type": "Point", "coordinates": [104.76476, 11.92304]}, "properties": {"id": "46004-37287-013-LN2376", "sectors": ["Agriculture, natural resources and rural development"], "title": "TONLE SAP LOWLANDS RURAL DEVELOPMENT PROJECT", "status": "Implementation", "locationName": "Phum\u012d K\u00e2mp\u00f3ng Tr\u00e2lach"}}, {"type": "Feature", "geometry": {"type": "Point", "coordinates": [104.70693, 12.79137]}, "properties": {"id": "46004-37287-013-LN2376", "sectors": ["Agriculture, natural resources and rural development"], "title": "TONLE SAP LOWLANDS RURAL DEVELOPMENT PROJECT", "status": "Implementation", "locationName": "Phum\u012d Chey"}}, {"type": "Feature", "geometry": {"type": "Point", "coordinates": [104.81839, 11.93133]}, "properties": {"id": "46004-37287-013-LN2376", "sectors": ["Agriculture, natural resources and rural development"], "title": "TONLE SAP LOWLANDS RURAL DEVELOPMENT PROJECT", "status": "Implementation", "locationName": "Phum\u012d Ch\u00e2nt\u00f4r"}}, {"type": "Feature", "geometry": {"type": "Point", "coordinates": [105.2073, 12.46832]}, "properties": {"id": "46004-37287-013-LN2376", "sectors": ["Agriculture, natural resources and rural development"], "title": "TONLE SAP LOWLANDS RURAL DEVELOPMENT PROJECT", "status": "Implementation", "locationName": "Phum\u012d Chaeung Daeung"}}, {"type": "Feature", "geometry": {"type": "Point", "coordinates": [105.11928, 12.42872]}, "properties": {"id": "46004-37287-013-LN2376", "sectors": ["Agriculture, natural resources and rural development"], "title": "TONLE SAP LOWLANDS RURAL DEVELOPMENT PROJECT", "status": "Implementation", "locationName": "Phum\u012d B\u0153\u0306ng (1)"}}, {"type": "Feature", "geometry": {"type": "Point", "coordinates": [104.42063, 12.35118]}, "properties": {"id": "46004-37287-013-LN2376", "sectors": ["Agriculture, natural resources and rural development"], "title": "TONLE SAP LOWLANDS RURAL DEVELOPMENT PROJECT", "status": "Implementation", "locationName": "Phum\u012d \u00c2nhchanh Rung"}}, {"type": "Feature", "geometry": {"type": "Point", "coordinates": [104.82202, 11.99136]}, "properties": {"id": "46004-37287-013-LN2376", "sectors": ["Agriculture, natural resources and rural development"], "title": "TONLE SAP LOWLANDS RURAL DEVELOPMENT PROJECT", "status": "Implementation", "locationName": "Phum\u012d \u00c2mp\u012dl T\u0153\u0306k"}}, {"type": "Feature", "geometry": {"type": "Point", "coordinates": [105.0, 12.83333]}, "properties": {"id": "46004-37287-013-LN2376", "sectors": ["Agriculture, natural resources and rural development"], "title": "TONLE SAP LOWLANDS RURAL DEVELOPMENT PROJECT", "status": "Implementation", "locationName": "Kampong Thom"}}, {"type": "Feature", "geometry": {"type": "Point", "coordinates": [104.55, 12.16667]}, "properties": {"id": "46004-37287-013-LN2376", "sectors": ["Agriculture, natural resources and rural development"], "title": "TONLE SAP LOWLANDS RURAL DEVELOPMENT PROJECT", "status": "Implementation", "locationName": "Kampong Chhnang"}}, {"type": "Feature", "geometry": {"type": "Point", "coordinates": [105.06, 12.42]}, "properties": {"id": "46004-37287-013-LN2376", "sectors": ["Agriculture, natural resources and rural development"], "title": "TONLE SAP LOWLANDS RURAL DEVELOPMENT PROJECT", "status": "Implementation", "locationName": "Baray"}}, {"type": "Feature", "geometry": {"type": "Point", "coordinates": [103.66667, 12.33333]}, "properties": {"id": "46004-41123-013-LN2406", "sectors": ["Transport"], "title": "ROAD ASSET MANAGEMENT PROJECT", "status": "Implementation", "locationName": "Pursat"}}, {"type": "Feature", "geometry": {"type": "Point", "coordinates": [104.91601, 11.56245]}, "properties": {"id": "46004-41123-013-LN2406", "sectors": ["Transport"], "title": "ROAD ASSET MANAGEMENT PROJECT", "status": "Implementation", "locationName": "Phnom Penh"}}, {"type": "Feature", "geometry": {"type": "Point", "coordinates": [105.83333, 11.91667]}, "properties": {"id": "46004-41123-013-LN2406", "sectors": ["Transport"], "title": "ROAD ASSET MANAGEMENT PROJECT", "status": "Implementation", "locationName": "Sr\u014fk Tbong Khm\u016dm"}}, {"type": "Feature", "geometry": {"type": "Point", "coordinates": [104.83333, 10.91667]}, "properties": {"id": "46004-41123-013-LN2406", "sectors": ["Transport"], "title": "ROAD ASSET MANAGEMENT PROJECT", "status": "Implementation", "locationName": "Takeo"}}, {"type": "Feature", "geometry": {"type": "Point", "coordinates": [105.83333, 11.16667]}, "properties": {"id": "46004-41123-013-LN2406", "sectors": ["Transport"], "title": "ROAD ASSET MANAGEMENT PROJECT", "status": "Implementation", "locationName": "Svay Rieng"}}, {"type": "Feature", "geometry": {"type": "Point", "coordinates": [105.79935, 11.08785]}, "properties": {"id": "46004-41123-013-LN2406", "sectors": ["Transport"], "title": "ROAD ASSET MANAGEMENT PROJECT", "status": "Implementation", "locationName": "Svay Rieng"}}, {"type": "Feature", "geometry": {"type": "Point", "coordinates": [105.46667, 11.36667]}, "properties": {"id": "46004-41123-013-LN2406", "sectors": ["Transport"], "title": "ROAD ASSET MANAGEMENT PROJECT", "status": "Implementation", "locationName": "Prey Veng"}}, {"type": "Feature", "geometry": {"type": "Point", "coordinates": [103.9192, 12.53878]}, "properties": {"id": "46004-41123-013-LN2406", "sectors": ["Transport"], "title": "ROAD ASSET MANAGEMENT PROJECT", "status": "Implementation", "locationName": "Pursat"}}, {"type": "Feature", "geometry": {"type": "Point", "coordinates": [106.08333, 12.66667]}, "properties": {"id": "46004-41123-013-LN2406", "sectors": ["Transport"], "title": "ROAD ASSET MANAGEMENT PROJECT", "status": "Implementation", "locationName": "Kratie"}}, {"type": "Feature", "geometry": {"type": "Point", "coordinates": [105.0, 11.41667]}, "properties": {"id": "46004-41123-013-LN2406", "sectors": ["Transport"], "title": "ROAD ASSET MANAGEMENT PROJECT", "status": "Implementation", "locationName": "Kandal"}}, {"type": "Feature", "geometry": {"type": "Point", "coordinates": [105.5, 11.08333]}, "properties": {"id": "46004-41123-013-LN2406", "sectors": ["Transport"], "title": "ROAD ASSET MANAGEMENT PROJECT", "status": "Implementation", "locationName": "Sr\u014fk K\u00e2mp\u00f3ng Tr\u00e2b\u00eak"}}, {"type": "Feature", "geometry": {"type": "Point", "coordinates": [105.48327, 11.14566]}, "properties": {"id": "46004-41123-013-LN2406", "sectors": ["Transport"], "title": "ROAD ASSET MANAGEMENT PROJECT", "status": "Implementation", "locationName": "K\u00e2mp\u00f3ng Tr\u00e2b\u00eak"}}, {"type": "Feature", "geometry": {"type": "Point", "coordinates": [104.55, 12.16667]}, "properties": {"id": "46004-41123-013-LN2406", "sectors": ["Transport"], "title": "ROAD ASSET MANAGEMENT PROJECT", "status": "Implementation", "locationName": "Kampong Chhnang"}}, {"type": "Feature", "geometry": {"type": "Point", "coordinates": [104.66667, 12.25]}, "properties": {"id": "46004-41123-013-LN2406", "sectors": ["Transport"], "title": "ROAD ASSET MANAGEMENT PROJECT", "status": "Implementation", "locationName": "Kampong Chhnang"}}, {"type": "Feature", "geometry": {"type": "Point", "coordinates": [105.58333, 12.08333]}, "properties": {"id": "46004-41123-013-LN2406", "sectors": ["Transport"], "title": "ROAD ASSET MANAGEMENT PROJECT", "status": "Implementation", "locationName": "Kampong Cham"}}, {"type": "Feature", "geometry": {"type": "Point", "coordinates": [105.0, 13.0]}, "properties": {"id": "46004-41123-013-LN2406", "sectors": ["Transport"], "title": "ROAD ASSET MANAGEMENT PROJECT", "status": "Implementation", "locationName": "Cambodia"}}, {"type": "Feature", "geometry": {"type": "Point", "coordinates": [104.67, 12.26]}, "properties": {"id": "46004-41123-013-LN2406", "sectors": ["Transport"], "title": "ROAD ASSET MANAGEMENT PROJECT", "status": "Implementation", "locationName": "Kampong Chhnang"}}, {"type": "Feature", "geometry": {"type": "Point", "coordinates": [104.9177, 11.5591]}, "properties": {"id": "46004-41123-013-LN2406", "sectors": ["Transport"], "title": "ROAD ASSET MANAGEMENT PROJECT", "status": "Implementation", "locationName": "Phnom Penh"}}, {"type": "Feature", "geometry": {"type": "Point", "coordinates": [103.92, 12.48]}, "properties": {"id": "46004-41123-013-LN2406", "sectors": ["Transport"], "title": "ROAD ASSET MANAGEMENT PROJECT", "status": "Implementation", "locationName": "Sampov Meas"}}, {"type": "Feature", "geometry": {"type": "Point", "coordinates": [103.49417, 11.79246]}, "properties": {"id": "46004-40253-023-GRNT0241", "sectors": ["Agriculture, natural resources and rural development"], "title": "GMS BIODIVERSITY CONSERVATION CORRIDORS PROJECT-CA", "status": "Implementation", "locationName": "Tatai Leu"}}, {"type": "Feature", "geometry": {"type": "Point", "coordinates": [103.7, 10.98333]}, "properties": {"id": "46004-40253-023-GRNT0241", "sectors": ["Agriculture, natural resources and rural development"], "title": "GMS BIODIVERSITY CONSERVATION CORRIDORS PROJECT-CA", "status": "Implementation", "locationName": "Sr\u014fk Sr\u00ea \u00c2mb\u0115l"}}, {"type": "Feature", "geometry": {"type": "Point", "coordinates": [103.48333, 11.18333]}, "properties": {"id": "46004-40253-023-GRNT0241", "sectors": ["Agriculture, natural resources and rural development"], "title": "GMS BIODIVERSITY CONSERVATION CORRIDORS PROJECT-CA", "status": "Implementation", "locationName": "Sala \u00c2ndong Tuk"}}, {"type": "Feature", "geometry": {"type": "Point", "coordinates": [106.88065, 12.18703]}, "properties": {"id": "46004-40253-023-GRNT0241", "sectors": ["Agriculture, natural resources and rural development"], "title": "GMS BIODIVERSITY CONSERVATION CORRIDORS PROJECT-CA", "status": "Implementation", "locationName": "Phum\u012d Sr\u00ea Pre\u0103h"}}, {"type": "Feature", "geometry": {"type": "Point", "coordinates": [106.47036, 12.5945]}, "properties": {"id": "46004-40253-023-GRNT0241", "sectors": ["Agriculture, natural resources and rural development"], "title": "GMS BIODIVERSITY CONSERVATION CORRIDORS PROJECT-CA", "status": "Implementation", "locationName": "Phum\u012d Sr\u00ea Kht\u016dm"}}, {"type": "Feature", "geometry": {"type": "Point", "coordinates": [107.22152, 12.68775]}, "properties": {"id": "46004-40253-023-GRNT0241", "sectors": ["Agriculture, natural resources and rural development"], "title": "GMS BIODIVERSITY CONSERVATION CORRIDORS PROJECT-CA", "status": "Implementation", "locationName": "Phum\u012d Pu Chri"}}, {"type": "Feature", "geometry": {"type": "Point", "coordinates": [102.98619, 11.52707]}, "properties": {"id": "46004-40253-023-GRNT0241", "sectors": ["Agriculture, natural resources and rural development"], "title": "GMS BIODIVERSITY CONSERVATION CORRIDORS PROJECT-CA", "status": "Implementation", "locationName": "Phum\u012d P\u00e9am Kr\u00e2sa\u00f4b"}}, {"type": "Feature", "geometry": {"type": "Point", "coordinates": [107.34631, 12.34362]}, "properties": {"id": "46004-40253-023-GRNT0241", "sectors": ["Agriculture, natural resources and rural development"], "title": "GMS BIODIVERSITY CONSERVATION CORRIDORS PROJECT-CA", "status": "Implementation", "locationName": "Phum\u012d D\u0103k D\u0103m"}}, {"type": "Feature", "geometry": {"type": "Point", "coordinates": [107.33295, 12.64096]}, "properties": {"id": "46004-40253-023-GRNT0241", "sectors": ["Agriculture, natural resources and rural development"], "title": "GMS BIODIVERSITY CONSERVATION CORRIDORS PROJECT-CA", "status": "Implementation", "locationName": "Kr\u00e2ng T\u00e9h"}}, {"type": "Feature", "geometry": {"type": "Point", "coordinates": [107.0, 13.0]}, "properties": {"id": "46004-40253-023-GRNT0241", "sectors": ["Agriculture, natural resources and rural development"], "title": "GMS BIODIVERSITY CONSERVATION CORRIDORS PROJECT-CA", "status": "Implementation", "locationName": "Sr\u014fk Ka\u00f4h Nh\u00eak"}}, {"type": "Feature", "geometry": {"type": "Point", "coordinates": [103.16667, 11.5]}, "properties": {"id": "46004-40253-023-GRNT0241", "sectors": ["Agriculture, natural resources and rural development"], "title": "GMS BIODIVERSITY CONSERVATION CORRIDORS PROJECT-CA", "status": "Implementation", "locationName": "Sr\u014fk Ka\u00f4h K\u014fng"}}, {"type": "Feature", "geometry": {"type": "Point", "coordinates": [106.77025, 12.41722]}, "properties": {"id": "46004-40253-023-GRNT0241", "sectors": ["Agriculture, natural resources and rural development"], "title": "GMS BIODIVERSITY CONSERVATION CORRIDORS PROJECT-CA", "status": "Implementation", "locationName": "Sr\u014fk Kaev Seima"}}, {"type": "Feature", "geometry": {"type": "Point", "coordinates": [107.0948, 12.7278]}, "properties": {"id": "46004-40253-023-GRNT0241", "sectors": ["Agriculture, natural resources and rural development"], "title": "GMS BIODIVERSITY CONSERVATION CORRIDORS PROJECT-CA", "status": "Implementation", "locationName": "Sr\u014fk Pech Chreada"}}, {"type": "Feature", "geometry": {"type": "Point", "coordinates": [107.15525, 12.5048]}, "properties": {"id": "46004-40253-023-GRNT0241", "sectors": ["Agriculture, natural resources and rural development"], "title": "GMS BIODIVERSITY CONSERVATION CORRIDORS PROJECT-CA", "status": "Implementation", "locationName": "Kr\u014fng S\u00eanm\u00f4no\u016dr\u00f4m"}}, {"type": "Feature", "geometry": {"type": "Point", "coordinates": [103.01159, 11.81292]}, "properties": {"id": "46004-40253-023-GRNT0241", "sectors": ["Agriculture, natural resources and rural development"], "title": "GMS BIODIVERSITY CONSERVATION CORRIDORS PROJECT-CA", "status": "Implementation", "locationName": "Sr\u014fk M\u00f4nd\u00f4l Seima"}}, {"type": "Feature", "geometry": {"type": "Point", "coordinates": [103.26019, 11.3761]}, "properties": {"id": "46004-40253-023-GRNT0241", "sectors": ["Agriculture, natural resources and rural development"], "title": "GMS BIODIVERSITY CONSERVATION CORRIDORS PROJECT-CA", "status": "Implementation", "locationName": "Tr\u00e2pe\u0103ng Rung"}}, {"type": "Feature", "geometry": {"type": "Point", "coordinates": [103.41667, 11.81667]}, "properties": {"id": "46004-40253-023-GRNT0241", "sectors": ["Agriculture, natural resources and rural development"], "title": "GMS BIODIVERSITY CONSERVATION CORRIDORS PROJECT-CA", "status": "Implementation", "locationName": "Sr\u014fk Thm\u00e2 Bang"}}, {"type": "Feature", "geometry": {"type": "Point", "coordinates": [103.66667, 12.33333]}, "properties": {"id": "46004-42186-013-LN2455", "sectors": ["Agriculture, natural resources and rural development"], "title": "EMERGENCY FOOD ASSISTANCE PROJECT", "status": "Completion", "locationName": "Pursat"}}, {"type": "Feature", "geometry": {"type": "Point", "coordinates": [103.08333, 12.91667]}, "properties": {"id": "46004-42186-013-LN2455", "sectors": ["Agriculture, natural resources and rural development"], "title": "EMERGENCY FOOD ASSISTANCE PROJECT", "status": "Completion", "locationName": "Battambang"}}, {"type": "Feature", "geometry": {"type": "Point", "coordinates": [103.5, 14.16667]}, "properties": {"id": "46004-42186-013-LN2455", "sectors": ["Agriculture, natural resources and rural development"], "title": "EMERGENCY FOOD ASSISTANCE PROJECT", "status": "Completion", "locationName": "\u014et\u00e2r M\u00e9anchey"}}, {"type": "Feature", "geometry": {"type": "Point", "coordinates": [104.0, 13.5]}, "properties": {"id": "46004-42186-013-LN2455", "sectors": ["Agriculture, natural resources and rural development"], "title": "EMERGENCY FOOD ASSISTANCE PROJECT", "status": "Completion", "locationName": "Siem Reap"}}, {"type": "Feature", "geometry": {"type": "Point", "coordinates": [105.0, 12.83333]}, "properties": {"id": "46004-42186-013-LN2455", "sectors": ["Agriculture, natural resources and rural development"], "title": "EMERGENCY FOOD ASSISTANCE PROJECT", "status": "Completion", "locationName": "Kampong Thom"}}, {"type": "Feature", "geometry": {"type": "Point", "coordinates": [104.55, 12.16667]}, "properties": {"id": "46004-42186-013-LN2455", "sectors": ["Agriculture, natural resources and rural development"], "title": "EMERGENCY FOOD ASSISTANCE PROJECT", "status": "Completion", "locationName": "Kampong Chhnang"}}, {"type": "Feature", "geometry": {"type": "Point", "coordinates": [103.0, 13.75]}, "properties": {"id": "46004-42186-013-LN2455", "sectors": ["Agriculture, natural resources and rural development"], "title": "EMERGENCY FOOD ASSISTANCE PROJECT", "status": "Completion", "locationName": "Banteay Meanchey"}}, {"type": "Feature", "geometry": {"type": "Point", "coordinates": [105.0, 13.0]}, "properties": {"id": "46004-38421-013-LN2480", "sectors": ["Public sector management"], "title": "PROMOTING ECONOMIC DIVERSIFICATION PROGRAM - SP 1", "status": "Completion", "locationName": "Cambodia"}}, {"type": "Feature", "geometry": {"type": "Point", "coordinates": [103.0, 13.83333]}, "properties": {"id": "46004-42358-013-LN2539", "sectors": ["Transport"], "title": "GREATER MEKONG SUBREGION:CAMBODIA NORTHWEST PROV ROAD IMPR PROJ", "status": "Implementation", "locationName": "Sr\u014fk Thm\u00e2 P\u00f4k"}}, {"type": "Feature", "geometry": {"type": "Point", "coordinates": [102.96232, 13.80208]}, "properties": {"id": "46004-42358-013-LN2539", "sectors": ["Transport"], "title": "GREATER MEKONG SUBREGION:CAMBODIA NORTHWEST PROV ROAD IMPR PROJ", "status": "Implementation", "locationName": "Svay Ch\u00e9k"}}, {"type": "Feature", "geometry": {"type": "Point", "coordinates": [102.97369, 13.58588]}, "properties": {"id": "46004-42358-013-LN2539", "sectors": ["Transport"], "title": "GREATER MEKONG SUBREGION:CAMBODIA NORTHWEST PROV ROAD IMPR PROJ", "status": "Implementation", "locationName": "Sis\u014fph\u014fn"}}, {"type": "Feature", "geometry": {"type": "Point", "coordinates": [103.62739, 14.25039]}, "properties": {"id": "46004-42358-013-LN2539", "sectors": ["Transport"], "title": "GREATER MEKONG SUBREGION:CAMBODIA NORTHWEST PROV ROAD IMPR PROJ", "status": "Implementation", "locationName": "Sr\u014fk S\u00e2mra\u00f4ng"}}, {"type": "Feature", "geometry": {"type": "Point", "coordinates": [102.99764, 13.85698]}, "properties": {"id": "46004-42358-013-LN2539", "sectors": ["Transport"], "title": "GREATER MEKONG SUBREGION:CAMBODIA NORTHWEST PROV ROAD IMPR PROJ", "status": "Implementation", "locationName": "Phum\u012d Tr\u00e9as"}}, {"type": "Feature", "geometry": {"type": "Point", "coordinates": [103.51761, 14.18175]}, "properties": {"id": "46004-42358-013-LN2539", "sectors": ["Transport"], "title": "GREATER MEKONG SUBREGION:CAMBODIA NORTHWEST PROV ROAD IMPR PROJ", "status": "Implementation", "locationName": "S\u00e2mra\u00f4ng"}}, {"type": "Feature", "geometry": {"type": "Point", "coordinates": [103.28842, 14.16183]}, "properties": {"id": "46004-42358-013-LN2539", "sectors": ["Transport"], "title": "GREATER MEKONG SUBREGION:CAMBODIA NORTHWEST PROV ROAD IMPR PROJ", "status": "Implementation", "locationName": "Phum\u012d Ko\u016dk M\u00f4n"}}, {"type": "Feature", "geometry": {"type": "Point", "coordinates": [103.1062, 14.07087]}, "properties": {"id": "46004-42358-013-LN2539", "sectors": ["Transport"], "title": "GREATER MEKONG SUBREGION:CAMBODIA NORTHWEST PROV ROAD IMPR PROJ", "status": "Implementation", "locationName": "Phum\u012d B\u00e2nt\u00e9ay Chhmar"}}, {"type": "Feature", "geometry": {"type": "Point", "coordinates": [103.25925, 14.1859]}, "properties": {"id": "46004-42358-013-LN2539", "sectors": ["Transport"], "title": "GREATER MEKONG SUBREGION:CAMBODIA NORTHWEST PROV ROAD IMPR PROJ", "status": "Implementation", "locationName": "Sr\u014fk B\u00e2nt\u00e9ay \u00c2mp\u012dl"}}, {"type": "Feature", "geometry": {"type": "Point", "coordinates": [103.69706, 14.40987]}, "properties": {"id": "46004-42358-013-LN2539", "sectors": ["Transport"], "title": "GREATER MEKONG SUBREGION:CAMBODIA NORTHWEST PROV ROAD IMPR PROJ", "status": "Implementation", "locationName": "O'Smach"}}, {"type": "Feature", "geometry": {"type": "Point", "coordinates": [102.95269, 13.81305]}, "properties": {"id": "46004-42358-013-LN2539", "sectors": ["Transport"], "title": "GREATER MEKONG SUBREGION:CAMBODIA NORTHWEST PROV ROAD IMPR PROJ", "status": "Implementation", "locationName": "Sr\u014fk Svay Ch\u00e9k"}}, {"type": "Feature", "geometry": {"type": "Point", "coordinates": [103.01265, 13.63849]}, "properties": {"id": "46004-42358-013-LN2539", "sectors": ["Transport"], "title": "GREATER MEKONG SUBREGION:CAMBODIA NORTHWEST PROV ROAD IMPR PROJ", "status": "Implementation", "locationName": "Serei Saophoan"}}, {"type": "Feature", "geometry": {"type": "Point", "coordinates": [102.97369, 13.58588]}, "properties": {"id": "46004-41435-013-LN2599", "sectors": ["Agriculture, natural resources and rural development"], "title": "TONLE SAP POVERTY REDUCTION AND SMALLHOLDER DEVELOPMENT PROJECT", "status": "Implementation", "locationName": "Sis\u014fph\u014fn"}}, {"type": "Feature", "geometry": {"type": "Point", "coordinates": [103.86056, 13.36179]}, "properties": {"id": "46004-41435-013-LN2599", "sectors": ["Agriculture, natural resources and rural development"], "title": "TONLE SAP POVERTY REDUCTION AND SMALLHOLDER DEVELOPMENT PROJECT", "status": "Implementation", "locationName": "Siem Reap"}}, {"type": "Feature", "geometry": {"type": "Point", "coordinates": [105.4635, 11.99339]}, "properties": {"id": "46004-41435-013-LN2599", "sectors": ["Agriculture, natural resources and rural development"], "title": "TONLE SAP POVERTY REDUCTION AND SMALLHOLDER DEVELOPMENT PROJECT", "status": "Implementation", "locationName": "Kampong Cham"}}, {"type": "Feature", "geometry": {"type": "Point", "coordinates": [104.87, 12.63]}, "properties": {"id": "46004-41435-013-LN2599", "sectors": ["Agriculture, natural resources and rural development"], "title": "TONLE SAP POVERTY REDUCTION AND SMALLHOLDER DEVELOPMENT PROJECT", "status": "Implementation", "locationName": "Stueng Saen"}}, {"type": "Feature", "geometry": {"type": "Point", "coordinates": [102.97369, 13.58588]}, "properties": {"id": "46004-37269-023-LN2602", "sectors": ["Transport"], "title": "GMS:REHABILITATION OF THE RAILWAY IN CAMBODIA PROJ(SUPPLEMENTARY)", "status": "Implementation", "locationName": "Sis\u014fph\u014fn"}}, {"type": "Feature", "geometry": {"type": "Point", "coordinates": [102.5625, 13.65611]}, "properties": {"id": "46004-37269-023-LN2602", "sectors": ["Transport"], "title": "GMS:REHABILITATION OF THE RAILWAY IN CAMBODIA PROJ(SUPPLEMENTARY)", "status": "Implementation", "locationName": "Pa\u00f4y P\u00eat"}}, {"type": "Feature", "geometry": {"type": "Point", "coordinates": [103.83333, 11.16667]}, "properties": {"id": "46004-37269-023-LN2602", "sectors": ["Transport"], "title": "GMS:REHABILITATION OF THE RAILWAY IN CAMBODIA PROJ(SUPPLEMENTARY)", "status": "Implementation", "locationName": "Sihanoukville"}}, {"type": "Feature", "geometry": {"type": "Point", "coordinates": [102.60956, 13.64699]}, "properties": {"id": "46004-37269-023-LN2602", "sectors": ["Transport"], "title": "GMS:REHABILITATION OF THE RAILWAY IN CAMBODIA PROJ(SUPPLEMENTARY)", "status": "Implementation", "locationName": "Ou Chrov District"}}, {"type": "Feature", "geometry": {"type": "Point", "coordinates": [104.90484, 11.55033]}, "properties": {"id": "46004-37269-023-LN2602", "sectors": ["Transport"], "title": "GMS:REHABILITATION OF THE RAILWAY IN CAMBODIA PROJ(SUPPLEMENTARY)", "status": "Implementation", "locationName": "Prampi Makara"}}, {"type": "Feature", "geometry": {"type": "Point", "coordinates": [103.01265, 13.63849]}, "properties": {"id": "46004-37269-023-LN2602", "sectors": ["Transport"], "title": "GMS:REHABILITATION OF THE RAILWAY IN CAMBODIA PROJ(SUPPLEMENTARY)", "status": "Implementation", "locationName": "Serei Saophoan"}}, {"type": "Feature", "geometry": {"type": "Point", "coordinates": [103.53108, 10.62483]}, "properties": {"id": "46004-37269-023-LN2602", "sectors": ["Transport"], "title": "GMS:REHABILITATION OF THE RAILWAY IN CAMBODIA PROJ(SUPPLEMENTARY)", "status": "Implementation", "locationName": "Mittakpheap District"}}, {"type": "Feature", "geometry": {"type": "Point", "coordinates": [104.33333, 12.08333]}, "properties": {"id": "46004-42334-013-LN2670", "sectors": ["Transport"], "title": "RURAL ROADS IMPROVEMENT PROJECT", "status": "Implementation", "locationName": "Sr\u014fk T\u0153\u0306k Ph\u014fs"}}, {"type": "Feature", "geometry": {"type": "Point", "coordinates": [105.28333, 13.08333]}, "properties": {"id": "46004-42334-013-LN2670", "sectors": ["Transport"], "title": "RURAL ROADS IMPROVEMENT PROJECT", "status": "Implementation", "locationName": "Sr\u014fk S\u00e2nd\u0103n"}}, {"type": "Feature", "geometry": {"type": "Point", "coordinates": [106.01826, 12.69116]}, "properties": {"id": "46004-42334-013-LN2670", "sectors": ["Transport"], "title": "RURAL ROADS IMPROVEMENT PROJECT", "status": "Implementation", "locationName": "S\u00e2nd\u0103n"}}, {"type": "Feature", "geometry": {"type": "Point", "coordinates": [103.66667, 13.41667]}, "properties": {"id": "46004-42334-013-LN2670", "sectors": ["Transport"], "title": "RURAL ROADS IMPROVEMENT PROJECT", "status": "Implementation", "locationName": "Sr\u014fk Pu\u014fk"}}, {"type": "Feature", "geometry": {"type": "Point", "coordinates": [104.16667, 11.41667]}, "properties": {"id": "46004-42334-013-LN2670", "sectors": ["Transport"], "title": "RURAL ROADS IMPROVEMENT PROJECT", "status": "Implementation", "locationName": "Sr\u014fk Phnum Sru\u014fch"}}, {"type": "Feature", "geometry": {"type": "Point", "coordinates": [103.66667, 12.08333]}, "properties": {"id": "46004-42334-013-LN2670", "sectors": ["Transport"], "title": "RURAL ROADS IMPROVEMENT PROJECT", "status": "Implementation", "locationName": "Sr\u014fk Phnum Kr\u00e2vanh"}}, {"type": "Feature", "geometry": {"type": "Point", "coordinates": [104.61224, 11.66845]}, "properties": {"id": "46004-42334-013-LN2670", "sectors": ["Transport"], "title": "RURAL ROADS IMPROVEMENT PROJECT", "status": "Implementation", "locationName": "Sr\u014fk \u014ed\u014fngk"}}, {"type": "Feature", "geometry": {"type": "Point", "coordinates": [104.74359, 11.82252]}, "properties": {"id": "46004-42334-013-LN2670", "sectors": ["Transport"], "title": "RURAL ROADS IMPROVEMENT PROJECT", "status": "Implementation", "locationName": "\u014ed\u014fngk"}}, {"type": "Feature", "geometry": {"type": "Point", "coordinates": [106.25, 11.83333]}, "properties": {"id": "46004-42334-013-LN2670", "sectors": ["Transport"], "title": "RURAL ROADS IMPROVEMENT PROJECT", "status": "Implementation", "locationName": "Sr\u014fk M\u00e9m\u00f3t"}}, {"type": "Feature", "geometry": {"type": "Point", "coordinates": [106.18206, 11.82883]}, "properties": {"id": "46004-42334-013-LN2670", "sectors": ["Transport"], "title": "RURAL ROADS IMPROVEMENT PROJECT", "status": "Implementation", "locationName": "M\u00e9m\u00f3t"}}, {"type": "Feature", "geometry": {"type": "Point", "coordinates": [103.5, 13.58333]}, "properties": {"id": "46004-42334-013-LN2670", "sectors": ["Transport"], "title": "RURAL ROADS IMPROVEMENT PROJECT", "status": "Implementation", "locationName": "Sr\u014fk Kr\u00e2l\u0103nh"}}, {"type": "Feature", "geometry": {"type": "Point", "coordinates": [103.42, 12.78]}, "properties": {"id": "46004-42334-013-LN2670", "sectors": ["Transport"], "title": "RURAL ROADS IMPROVEMENT PROJECT", "status": "Implementation", "locationName": "Moung Ruessei"}}, {"type": "Feature", "geometry": {"type": "Point", "coordinates": [103.79, 12.78]}, "properties": {"id": "46004-42334-013-LN2670", "sectors": ["Transport"], "title": "RURAL ROADS IMPROVEMENT PROJECT", "status": "Implementation", "locationName": "Bakan"}}, {"type": "Feature", "geometry": {"type": "Point", "coordinates": [104.61, 12.21]}, "properties": {"id": "46004-42334-013-LN2670", "sectors": ["Transport"], "title": "RURAL ROADS IMPROVEMENT PROJECT", "status": "Implementation", "locationName": "Rolea B'ier"}}, {"type": "Feature", "geometry": {"type": "Point", "coordinates": [103.71695, 13.72133]}, "properties": {"id": "46004-42334-013-LN2670", "sectors": ["Transport"], "title": "RURAL ROADS IMPROVEMENT PROJECT", "status": "Implementation", "locationName": "Angkor Chum"}}, {"type": "Feature", "geometry": {"type": "Point", "coordinates": [103.89968, 13.83574]}, "properties": {"id": "46004-42334-013-LN2670", "sectors": ["Transport"], "title": "RURAL ROADS IMPROVEMENT PROJECT", "status": "Implementation", "locationName": "Varin"}}, {"type": "Feature", "geometry": {"type": "Point", "coordinates": [105.53875, 11.81278]}, "properties": {"id": "46004-42334-013-LN2670", "sectors": ["Transport"], "title": "RURAL ROADS IMPROVEMENT PROJECT", "status": "Implementation", "locationName": "Sr\u014fk O Re\u0103ng \u00c2u"}}, {"type": "Feature", "geometry": {"type": "Point", "coordinates": [104.02592, 12.71245]}, "properties": {"id": "46004-42334-013-LN2670", "sectors": ["Transport"], "title": "RURAL ROADS IMPROVEMENT PROJECT", "status": "Implementation", "locationName": "Sr\u014fk K\u00e2ndi\u0115ng"}}, {"type": "Feature", "geometry": {"type": "Point", "coordinates": [104.53584, 11.18432]}, "properties": {"id": "46004-42334-013-LN2670", "sectors": ["Transport"], "title": "RURAL ROADS IMPROVEMENT PROJECT", "status": "Implementation", "locationName": "Sr\u014fk Basedth"}}, {"type": "Feature", "geometry": {"type": "Point", "coordinates": [104.55549, 11.86788]}, "properties": {"id": "46004-42334-013-LN2670", "sectors": ["Transport"], "title": "RURAL ROADS IMPROVEMENT PROJECT", "status": "Implementation", "locationName": "Sr\u014fk Sameakki Mean Chey"}}, {"type": "Feature", "geometry": {"type": "Point", "coordinates": [105.1416, 12.86413]}, "properties": {"id": "46004-42334-013-LN2670", "sectors": ["Transport"], "title": "RURAL ROADS IMPROVEMENT PROJECT", "status": "Implementation", "locationName": "Sr\u014fk Pr\u00e2sat S\u00e2mbor"}}, {"type": "Feature", "geometry": {"type": "Point", "coordinates": [105.52399, 11.84265]}, "properties": {"id": "46004-42334-013-LN2670", "sectors": ["Transport"], "title": "RURAL ROADS IMPROVEMENT PROJECT", "status": "Implementation", "locationName": "Ou Reang Ov District"}}, {"type": "Feature", "geometry": {"type": "Point", "coordinates": [105.6431, 12.2783]}, "properties": {"id": "46004-42334-013-LN2670", "sectors": ["Transport"], "title": "RURAL ROADS IMPROVEMENT PROJECT", "status": "Implementation", "locationName": "Krouch Chhmar District"}}, {"type": "Feature", "geometry": {"type": "Point", "coordinates": [103.68262, 13.28709]}, "properties": {"id": "46004-38558-013-LN2672", "sectors": ["Agriculture, natural resources and rural development"], "title": "WATER RESOURCES MANAGEMENT SECTOR DEVT PROGRAM (PROJECT LOAN)", "status": "Implementation", "locationName": "O Tuk"}}, {"type": "Feature", "geometry": {"type": "Point", "coordinates": [104.0, 13.5]}, "properties": {"id": "46004-38558-013-LN2672", "sectors": ["Agriculture, natural resources and rural development"], "title": "WATER RESOURCES MANAGEMENT SECTOR DEVT PROGRAM (PROJECT LOAN)", "status": "Implementation", "locationName": "Siem Reap"}}, {"type": "Feature", "geometry": {"type": "Point", "coordinates": [103.54779, 13.86566]}, "properties": {"id": "46004-38558-013-LN2672", "sectors": ["Agriculture, natural resources and rural development"], "title": "WATER RESOURCES MANAGEMENT SECTOR DEVT PROGRAM (PROJECT LOAN)", "status": "Implementation", "locationName": "Phum\u012d Sl\u00eang Sp\u00e9an"}}, {"type": "Feature", "geometry": {"type": "Point", "coordinates": [104.6443, 11.52161]}, "properties": {"id": "46004-38558-013-LN2672", "sectors": ["Agriculture, natural resources and rural development"], "title": "WATER RESOURCES MANAGEMENT SECTOR DEVT PROGRAM (PROJECT LOAN)", "status": "Implementation", "locationName": "Phum\u012d \u00c2ngk Khmau"}}, {"type": "Feature", "geometry": {"type": "Point", "coordinates": [105.19353, 13.00808]}, "properties": {"id": "46004-38558-013-LN2672", "sectors": ["Agriculture, natural resources and rural development"], "title": "WATER RESOURCES MANAGEMENT SECTOR DEVT PROGRAM (PROJECT LOAN)", "status": "Implementation", "locationName": "O M\u00e9an"}}, {"type": "Feature", "geometry": {"type": "Point", "coordinates": [105.0, 12.83333]}, "properties": {"id": "46004-38558-013-LN2672", "sectors": ["Agriculture, natural resources and rural development"], "title": "WATER RESOURCES MANAGEMENT SECTOR DEVT PROGRAM (PROJECT LOAN)", "status": "Implementation", "locationName": "Kampong Thom"}}, {"type": "Feature", "geometry": {"type": "Point", "coordinates": [103.0, 13.75]}, "properties": {"id": "46004-38558-013-LN2672", "sectors": ["Agriculture, natural resources and rural development"], "title": "WATER RESOURCES MANAGEMENT SECTOR DEVT PROGRAM (PROJECT LOAN)", "status": "Implementation", "locationName": "Banteay Meanchey"}}, {"type": "Feature", "geometry": {"type": "Point", "coordinates": [104.54493, 13.74992]}, "properties": {"id": "46004-38558-013-LN2672", "sectors": ["Agriculture, natural resources and rural development"], "title": "WATER RESOURCES MANAGEMENT SECTOR DEVT PROGRAM (PROJECT LOAN)", "status": "Implementation", "locationName": "Prasat Pram"}}, {"type": "Feature", "geometry": {"type": "Point", "coordinates": [103.68262, 13.28709]}, "properties": {"id": "46004-38558-013-LN2673", "sectors": ["Agriculture, natural resources and rural development"], "title": "WATER RESOURCES MANAGEMENT SECTOR DEVT PROGRAM (PROGRAM LOAN)", "status": "Implementation", "locationName": "O Tuk"}}, {"type": "Feature", "geometry": {"type": "Point", "coordinates": [104.0, 13.5]}, "properties": {"id": "46004-38558-013-LN2673", "sectors": ["Agriculture, natural resources and rural development"], "title": "WATER RESOURCES MANAGEMENT SECTOR DEVT PROGRAM (PROGRAM LOAN)", "status": "Implementation", "locationName": "Siem Reap"}}, {"type": "Feature", "geometry": {"type": "Point", "coordinates": [103.54779, 13.86566]}, "properties": {"id": "46004-38558-013-LN2673", "sectors": ["Agriculture, natural resources and rural development"], "title": "WATER RESOURCES MANAGEMENT SECTOR DEVT PROGRAM (PROGRAM LOAN)", "status": "Implementation", "locationName": "Phum\u012d Sl\u00eang Sp\u00e9an"}}, {"type": "Feature", "geometry": {"type": "Point", "coordinates": [104.6443, 11.52161]}, "properties": {"id": "46004-38558-013-LN2673", "sectors": ["Agriculture, natural resources and rural development"], "title": "WATER RESOURCES MANAGEMENT SECTOR DEVT PROGRAM (PROGRAM LOAN)", "status": "Implementation", "locationName": "Phum\u012d \u00c2ngk Khmau"}}, {"type": "Feature", "geometry": {"type": "Point", "coordinates": [105.19353, 13.00808]}, "properties": {"id": "46004-38558-013-LN2673", "sectors": ["Agriculture, natural resources and rural development"], "title": "WATER RESOURCES MANAGEMENT SECTOR DEVT PROGRAM (PROGRAM LOAN)", "status": "Implementation", "locationName": "O M\u00e9an"}}, {"type": "Feature", "geometry": {"type": "Point", "coordinates": [105.0, 12.83333]}, "properties": {"id": "46004-38558-013-LN2673", "sectors": ["Agriculture, natural resources and rural development"], "title": "WATER RESOURCES MANAGEMENT SECTOR DEVT PROGRAM (PROGRAM LOAN)", "status": "Implementation", "locationName": "Kampong Thom"}}, {"type": "Feature", "geometry": {"type": "Point", "coordinates": [103.0, 13.75]}, "properties": {"id": "46004-38558-013-LN2673", "sectors": ["Agriculture, natural resources and rural development"], "title": "WATER RESOURCES MANAGEMENT SECTOR DEVT PROGRAM (PROGRAM LOAN)", "status": "Implementation", "locationName": "Banteay Meanchey"}}, {"type": "Feature", "geometry": {"type": "Point", "coordinates": [104.54493, 13.74992]}, "properties": {"id": "46004-38558-013-LN2673", "sectors": ["Agriculture, natural resources and rural development"], "title": "WATER RESOURCES MANAGEMENT SECTOR DEVT PROGRAM (PROGRAM LOAN)", "status": "Implementation", "locationName": "Prasat Pram"}}, {"type": "Feature", "geometry": {"type": "Point", "coordinates": [105.0, 13.0]}, "properties": {"id": "46004-41373-013-LN2674", "sectors": ["Public sector management"], "title": "PUBLIC FINANCIAL MANAGEMENT FOR RURAL DEVT PROG-SUBPROGRAM 2 (SP2", "status": "Completion", "locationName": "Cambodia"}}, {"type": "Feature", "geometry": {"type": "Point", "coordinates": [105.0, 13.0]}, "properties": {"id": "46004-38421-023-LN2675", "sectors": ["Public sector management"], "title": "PROMOTING ECONOMIC DIVERSIFICATION PROGRAM (SUBPROGRAM 2)", "status": "Completion", "locationName": "Cambodia"}}, {"type": "Feature", "geometry": {"type": "Point", "coordinates": [105.83333, 11.16667]}, "properties": {"id": "46004-43309-013-LN2839", "sectors": ["Transport"], "title": "PROVINCIAL ROADS IMPROVEMENT PROJECT (SF)", "status": "Implementation", "locationName": "Svay Rieng"}}, {"type": "Feature", "geometry": {"type": "Point", "coordinates": [105.46667, 11.36667]}, "properties": {"id": "46004-43309-013-LN2839", "sectors": ["Transport"], "title": "PROVINCIAL ROADS IMPROVEMENT PROJECT (SF)", "status": "Implementation", "locationName": "Prey Veng"}}, {"type": "Feature", "geometry": {"type": "Point", "coordinates": [104.33333, 11.5]}, "properties": {"id": "46004-43309-013-LN2839", "sectors": ["Transport"], "title": "PROVINCIAL ROADS IMPROVEMENT PROJECT (SF)", "status": "Implementation", "locationName": "Kampong Speu"}}, {"type": "Feature", "geometry": {"type": "Point", "coordinates": [104.55, 12.16667]}, "properties": {"id": "46004-43309-013-LN2839", "sectors": ["Transport"], "title": "PROVINCIAL ROADS IMPROVEMENT PROJECT (SF)", "status": "Implementation", "locationName": "Kampong Chhnang"}}, {"type": "Feature", "geometry": {"type": "Point", "coordinates": [103.08333, 12.91667]}, "properties": {"id": "46004-46009-001-LN2852", "sectors": ["Agriculture, natural resources and rural development"], "title": "FLOOD DAMAGE EMERGENCY RECONSTRUCTION PROJECT", "status": "Implementation", "locationName": "Battambang"}}, {"type": "Feature", "geometry": {"type": "Point", "coordinates": [104.0, 13.5]}, "properties": {"id": "46004-46009-001-LN2852", "sectors": ["Agriculture, natural resources and rural development"], "title": "FLOOD DAMAGE EMERGENCY RECONSTRUCTION PROJECT", "status": "Implementation", "locationName": "Siem Reap"}}, {"type": "Feature", "geometry": {"type": "Point", "coordinates": [105.46667, 11.36667]}, "properties": {"id": "46004-46009-001-LN2852", "sectors": ["Agriculture, natural resources and rural development"], "title": "FLOOD DAMAGE EMERGENCY RECONSTRUCTION PROJECT", "status": "Implementation", "locationName": "Prey Veng"}}, {"type": "Feature", "geometry": {"type": "Point", "coordinates": [105.32533, 11.48682]}, "properties": {"id": "46004-46009-001-LN2852", "sectors": ["Agriculture, natural resources and rural development"], "title": "FLOOD DAMAGE EMERGENCY RECONSTRUCTION PROJECT", "status": "Implementation", "locationName": "Prey Veng"}}, {"type": "Feature", "geometry": {"type": "Point", "coordinates": [105.55129, 12.09206]}, "properties": {"id": "46004-46009-001-LN2852", "sectors": ["Agriculture, natural resources and rural development"], "title": "FLOOD DAMAGE EMERGENCY RECONSTRUCTION PROJECT", "status": "Implementation", "locationName": "P\u00e9am Chile\u0103ng"}}, {"type": "Feature", "geometry": {"type": "Point", "coordinates": [102.9838, 11.61531]}, "properties": {"id": "46004-46009-001-LN2852", "sectors": ["Agriculture, natural resources and rural development"], "title": "FLOOD DAMAGE EMERGENCY RECONSTRUCTION PROJECT", "status": "Implementation", "locationName": "Koh Kong"}}, {"type": "Feature", "geometry": {"type": "Point", "coordinates": [105.0, 12.83333]}, "properties": {"id": "46004-46009-001-LN2852", "sectors": ["Agriculture, natural resources and rural development"], "title": "FLOOD DAMAGE EMERGENCY RECONSTRUCTION PROJECT", "status": "Implementation", "locationName": "Kampong Thom"}}, {"type": "Feature", "geometry": {"type": "Point", "coordinates": [105.58333, 12.08333]}, "properties": {"id": "46004-46009-001-LN2852", "sectors": ["Agriculture, natural resources and rural development"], "title": "FLOOD DAMAGE EMERGENCY RECONSTRUCTION PROJECT", "status": "Implementation", "locationName": "Kampong Cham"}}, {"type": "Feature", "geometry": {"type": "Point", "coordinates": [105.0, 13.0]}, "properties": {"id": "46004-46009-001-LN2852", "sectors": ["Agriculture, natural resources and rural development"], "title": "FLOOD DAMAGE EMERGENCY RECONSTRUCTION PROJECT", "status": "Implementation", "locationName": "Cambodia"}}, {"type": "Feature", "geometry": {"type": "Point", "coordinates": [103.0, 13.75]}, "properties": {"id": "46004-46009-001-LN2852", "sectors": ["Agriculture, natural resources and rural development"], "title": "FLOOD DAMAGE EMERGENCY RECONSTRUCTION PROJECT", "status": "Implementation", "locationName": "Banteay Meanchey"}}, {"type": "Feature", "geometry": {"type": "Point", "coordinates": [105.65, 11.98]}, "properties": {"id": "46004-46009-001-LN2852", "sectors": ["Agriculture, natural resources and rural development"], "title": "FLOOD DAMAGE EMERGENCY RECONSTRUCTION PROJECT", "status": "Implementation", "locationName": "Tboung Khmum"}}, {"type": "Feature", "geometry": {"type": "Point", "coordinates": [103.03569, 11.54665]}, "properties": {"id": "46004-46009-001-LN2852", "sectors": ["Agriculture, natural resources and rural development"], "title": "FLOOD DAMAGE EMERGENCY RECONSTRUCTION PROJECT", "status": "Implementation", "locationName": "Smach Mean Chey"}}, {"type": "Feature", "geometry": {"type": "Point", "coordinates": [102.6, 17.96667]}, "properties": {"id": "46004-43120-013-LN2873", "sectors": ["Industry and trade"], "title": "TRADE FACILITATION:IMPROVED SANITARY & PHYTOSANITARY HANDLING GMS", "status": "Implementation", "locationName": "Vientiane"}}, {"type": "Feature", "geometry": {"type": "Point", "coordinates": [105.79898, 15.12022]}, "properties": {"id": "46004-43120-013-LN2873", "sectors": ["Industry and trade"], "title": "TRADE FACILITATION:IMPROVED SANITARY & PHYTOSANITARY HANDLING GMS", "status": "Implementation", "locationName": "Pakxe"}}, {"type": "Feature", "geometry": {"type": "Point", "coordinates": [102.13503, 19.88601]}, "properties": {"id": "46004-43120-013-LN2873", "sectors": ["Industry and trade"], "title": "TRADE FACILITATION:IMPROVED SANITARY & PHYTOSANITARY HANDLING GMS", "status": "Implementation", "locationName": "Louangphabang"}}, {"type": "Feature", "geometry": {"type": "Point", "coordinates": [105.0, 18.0]}, "properties": {"id": "46004-43120-013-LN2873", "sectors": ["Industry and trade"], "title": "TRADE FACILITATION:IMPROVED SANITARY & PHYTOSANITARY HANDLING GMS", "status": "Implementation", "locationName": "Lao People's Democratic Republic"}}, {"type": "Feature", "geometry": {"type": "Point", "coordinates": [104.91601, 11.56245]}, "properties": {"id": "46004-43120-013-LN2873", "sectors": ["Industry and trade"], "title": "TRADE FACILITATION:IMPROVED SANITARY & PHYTOSANITARY HANDLING GMS", "status": "Implementation", "locationName": "Phnom Penh"}}, {"type": "Feature", "geometry": {"type": "Point", "coordinates": [104.78498, 10.99081]}, "properties": {"id": "46004-43120-013-LN2873", "sectors": ["Industry and trade"], "title": "TRADE FACILITATION:IMPROVED SANITARY & PHYTOSANITARY HANDLING GMS", "status": "Implementation", "locationName": "Takeo"}}, {"type": "Feature", "geometry": {"type": "Point", "coordinates": [103.86056, 13.36179]}, "properties": {"id": "46004-43120-013-LN2873", "sectors": ["Industry and trade"], "title": "TRADE FACILITATION:IMPROVED SANITARY & PHYTOSANITARY HANDLING GMS", "status": "Implementation", "locationName": "Siem Reap"}}, {"type": "Feature", "geometry": {"type": "Point", "coordinates": [105.46667, 11.36667]}, "properties": {"id": "46004-43120-013-LN2873", "sectors": ["Industry and trade"], "title": "TRADE FACILITATION:IMPROVED SANITARY & PHYTOSANITARY HANDLING GMS", "status": "Implementation", "locationName": "Prey Veng"}}, {"type": "Feature", "geometry": {"type": "Point", "coordinates": [103.52958, 10.60932]}, "properties": {"id": "46004-43120-013-LN2873", "sectors": ["Industry and trade"], "title": "TRADE FACILITATION:IMPROVED SANITARY & PHYTOSANITARY HANDLING GMS", "status": "Implementation", "locationName": "Kampong Saom"}}, {"type": "Feature", "geometry": {"type": "Point", "coordinates": [105.0, 13.0]}, "properties": {"id": "46004-43120-013-LN2873", "sectors": ["Industry and trade"], "title": "TRADE FACILITATION:IMPROVED SANITARY & PHYTOSANITARY HANDLING GMS", "status": "Implementation", "locationName": "Cambodia"}}, {"type": "Feature", "geometry": {"type": "Point", "coordinates": [105.0, 13.0]}, "properties": {"id": "46004-41392-013-LN2886", "sectors": ["Public sector management"], "title": "DECENTRALIZED PUBLIC SERV.& FIN. MANGMT.SECT. DEV'T PROG. SUB1(SF", "status": "Completion", "locationName": "Cambodia"}}, {"type": "Feature", "geometry": {"type": "Point", "coordinates": [105.0, 13.0]},