{"id": "PG", "type": "FeatureCollection", "features": [{"type": "Feature", "geometry": {"type": "Point", "coordinates": [144.62797, -5.79995]}, "properties": {"id": "46004-32124-023-LN2242", "sectors": ["Transport", "Information and communication technology"], "title": "ROAD MAINTENANCE AND UPGRADING (SUPPLEMENTARY)", "status": "Completion", "locationName": "Banz"}}, {"type": "Feature", "geometry": {"type": "Point", "coordinates": [144.83333, -6.25]}, "properties": {"id": "46004-32124-023-LN2242", "sectors": ["Transport", "Information and communication technology"], "title": "ROAD MAINTENANCE AND UPGRADING (SUPPLEMENTARY)", "status": "Completion", "locationName": "Chimbu Province"}}, {"type": "Feature", "geometry": {"type": "Point", "coordinates": [145.08333, -6.16667]}, "properties": {"id": "46004-32124-023-LN2242", "sectors": ["Transport", "Information and communication technology"], "title": "ROAD MAINTENANCE AND UPGRADING (SUPPLEMENTARY)", "status": "Completion", "locationName": "Chuave District"}}, {"type": "Feature", "geometry": {"type": "Point", "coordinates": [145.58333, -6.5]}, "properties": {"id": "46004-32124-023-LN2242", "sectors": ["Transport", "Information and communication technology"], "title": "ROAD MAINTENANCE AND UPGRADING (SUPPLEMENTARY)", "status": "Completion", "locationName": "Eastern Highlands Province"}}, {"type": "Feature", "geometry": {"type": "Point", "coordinates": [143.5, -5.5]}, "properties": {"id": "46004-32124-023-LN2242", "sectors": ["Transport", "Information and communication technology"], "title": "ROAD MAINTENANCE AND UPGRADING (SUPPLEMENTARY)", "status": "Completion", "locationName": "Enga Province"}}, {"type": "Feature", "geometry": {"type": "Point", "coordinates": [145.08333, -5.88333]}, "properties": {"id": "46004-32124-023-LN2242", "sectors": ["Transport", "Information and communication technology"], "title": "ROAD MAINTENANCE AND UPGRADING (SUPPLEMENTARY)", "status": "Completion", "locationName": "Gembogl"}}, {"type": "Feature", "geometry": {"type": "Point", "coordinates": [145.18436, -6.28823]}, "properties": {"id": "46004-32124-023-LN2242", "sectors": ["Transport", "Information and communication technology"], "title": "ROAD MAINTENANCE AND UPGRADING (SUPPLEMENTARY)", "status": "Completion", "locationName": "Goro"}}, {"type": "Feature", "geometry": {"type": "Point", "coordinates": [145.38735, -6.08336]}, "properties": {"id": "46004-32124-023-LN2242", "sectors": ["Transport", "Information and communication technology"], "title": "ROAD MAINTENANCE AND UPGRADING (SUPPLEMENTARY)", "status": "Completion", "locationName": "Goroka"}}, {"type": "Feature", "geometry": {"type": "Point", "coordinates": [145.38333, -6.05]}, "properties": {"id": "46004-32124-023-LN2242", "sectors": ["Transport", "Information and communication technology"], "title": "ROAD MAINTENANCE AND UPGRADING (SUPPLEMENTARY)", "status": "Completion", "locationName": "Goroka District"}}, {"type": "Feature", "geometry": {"type": "Point", "coordinates": [144.88333, -6.25]}, "properties": {"id": "46004-32124-023-LN2242", "sectors": ["Transport", "Information and communication technology"], "title": "ROAD MAINTENANCE AND UPGRADING (SUPPLEMENTARY)", "status": "Completion", "locationName": "Gumine District"}}, {"type": "Feature", "geometry": {"type": "Point", "coordinates": [145.66667, -6.21667]}, "properties": {"id": "46004-32124-023-LN2242", "sectors": ["Transport", "Information and communication technology"], "title": "ROAD MAINTENANCE AND UPGRADING (SUPPLEMENTARY)", "status": "Completion", "locationName": "Henganofi District"}}, {"type": "Feature", "geometry": {"type": "Point", "coordinates": [144.0, -6.16667]}, "properties": {"id": "46004-32124-023-LN2242", "sectors": ["Transport", "Information and communication technology"], "title": "ROAD MAINTENANCE AND UPGRADING (SUPPLEMENTARY)", "status": "Completion", "locationName": "Ialibu District"}}, {"type": "Feature", "geometry": {"type": "Point", "coordinates": [144.56667, -5.53333]}, "properties": {"id": "46004-32124-023-LN2242", "sectors": ["Transport", "Information and communication technology"], "title": "ROAD MAINTENANCE AND UPGRADING (SUPPLEMENTARY)", "status": "Completion", "locationName": "Jimi District"}}, {"type": "Feature", "geometry": {"type": "Point", "coordinates": [143.83333, -6.38333]}, "properties": {"id": "46004-32124-023-LN2242", "sectors": ["Transport", "Information and communication technology"], "title": "ROAD MAINTENANCE AND UPGRADING (SUPPLEMENTARY)", "status": "Completion", "locationName": "Kagua District"}}, {"type": "Feature", "geometry": {"type": "Point", "coordinates": [145.91667, -6.41667]}, "properties": {"id": "46004-32124-023-LN2242", "sectors": ["Transport", "Information and communication technology"], "title": "ROAD MAINTENANCE AND UPGRADING (SUPPLEMENTARY)", "status": "Completion", "locationName": "Kainantu District"}}, {"type": "Feature", "geometry": {"type": "Point", "coordinates": [143.55, -5.83333]}, "properties": {"id": "46004-32124-023-LN2242", "sectors": ["Transport", "Information and communication technology"], "title": "ROAD MAINTENANCE AND UPGRADING (SUPPLEMENTARY)", "status": "Completion", "locationName": "Kandep District"}}, {"type": "Feature", "geometry": {"type": "Point", "coordinates": [144.43333, -5.81667]}, "properties": {"id": "46004-32124-023-LN2242", "sectors": ["Transport", "Information and communication technology"], "title": "ROAD MAINTENANCE AND UPGRADING (SUPPLEMENTARY)", "status": "Completion", "locationName": "Kendeng"}}, {"type": "Feature", "geometry": {"type": "Point", "coordinates": [144.85294, -5.89859]}, "properties": {"id": "46004-32124-023-LN2242", "sectors": ["Transport", "Information and communication technology"], "title": "ROAD MAINTENANCE AND UPGRADING (SUPPLEMENTARY)", "status": "Completion", "locationName": "Kerowagi"}}, {"type": "Feature", "geometry": {"type": "Point", "coordinates": [144.88333, -5.93333]}, "properties": {"id": "46004-32124-023-LN2242", "sectors": ["Transport", "Information and communication technology"], "title": "ROAD MAINTENANCE AND UPGRADING (SUPPLEMENTARY)", "status": "Completion", "locationName": "Kerowagi District"}}, {"type": "Feature", "geometry": {"type": "Point", "coordinates": [144.0, -5.25]}, "properties": {"id": "46004-32124-023-LN2242", "sectors": ["Transport", "Information and communication technology"], "title": "ROAD MAINTENANCE AND UPGRADING (SUPPLEMENTARY)", "status": "Completion", "locationName": "Kompiam District"}}, {"type": "Feature", "geometry": {"type": "Point", "coordinates": [144.36616, -5.66806]}, "properties": {"id": "46004-32124-023-LN2242", "sectors": ["Transport", "Information and communication technology"], "title": "ROAD MAINTENANCE AND UPGRADING (SUPPLEMENTARY)", "status": "Completion", "locationName": "Kotna"}}, {"type": "Feature", "geometry": {"type": "Point", "coordinates": [144.96667, -6.01667]}, "properties": {"id": "46004-32124-023-LN2242", "sectors": ["Transport", "Information and communication technology"], "title": "ROAD MAINTENANCE AND UPGRADING (SUPPLEMENTARY)", "status": "Completion", "locationName": "Kundiawa"}}, {"type": "Feature", "geometry": {"type": "Point", "coordinates": [145.0, -6.0]}, "properties": {"id": "46004-32124-023-LN2242", "sectors": ["Transport", "Information and communication technology"], "title": "ROAD MAINTENANCE AND UPGRADING (SUPPLEMENTARY)", "status": "Completion", "locationName": "Kundiawa District"}}, {"type": "Feature", "geometry": {"type": "Point", "coordinates": [145.05, -5.91667]}, "properties": {"id": "46004-32124-023-LN2242", "sectors": ["Transport", "Information and communication technology"], "title": "ROAD MAINTENANCE AND UPGRADING (SUPPLEMENTARY)", "status": "Completion", "locationName": "Kundiawa-Gembogl District"}}, {"type": "Feature", "geometry": {"type": "Point", "coordinates": [143.33333, -5.5]}, "properties": {"id": "46004-32124-023-LN2242", "sectors": ["Transport", "Information and communication technology"], "title": "ROAD MAINTENANCE AND UPGRADING (SUPPLEMENTARY)", "status": "Completion", "locationName": "Lagaip District"}}, {"type": "Feature", "geometry": {"type": "Point", "coordinates": [143.49078, -5.48918]}, "properties": {"id": "46004-32124-023-LN2242", "sectors": ["Transport", "Information and communication technology"], "title": "ROAD MAINTENANCE AND UPGRADING (SUPPLEMENTARY)", "status": "Completion", "locationName": "Laiagam"}}, {"type": "Feature", "geometry": {"type": "Point", "coordinates": [145.30441, -6.33878]}, "properties": {"id": "46004-32124-023-LN2242", "sectors": ["Transport", "Information and communication technology"], "title": "ROAD MAINTENANCE AND UPGRADING (SUPPLEMENTARY)", "status": "Completion", "locationName": "Lufa"}}, {"type": "Feature", "geometry": {"type": "Point", "coordinates": [145.25, -6.45]}, "properties": {"id": "46004-32124-023-LN2242", "sectors": ["Transport", "Information and communication technology"], "title": "ROAD MAINTENANCE AND UPGRADING (SUPPLEMENTARY)", "status": "Completion", "locationName": "Lufa District"}}, {"type": "Feature", "geometry": {"type": "Point", "coordinates": [143.66667, -6.11667]}, "properties": {"id": "46004-32124-023-LN2242", "sectors": ["Transport", "Information and communication technology"], "title": "ROAD MAINTENANCE AND UPGRADING (SUPPLEMENTARY)", "status": "Completion", "locationName": "Mendi District"}}, {"type": "Feature", "geometry": {"type": "Point", "coordinates": [143.79236, -5.42055]}, "properties": {"id": "46004-32124-023-LN2242", "sectors": ["Transport", "Information and communication technology"], "title": "ROAD MAINTENANCE AND UPGRADING (SUPPLEMENTARY)", "status": "Completion", "locationName": "Meriamanda"}}, {"type": "Feature", "geometry": {"type": "Point", "coordinates": [144.29179, -5.78772]}, "properties": {"id": "46004-32124-023-LN2242", "sectors": ["Transport", "Information and communication technology"], "title": "ROAD MAINTENANCE AND UPGRADING (SUPPLEMENTARY)", "status": "Completion", "locationName": "Mount Ambra"}}, {"type": "Feature", "geometry": {"type": "Point", "coordinates": [144.22744, -5.8581]}, "properties": {"id": "46004-32124-023-LN2242", "sectors": ["Transport", "Information and communication technology"], "title": "ROAD MAINTENANCE AND UPGRADING (SUPPLEMENTARY)", "status": "Completion", "locationName": "Mount Hagen"}}, {"type": "Feature", "geometry": {"type": "Point", "coordinates": [145.22509, -6.19776]}, "properties": {"id": "46004-32124-023-LN2242", "sectors": ["Transport", "Information and communication technology"], "title": "ROAD MAINTENANCE AND UPGRADING (SUPPLEMENTARY)", "status": "Completion", "locationName": "Movi"}}, {"type": "Feature", "geometry": {"type": "Point", "coordinates": [144.15, -5.53333]}, "properties": {"id": "46004-32124-023-LN2242", "sectors": ["Transport", "Information and communication technology"], "title": "ROAD MAINTENANCE AND UPGRADING (SUPPLEMENTARY)", "status": "Completion", "locationName": "Mul-Baiyer District"}}, {"type": "Feature", "geometry": {"type": "Point", "coordinates": [143.4412, -6.18019]}, "properties": {"id": "46004-32124-023-LN2242", "sectors": ["Transport", "Information and communication technology"], "title": "ROAD MAINTENANCE AND UPGRADING (SUPPLEMENTARY)", "status": "Completion", "locationName": "Nipa"}}, {"type": "Feature", "geometry": {"type": "Point", "coordinates": [144.68333, -5.8]}, "properties": {"id": "46004-32124-023-LN2242", "sectors": ["Transport", "Information and communication technology"], "title": "ROAD MAINTENANCE AND UPGRADING (SUPPLEMENTARY)", "status": "Completion", "locationName": "North Wahgi District"}}, {"type": "Feature", "geometry": {"type": "Point", "coordinates": [145.48333, -6.33333]}, "properties": {"id": "46004-32124-023-LN2242", "sectors": ["Transport", "Information and communication technology"], "title": "ROAD MAINTENANCE AND UPGRADING (SUPPLEMENTARY)", "status": "Completion", "locationName": "Nupuru Number 1"}}, {"type": "Feature", "geometry": {"type": "Point", "coordinates": [145.49037, -6.40629]}, "properties": {"id": "46004-32124-023-LN2242", "sectors": ["Transport", "Information and communication technology"], "title": "ROAD MAINTENANCE AND UPGRADING (SUPPLEMENTARY)", "status": "Completion", "locationName": "Nupuru Number 2"}}, {"type": "Feature", "geometry": {"type": "Point", "coordinates": [144.2, -5.81667]}, "properties": {"id": "46004-32124-023-LN2242", "sectors": ["Transport", "Information and communication technology"], "title": "ROAD MAINTENANCE AND UPGRADING (SUPPLEMENTARY)", "status": "Completion", "locationName": "Ogelbeng"}}, {"type": "Feature", "geometry": {"type": "Point", "coordinates": [145.5, -6.63333]}, "properties": {"id": "46004-32124-023-LN2242", "sectors": ["Transport", "Information and communication technology"], "title": "ROAD MAINTENANCE AND UPGRADING (SUPPLEMENTARY)", "status": "Completion", "locationName": "Okapa District"}}, {"type": "Feature", "geometry": {"type": "Point", "coordinates": [144.25, -6.41667]}, "properties": {"id": "46004-32124-023-LN2242", "sectors": ["Transport", "Information and communication technology"], "title": "ROAD MAINTENANCE AND UPGRADING (SUPPLEMENTARY)", "status": "Completion", "locationName": "Pangia District"}}, {"type": "Feature", "geometry": {"type": "Point", "coordinates": [143.70215, -5.47808]}, "properties": {"id": "46004-32124-023-LN2242", "sectors": ["Transport", "Information and communication technology"], "title": "ROAD MAINTENANCE AND UPGRADING (SUPPLEMENTARY)", "status": "Completion", "locationName": "Wabag"}}, {"type": "Feature", "geometry": {"type": "Point", "coordinates": [143.65, -5.33333]}, "properties": {"id": "46004-32124-023-LN2242", "sectors": ["Transport", "Information and communication technology"], "title": "ROAD MAINTENANCE AND UPGRADING (SUPPLEMENTARY)", "status": "Completion", "locationName": "Wabag District"}}, {"type": "Feature", "geometry": {"type": "Point", "coordinates": [144.25, -5.75]}, "properties": {"id": "46004-32124-023-LN2242", "sectors": ["Transport", "Information and communication technology"], "title": "ROAD MAINTENANCE AND UPGRADING (SUPPLEMENTARY)", "status": "Completion", "locationName": "Western Highlands Province"}}, {"type": "Feature", "geometry": {"type": "Point", "coordinates": [144.62797, -5.79995]}, "properties": {"id": "46004-32124-023-LN2243", "sectors": ["Transport"], "title": "ROAD MAINTENANCE AND UPGRADING SUPPLEMENTARY", "status": "Completion", "locationName": "Banz"}}, {"type": "Feature", "geometry": {"type": "Point", "coordinates": [144.83333, -6.25]}, "properties": {"id": "46004-32124-023-LN2243", "sectors": ["Transport"], "title": "ROAD MAINTENANCE AND UPGRADING SUPPLEMENTARY", "status": "Completion", "locationName": "Chimbu Province"}}, {"type": "Feature", "geometry": {"type": "Point", "coordinates": [145.08333, -6.16667]}, "properties": {"id": "46004-32124-023-LN2243", "sectors": ["Transport"], "title": "ROAD MAINTENANCE AND UPGRADING SUPPLEMENTARY", "status": "Completion", "locationName": "Chuave District"}}, {"type": "Feature", "geometry": {"type": "Point", "coordinates": [145.58333, -6.5]}, "properties": {"id": "46004-32124-023-LN2243", "sectors": ["Transport"], "title": "ROAD MAINTENANCE AND UPGRADING SUPPLEMENTARY", "status": "Completion", "locationName": "Eastern Highlands Province"}}, {"type": "Feature", "geometry": {"type": "Point", "coordinates": [143.5, -5.5]}, "properties": {"id": "46004-32124-023-LN2243", "sectors": ["Transport"], "title": "ROAD MAINTENANCE AND UPGRADING SUPPLEMENTARY", "status": "Completion", "locationName": "Enga Province"}}, {"type": "Feature", "geometry": {"type": "Point", "coordinates": [145.08333, -5.88333]}, "properties": {"id": "46004-32124-023-LN2243", "sectors": ["Transport"], "title": "ROAD MAINTENANCE AND UPGRADING SUPPLEMENTARY", "status": "Completion", "locationName": "Gembogl"}}, {"type": "Feature", "geometry": {"type": "Point", "coordinates": [145.18436, -6.28823]}, "properties": {"id": "46004-32124-023-LN2243", "sectors": ["Transport"], "title": "ROAD MAINTENANCE AND UPGRADING SUPPLEMENTARY", "status": "Completion", "locationName": "Goro"}}, {"type": "Feature", "geometry": {"type": "Point", "coordinates": [145.38735, -6.08336]}, "properties": {"id": "46004-32124-023-LN2243", "sectors": ["Transport"], "title": "ROAD MAINTENANCE AND UPGRADING SUPPLEMENTARY", "status": "Completion", "locationName": "Goroka"}}, {"type": "Feature", "geometry": {"type": "Point", "coordinates": [145.38333, -6.05]}, "properties": {"id": "46004-32124-023-LN2243", "sectors": ["Transport"], "title": "ROAD MAINTENANCE AND UPGRADING SUPPLEMENTARY", "status": "Completion", "locationName": "Goroka District"}}, {"type": "Feature", "geometry": {"type": "Point", "coordinates": [144.88333, -6.25]}, "properties": {"id": "46004-32124-023-LN2243", "sectors": ["Transport"], "title": "ROAD MAINTENANCE AND UPGRADING SUPPLEMENTARY", "status": "Completion", "locationName": "Gumine District"}}, {"type": "Feature", "geometry": {"type": "Point", "coordinates": [145.66667, -6.21667]}, "properties": {"id": "46004-32124-023-LN2243", "sectors": ["Transport"], "title": "ROAD MAINTENANCE AND UPGRADING SUPPLEMENTARY", "status": "Completion", "locationName": "Henganofi District"}}, {"type": "Feature", "geometry": {"type": "Point", "coordinates": [144.0, -6.16667]}, "properties": {"id": "46004-32124-023-LN2243", "sectors": ["Transport"], "title": "ROAD MAINTENANCE AND UPGRADING SUPPLEMENTARY", "status": "Completion", "locationName": "Ialibu District"}}, {"type": "Feature", "geometry": {"type": "Point", "coordinates": [144.56667, -5.53333]}, "properties": {"id": "46004-32124-023-LN2243", "sectors": ["Transport"], "title": "ROAD MAINTENANCE AND UPGRADING SUPPLEMENTARY", "status": "Completion", "locationName": "Jimi District"}}, {"type": "Feature", "geometry": {"type": "Point", "coordinates": [143.83333, -6.38333]}, "properties": {"id": "46004-32124-023-LN2243", "sectors": ["Transport"], "title": "ROAD MAINTENANCE AND UPGRADING SUPPLEMENTARY", "status": "Completion", "locationName": "Kagua District"}}, {"type": "Feature", "geometry": {"type": "Point", "coordinates": [145.91667, -6.41667]}, "properties": {"id": "46004-32124-023-LN2243", "sectors": ["Transport"], "title": "ROAD MAINTENANCE AND UPGRADING SUPPLEMENTARY", "status": "Completion", "locationName": "Kainantu District"}}, {"type": "Feature", "geometry": {"type": "Point", "coordinates": [143.55, -5.83333]}, "properties": {"id": "46004-32124-023-LN2243", "sectors": ["Transport"], "title": "ROAD MAINTENANCE AND UPGRADING SUPPLEMENTARY", "status": "Completion", "locationName": "Kandep District"}}, {"type": "Feature", "geometry": {"type": "Point", "coordinates": [144.43333, -5.81667]}, "properties": {"id": "46004-32124-023-LN2243", "sectors": ["Transport"], "title": "ROAD MAINTENANCE AND UPGRADING SUPPLEMENTARY", "status": "Completion", "locationName": "Kendeng"}}, {"type": "Feature", "geometry": {"type": "Point", "coordinates": [144.85294, -5.89859]}, "properties": {"id": "46004-32124-023-LN2243", "sectors": ["Transport"], "title": "ROAD MAINTENANCE AND UPGRADING SUPPLEMENTARY", "status": "Completion", "locationName": "Kerowagi"}}, {"type": "Feature", "geometry": {"type": "Point", "coordinates": [144.88333, -5.93333]}, "properties": {"id": "46004-32124-023-LN2243", "sectors": ["Transport"], "title": "ROAD MAINTENANCE AND UPGRADING SUPPLEMENTARY", "status": "Completion", "locationName": "Kerowagi District"}}, {"type": "Feature", "geometry": {"type": "Point", "coordinates": [144.0, -5.25]}, "properties": {"id": "46004-32124-023-LN2243", "sectors": ["Transport"], "title": "ROAD MAINTENANCE AND UPGRADING SUPPLEMENTARY", "status": "Completion", "locationName": "Kompiam District"}}, {"type": "Feature", "geometry": {"type": "Point", "coordinates": [144.36616, -5.66806]}, "properties": {"id": "46004-32124-023-LN2243", "sectors": ["Transport"], "title": "ROAD MAINTENANCE AND UPGRADING SUPPLEMENTARY", "status": "Completion", "locationName": "Kotna"}}, {"type": "Feature", "geometry": {"type": "Point", "coordinates": [144.96667, -6.01667]}, "properties": {"id": "46004-32124-023-LN2243", "sectors": ["Transport"], "title": "ROAD MAINTENANCE AND UPGRADING SUPPLEMENTARY", "status": "Completion", "locationName": "Kundiawa"}}, {"type": "Feature", "geometry": {"type": "Point", "coordinates": [145.0, -6.0]}, "properties": {"id": "46004-32124-023-LN2243", "sectors": ["Transport"], "title": "ROAD MAINTENANCE AND UPGRADING SUPPLEMENTARY", "status": "Completion", "locationName": "Kundiawa District"}}, {"type": "Feature", "geometry": {"type": "Point", "coordinates": [145.05, -5.91667]}, "properties": {"id": "46004-32124-023-LN2243", "sectors": ["Transport"], "title": "ROAD MAINTENANCE AND UPGRADING SUPPLEMENTARY", "status": "Completion", "locationName": "Kundiawa-Gembogl District"}}, {"type": "Feature", "geometry": {"type": "Point", "coordinates": [143.33333, -5.5]}, "properties": {"id": "46004-32124-023-LN2243", "sectors": ["Transport"], "title": "ROAD MAINTENANCE AND UPGRADING SUPPLEMENTARY", "status": "Completion", "locationName": "Lagaip District"}}, {"type": "Feature", "geometry": {"type": "Point", "coordinates": [143.49078, -5.48918]}, "properties": {"id": "46004-32124-023-LN2243", "sectors": ["Transport"], "title": "ROAD MAINTENANCE AND UPGRADING SUPPLEMENTARY", "status": "Completion", "locationName": "Laiagam"}}, {"type": "Feature", "geometry": {"type": "Point", "coordinates": [145.30441, -6.33878]}, "properties": {"id": "46004-32124-023-LN2243", "sectors": ["Transport"], "title": "ROAD MAINTENANCE AND UPGRADING SUPPLEMENTARY", "status": "Completion", "locationName": "Lufa"}}, {"type": "Feature", "geometry": {"type": "Point", "coordinates": [145.25, -6.45]}, "properties": {"id": "46004-32124-023-LN2243", "sectors": ["Transport"], "title": "ROAD MAINTENANCE AND UPGRADING SUPPLEMENTARY", "status": "Completion", "locationName": "Lufa District"}}, {"type": "Feature", "geometry": {"type": "Point", "coordinates": [143.66667, -6.11667]}, "properties": {"id": "46004-32124-023-LN2243", "sectors": ["Transport"], "title": "ROAD MAINTENANCE AND UPGRADING SUPPLEMENTARY", "status": "Completion", "locationName": "Mendi District"}}, {"type": "Feature", "geometry": {"type": "Point", "coordinates": [143.79236, -5.42055]}, "properties": {"id": "46004-32124-023-LN2243", "sectors": ["Transport"], "title": "ROAD MAINTENANCE AND UPGRADING SUPPLEMENTARY", "status": "Completion", "locationName": "Meriamanda"}}, {"type": "Feature", "geometry": {"type": "Point", "coordinates": [144.29179, -5.78772]}, "properties": {"id": "46004-32124-023-LN2243", "sectors": ["Transport"], "title": "ROAD MAINTENANCE AND UPGRADING SUPPLEMENTARY", "status": "Completion", "locationName": "Mount Ambra"}}, {"type": "Feature", "geometry": {"type": "Point", "coordinates": [144.22744, -5.8581]}, "properties": {"id": "46004-32124-023-LN2243", "sectors": ["Transport"], "title": "ROAD MAINTENANCE AND UPGRADING SUPPLEMENTARY", "status": "Completion", "locationName": "Mount Hagen"}}, {"type": "Feature", "geometry": {"type": "Point", "coordinates": [145.22509, -6.19776]}, "properties": {"id": "46004-32124-023-LN2243", "sectors": ["Transport"], "title": "ROAD MAINTENANCE AND UPGRADING SUPPLEMENTARY", "status": "Completion", "locationName": "Movi"}}, {"type": "Feature", "geometry": {"type": "Point", "coordinates": [144.15, -5.53333]}, "properties": {"id": "46004-32124-023-LN2243", "sectors": ["Transport"], "title": "ROAD MAINTENANCE AND UPGRADING SUPPLEMENTARY", "status": "Completion", "locationName": "Mul-Baiyer District"}}, {"type": "Feature", "geometry": {"type": "Point", "coordinates": [143.4412, -6.18019]}, "properties": {"id": "46004-32124-023-LN2243", "sectors": ["Transport"], "title": "ROAD MAINTENANCE AND UPGRADING SUPPLEMENTARY", "status": "Completion", "locationName": "Nipa"}}, {"type": "Feature", "geometry": {"type": "Point", "coordinates": [144.68333, -5.8]}, "properties": {"id": "46004-32124-023-LN2243", "sectors": ["Transport"], "title": "ROAD MAINTENANCE AND UPGRADING SUPPLEMENTARY", "status": "Completion", "locationName": "North Wahgi District"}}, {"type": "Feature", "geometry": {"type": "Point", "coordinates": [145.48333, -6.33333]}, "properties": {"id": "46004-32124-023-LN2243", "sectors": ["Transport"], "title": "ROAD MAINTENANCE AND UPGRADING SUPPLEMENTARY", "status": "Completion", "locationName": "Nupuru Number 1"}}, {"type": "Feature", "geometry": {"type": "Point", "coordinates": [145.49037, -6.40629]}, "properties": {"id": "46004-32124-023-LN2243", "sectors": ["Transport"], "title": "ROAD MAINTENANCE AND UPGRADING SUPPLEMENTARY", "status": "Completion", "locationName": "Nupuru Number 2"}}, {"type": "Feature", "geometry": {"type": "Point", "coordinates": [144.2, -5.81667]}, "properties": {"id": "46004-32124-023-LN2243", "sectors": ["Transport"], "title": "ROAD MAINTENANCE AND UPGRADING SUPPLEMENTARY", "status": "Completion", "locationName": "Ogelbeng"}}, {"type": "Feature", "geometry": {"type": "Point", "coordinates": [145.5, -6.63333]}, "properties": {"id": "46004-32124-023-LN2243", "sectors": ["Transport"], "title": "ROAD MAINTENANCE AND UPGRADING SUPPLEMENTARY", "status": "Completion", "locationName": "Okapa District"}}, {"type": "Feature", "geometry": {"type": "Point", "coordinates": [144.25, -6.41667]}, "properties": {"id": "46004-32124-023-LN2243", "sectors": ["Transport"], "title": "ROAD MAINTENANCE AND UPGRADING SUPPLEMENTARY", "status": "Completion", "locationName": "Pangia District"}}, {"type": "Feature", "geometry": {"type": "Point", "coordinates": [143.70215, -5.47808]}, "properties": {"id": "46004-32124-023-LN2243", "sectors": ["Transport"], "title": "ROAD MAINTENANCE AND UPGRADING SUPPLEMENTARY", "status": "Completion", "locationName": "Wabag"}}, {"type": "Feature", "geometry": {"type": "Point", "coordinates": [143.65, -5.33333]}, "properties": {"id": "46004-32124-023-LN2243", "sectors": ["Transport"], "title": "ROAD MAINTENANCE AND UPGRADING SUPPLEMENTARY", "status": "Completion", "locationName": "Wabag District"}}, {"type": "Feature", "geometry": {"type": "Point", "coordinates": [144.25, -5.75]}, "properties": {"id": "46004-32124-023-LN2243", "sectors": ["Transport"], "title": "ROAD MAINTENANCE AND UPGRADING SUPPLEMENTARY", "status": "Completion", "locationName": "Western Highlands Province"}}, {"type": "Feature", "geometry": {"type": "Point", "coordinates": [146.98469, -6.72208]}, "properties": {"id": "46004-40037-013-LN2398", "sectors": ["Transport", "Information and communication technology"], "title": "LAE PORT DEVELOPMENT PROJECT", "status": "Implementation", "locationName": "Lae"}}, {"type": "Feature", "geometry": {"type": "Point", "coordinates": [146.98469, -6.72208]}, "properties": {"id": "46004-40037-013-LN2399", "sectors": ["Transport"], "title": "LAE PORT DEVELOPMENT PROJECT", "status": "Implementation", "locationName": "Lae"}}, {"type": "Feature", "geometry": {"type": "Point", "coordinates": [143.51381, -5.95502]}, "properties": {"id": "46004-40173-023-LN2496", "sectors": ["Transport"], "title": "MFF-HIGHLANDS REGION ROAD IMPROVEMENT INVESTMENTPROGRAM-PROJECT 1", "status": "Implementation", "locationName": "Winja"}}, {"type": "Feature", "geometry": {"type": "Point", "coordinates": [143.65, -5.33333]}, "properties": {"id": "46004-40173-023-LN2496", "sectors": ["Transport"], "title": "MFF-HIGHLANDS REGION ROAD IMPROVEMENT INVESTMENTPROGRAM-PROJECT 1", "status": "Implementation", "locationName": "Wabag District"}}, {"type": "Feature", "geometry": {"type": "Point", "coordinates": [142.83333, -6.28333]}, "properties": {"id": "46004-40173-023-LN2496", "sectors": ["Transport"], "title": "MFF-HIGHLANDS REGION ROAD IMPROVEMENT INVESTMENTPROGRAM-PROJECT 1", "status": "Implementation", "locationName": "Tari District"}}, {"type": "Feature", "geometry": {"type": "Point", "coordinates": [143.12956, -5.47418]}, "properties": {"id": "46004-40173-023-LN2496", "sectors": ["Transport"], "title": "MFF-HIGHLANDS REGION ROAD IMPROVEMENT INVESTMENTPROGRAM-PROJECT 1", "status": "Implementation", "locationName": "Porgera"}}, {"type": "Feature", "geometry": {"type": "Point", "coordinates": [143.54937, -6.04392]}, "properties": {"id": "46004-40173-023-LN2496", "sectors": ["Transport"], "title": "MFF-HIGHLANDS REGION ROAD IMPROVEMENT INVESTMENTPROGRAM-PROJECT 1", "status": "Implementation", "locationName": "Peane"}}, {"type": "Feature", "geometry": {"type": "Point", "coordinates": [143.33333, -6.33333]}, "properties": {"id": "46004-40173-023-LN2496", "sectors": ["Transport"], "title": "MFF-HIGHLANDS REGION ROAD IMPROVEMENT INVESTMENTPROGRAM-PROJECT 1", "status": "Implementation", "locationName": "Nipa District"}}, {"type": "Feature", "geometry": {"type": "Point", "coordinates": [143.4412, -6.18019]}, "properties": {"id": "46004-40173-023-LN2496", "sectors": ["Transport"], "title": "MFF-HIGHLANDS REGION ROAD IMPROVEMENT INVESTMENTPROGRAM-PROJECT 1", "status": "Implementation", "locationName": "Nipa"}}, {"type": "Feature", "geometry": {"type": "Point", "coordinates": [143.66667, -6.11667]}, "properties": {"id": "46004-40173-023-LN2496", "sectors": ["Transport"], "title": "MFF-HIGHLANDS REGION ROAD IMPROVEMENT INVESTMENTPROGRAM-PROJECT 1", "status": "Implementation", "locationName": "Mendi District"}}, {"type": "Feature", "geometry": {"type": "Point", "coordinates": [143.65134, -6.17608]}, "properties": {"id": "46004-40173-023-LN2496", "sectors": ["Transport"], "title": "MFF-HIGHLANDS REGION ROAD IMPROVEMENT INVESTMENTPROGRAM-PROJECT 1", "status": "Implementation", "locationName": "Mendi"}}, {"type": "Feature", "geometry": {"type": "Point", "coordinates": [143.3518, -5.98338]}, "properties": {"id": "46004-40173-023-LN2496", "sectors": ["Transport"], "title": "MFF-HIGHLANDS REGION ROAD IMPROVEMENT INVESTMENTPROGRAM-PROJECT 1", "status": "Implementation", "locationName": "Margarima"}}, {"type": "Feature", "geometry": {"type": "Point", "coordinates": [143.79052, -5.33105]}, "properties": {"id": "46004-40173-023-LN2496", "sectors": ["Transport"], "title": "MFF-HIGHLANDS REGION ROAD IMPROVEMENT INVESTMENTPROGRAM-PROJECT 1", "status": "Implementation", "locationName": "Laiagam"}}, {"type": "Feature", "geometry": {"type": "Point", "coordinates": [142.5, -5.66667]}, "properties": {"id": "46004-40173-023-LN2496", "sectors": ["Transport"], "title": "MFF-HIGHLANDS REGION ROAD IMPROVEMENT INVESTMENTPROGRAM-PROJECT 1", "status": "Implementation", "locationName": "Koroba District"}}, {"type": "Feature", "geometry": {"type": "Point", "coordinates": [142.73661, -5.70567]}, "properties": {"id": "46004-40173-023-LN2496", "sectors": ["Transport"], "title": "MFF-HIGHLANDS REGION ROAD IMPROVEMENT INVESTMENTPROGRAM-PROJECT 1", "status": "Implementation", "locationName": "Koroba"}}, {"type": "Feature", "geometry": {"type": "Point", "coordinates": [144.0, -5.25]}, "properties": {"id": "46004-40173-023-LN2496", "sectors": ["Transport"], "title": "MFF-HIGHLANDS REGION ROAD IMPROVEMENT INVESTMENTPROGRAM-PROJECT 1", "status": "Implementation", "locationName": "Kompiam District"}}, {"type": "Feature", "geometry": {"type": "Point", "coordinates": [143.55, -5.83333]}, "properties": {"id": "46004-40173-023-LN2496", "sectors": ["Transport"], "title": "MFF-HIGHLANDS REGION ROAD IMPROVEMENT INVESTMENTPROGRAM-PROJECT 1", "status": "Implementation", "locationName": "Kandep District"}}, {"type": "Feature", "geometry": {"type": "Point", "coordinates": [143.50519, -5.86641]}, "properties": {"id": "46004-40173-023-LN2496", "sectors": ["Transport"], "title": "MFF-HIGHLANDS REGION ROAD IMPROVEMENT INVESTMENTPROGRAM-PROJECT 1", "status": "Implementation", "locationName": "Kandep"}}, {"type": "Feature", "geometry": {"type": "Point", "coordinates": [143.1, -5.85]}, "properties": {"id": "46004-40173-023-LN2496", "sectors": ["Transport"], "title": "MFF-HIGHLANDS REGION ROAD IMPROVEMENT INVESTMENTPROGRAM-PROJECT 1", "status": "Implementation", "locationName": "Ambua Peaks"}}, {"type": "Feature", "geometry": {"type": "Point", "coordinates": [142.91511, -5.87054]}, "properties": {"id": "46004-40173-023-LN2496", "sectors": ["Transport"], "title": "MFF-HIGHLANDS REGION ROAD IMPROVEMENT INVESTMENTPROGRAM-PROJECT 1", "status": "Implementation", "locationName": "Hiwinda"}}, {"type": "Feature", "geometry": {"type": "Point", "coordinates": [143.38964, -5.37804]}, "properties": {"id": "46004-40173-023-LN2496", "sectors": ["Transport"], "title": "MFF-HIGHLANDS REGION ROAD IMPROVEMENT INVESTMENTPROGRAM-PROJECT 1", "status": "Implementation", "locationName": "Muritaka"}}, {"type": "Feature", "geometry": {"type": "Point", "coordinates": [143.16667, -5.38333]}, "properties": {"id": "46004-40173-023-LN2496", "sectors": ["Transport"], "title": "MFF-HIGHLANDS REGION ROAD IMPROVEMENT INVESTMENTPROGRAM-PROJECT 1", "status": "Implementation", "locationName": "Lagaip-Porgera District"}}, {"type": "Feature", "geometry": {"type": "Point", "coordinates": [143.51381, -5.95502]}, "properties": {"id": "46004-40173-023-LN2497", "sectors": ["Transport"], "title": "MFF-HIGHLANDS REGION ROAD IMPROVEMENT INVESTMENT PROGRAM-PROJ.1", "status": "Implementation", "locationName": "Winja"}}, {"type": "Feature", "geometry": {"type": "Point", "coordinates": [143.65, -5.33333]}, "properties": {"id": "46004-40173-023-LN2497", "sectors": ["Transport"], "title": "MFF-HIGHLANDS REGION ROAD IMPROVEMENT INVESTMENT PROGRAM-PROJ.1", "status": "Implementation", "locationName": "Wabag District"}}, {"type": "Feature", "geometry": {"type": "Point", "coordinates": [142.83333, -6.28333]}, "properties": {"id": "46004-40173-023-LN2497", "sectors": ["Transport"], "title": "MFF-HIGHLANDS REGION ROAD IMPROVEMENT INVESTMENT PROGRAM-PROJ.1", "status": "Implementation", "locationName": "Tari District"}}, {"type": "Feature", "geometry": {"type": "Point", "coordinates": [143.12956, -5.47418]}, "properties": {"id": "46004-40173-023-LN2497", "sectors": ["Transport"], "title": "MFF-HIGHLANDS REGION ROAD IMPROVEMENT INVESTMENT PROGRAM-PROJ.1", "status": "Implementation", "locationName": "Porgera"}}, {"type": "Feature", "geometry": {"type": "Point", "coordinates": [143.54937, -6.04392]}, "properties": {"id": "46004-40173-023-LN2497", "sectors": ["Transport"], "title": "MFF-HIGHLANDS REGION ROAD IMPROVEMENT INVESTMENT PROGRAM-PROJ.1", "status": "Implementation", "locationName": "Peane"}}, {"type": "Feature", "geometry": {"type": "Point", "coordinates": [143.33333, -6.33333]}, "properties": {"id": "46004-40173-023-LN2497", "sectors": ["Transport"], "title": "MFF-HIGHLANDS REGION ROAD IMPROVEMENT INVESTMENT PROGRAM-PROJ.1", "status": "Implementation", "locationName": "Nipa District"}}, {"type": "Feature", "geometry": {"type": "Point", "coordinates": [143.4412, -6.18019]}, "properties": {"id": "46004-40173-023-LN2497", "sectors": ["Transport"], "title": "MFF-HIGHLANDS REGION ROAD IMPROVEMENT INVESTMENT PROGRAM-PROJ.1", "status": "Implementation", "locationName": "Nipa"}}, {"type": "Feature", "geometry": {"type": "Point", "coordinates": [143.66667, -6.11667]}, "properties": {"id": "46004-40173-023-LN2497", "sectors": ["Transport"], "title": "MFF-HIGHLANDS REGION ROAD IMPROVEMENT INVESTMENT PROGRAM-PROJ.1", "status": "Implementation", "locationName": "Mendi District"}}, {"type": "Feature", "geometry": {"type": "Point", "coordinates": [143.65134, -6.17608]}, "properties": {"id": "46004-40173-023-LN2497", "sectors": ["Transport"], "title": "MFF-HIGHLANDS REGION ROAD IMPROVEMENT INVESTMENT PROGRAM-PROJ.1", "status": "Implementation", "locationName": "Mendi"}}, {"type": "Feature", "geometry": {"type": "Point", "coordinates": [143.3518, -5.98338]}, "properties": {"id": "46004-40173-023-LN2497", "sectors": ["Transport"], "title": "MFF-HIGHLANDS REGION ROAD IMPROVEMENT INVESTMENT PROGRAM-PROJ.1", "status": "Implementation", "locationName": "Margarima"}}, {"type": "Feature", "geometry": {"type": "Point", "coordinates": [143.79052, -5.33105]}, "properties": {"id": "46004-40173-023-LN2497", "sectors": ["Transport"], "title": "MFF-HIGHLANDS REGION ROAD IMPROVEMENT INVESTMENT PROGRAM-PROJ.1", "status": "Implementation", "locationName": "Laiagam"}}, {"type": "Feature", "geometry": {"type": "Point", "coordinates": [142.5, -5.66667]}, "properties": {"id": "46004-40173-023-LN2497", "sectors": ["Transport"], "title": "MFF-HIGHLANDS REGION ROAD IMPROVEMENT INVESTMENT PROGRAM-PROJ.1", "status": "Implementation", "locationName": "Koroba District"}}, {"type": "Feature", "geometry": {"type": "Point", "coordinates": [142.73661, -5.70567]}, "properties": {"id": "46004-40173-023-LN2497", "sectors": ["Transport"], "title": "MFF-HIGHLANDS REGION ROAD IMPROVEMENT INVESTMENT PROGRAM-PROJ.1", "status": "Implementation", "locationName": "Koroba"}}, {"type": "Feature", "geometry": {"type": "Point", "coordinates": [144.0, -5.25]}, "properties": {"id": "46004-40173-023-LN2497", "sectors": ["Transport"], "title": "MFF-HIGHLANDS REGION ROAD IMPROVEMENT INVESTMENT PROGRAM-PROJ.1", "status": "Implementation", "locationName": "Kompiam District"}}, {"type": "Feature", "geometry": {"type": "Point", "coordinates": [143.55, -5.83333]}, "properties": {"id": "46004-40173-023-LN2497", "sectors": ["Transport"], "title": "MFF-HIGHLANDS REGION ROAD IMPROVEMENT INVESTMENT PROGRAM-PROJ.1", "status": "Implementation", "locationName": "Kandep District"}}, {"type": "Feature", "geometry": {"type": "Point", "coordinates": [143.50519, -5.86641]}, "properties": {"id": "46004-40173-023-LN2497", "sectors": ["Transport"], "title": "MFF-HIGHLANDS REGION ROAD IMPROVEMENT INVESTMENT PROGRAM-PROJ.1", "status": "Implementation", "locationName": "Kandep"}}, {"type": "Feature", "geometry": {"type": "Point", "coordinates": [143.1, -5.85]}, "properties": {"id": "46004-40173-023-LN2497", "sectors": ["Transport"], "title": "MFF-HIGHLANDS REGION ROAD IMPROVEMENT INVESTMENT PROGRAM-PROJ.1", "status": "Implementation", "locationName": "Ambua Peaks"}}, {"type": "Feature", "geometry": {"type": "Point", "coordinates": [142.91511, -5.87054]}, "properties": {"id": "46004-40173-023-LN2497", "sectors": ["Transport"], "title": "MFF-HIGHLANDS REGION ROAD IMPROVEMENT INVESTMENT PROGRAM-PROJ.1", "status": "Implementation", "locationName": "Hiwinda"}}, {"type": "Feature", "geometry": {"type": "Point", "coordinates": [143.38964, -5.37804]}, "properties": {"id": "46004-40173-023-LN2497", "sectors": ["Transport"], "title": "MFF-HIGHLANDS REGION ROAD IMPROVEMENT INVESTMENT PROGRAM-PROJ.1", "status": "Implementation", "locationName": "Muritaka"}}, {"type": "Feature", "geometry": {"type": "Point", "coordinates": [143.16667, -5.38333]}, "properties": {"id": "46004-40173-023-LN2497", "sectors": ["Transport"], "title": "MFF-HIGHLANDS REGION ROAD IMPROVEMENT INVESTMENT PROGRAM-PROJ.1", "status": "Implementation", "locationName": "Lagaip-Porgera District"}}, {"type": "Feature", "geometry": {"type": "Point", "coordinates": [147.0, -6.0]}, "properties": {"id": "46004-43141-023-LN2588", "sectors": ["Transport", "Information and communication technology"], "title": "MFF-CIVIL AVIATION DEVELOPMENT INVESTMENT PROGRAM-PROJECT 1", "status": "Implementation", "locationName": "Papua New Guinea"}}, {"type": "Feature", "geometry": {"type": "Point", "coordinates": [147.22005, -9.44338]}, "properties": {"id": "46004-43141-023-LN2588", "sectors": ["Transport", "Information and communication technology"], "title": "MFF-CIVIL AVIATION DEVELOPMENT INVESTMENT PROGRAM-PROJECT 1", "status": "Implementation", "locationName": "Jacksons International Airport"}}, {"type": "Feature", "geometry": {"type": "Point", "coordinates": [143.66919, -3.58383]}, "properties": {"id": "46004-43141-023-LN2588", "sectors": ["Transport", "Information and communication technology"], "title": "MFF-CIVIL AVIATION DEVELOPMENT INVESTMENT PROGRAM-PROJECT 1", "status": "Implementation", "locationName": "Wewak"}}, {"type": "Feature", "geometry": {"type": "Point", "coordinates": [145.39188, -6.08169]}, "properties": {"id": "46004-43141-023-LN2588", "sectors": ["Transport", "Information and communication technology"], "title": "MFF-CIVIL AVIATION DEVELOPMENT INVESTMENT PROGRAM-PROJECT 1", "status": "Implementation", "locationName": "Goroka Airport"}}, {"type": "Feature", "geometry": {"type": "Point", "coordinates": [150.33756, -10.31108]}, "properties": {"id": "46004-43141-023-LN2588", "sectors": ["Transport", "Information and communication technology"], "title": "MFF-CIVIL AVIATION DEVELOPMENT INVESTMENT PROGRAM-PROJECT 1", "status": "Implementation", "locationName": "Gurney Airport"}}, {"type": "Feature", "geometry": {"type": "Point", "coordinates": [150.405, -5.46217]}, "properties": {"id": "46004-43141-023-LN2588", "sectors": ["Transport", "Information and communication technology"], "title": "MFF-CIVIL AVIATION DEVELOPMENT INVESTMENT PROGRAM-PROJECT 1", "status": "Implementation", "locationName": "Hoskins Airport"}}, {"type": "Feature", "geometry": {"type": "Point", "coordinates": [150.808, -2.5794]}, "properties": {"id": "46004-43141-023-LN2588", "sectors": ["Transport", "Information and communication technology"], "title": "MFF-CIVIL AVIATION DEVELOPMENT INVESTMENT PROGRAM-PROJECT 1", "status": "Implementation", "locationName": "Kavieng Airport"}}, {"type": "Feature", "geometry": {"type": "Point", "coordinates": [144.29601, -5.82679]}, "properties": {"id": "46004-43141-023-LN2588", "sectors": ["Transport", "Information and communication technology"], "title": "MFF-CIVIL AVIATION DEVELOPMENT INVESTMENT PROGRAM-PROJECT 1", "status": "Implementation", "locationName": "Mount Hagen Kagamuga Airport"}}, {"type": "Feature", "geometry": {"type": "Point", "coordinates": [147.0, -6.0]}, "properties": {"id": "46004-43141-023-LN2589", "sectors": ["Transport"], "title": "MFF-CIVIL AVIATION DEVELOPMENT INVESTMENT PROGRAM -PROJ 1 (STL)", "status": "Implementation", "locationName": "Papua New Guinea"}}, {"type": "Feature", "geometry": {"type": "Point", "coordinates": [147.22005, -9.44338]}, "properties": {"id": "46004-43141-023-LN2589", "sectors": ["Transport"], "title": "MFF-CIVIL AVIATION DEVELOPMENT INVESTMENT PROGRAM -PROJ 1 (STL)", "status": "Implementation", "locationName": "Jacksons International Airport"}}, {"type": "Feature", "geometry": {"type": "Point", "coordinates": [143.66919, -3.58383]}, "properties": {"id": "46004-43141-023-LN2589", "sectors": ["Transport"], "title": "MFF-CIVIL AVIATION DEVELOPMENT INVESTMENT PROGRAM -PROJ 1 (STL)", "status": "Implementation", "locationName": "Wewak"}}, {"type": "Feature", "geometry": {"type": "Point", "coordinates": [145.39188, -6.08169]}, "properties": {"id": "46004-43141-023-LN2589", "sectors": ["Transport"], "title": "MFF-CIVIL AVIATION DEVELOPMENT INVESTMENT PROGRAM -PROJ 1 (STL)", "status": "Implementation", "locationName": "Goroka Airport"}}, {"type": "Feature", "geometry": {"type": "Point", "coordinates": [150.33756, -10.31108]}, "properties": {"id": "46004-43141-023-LN2589", "sectors": ["Transport"], "title": "MFF-CIVIL AVIATION DEVELOPMENT INVESTMENT PROGRAM -PROJ 1 (STL)", "status": "Implementation", "locationName": "Gurney Airport"}}, {"type": "Feature", "geometry": {"type": "Point", "coordinates": [150.405, -5.46217]}, "properties": {"id": "46004-43141-023-LN2589", "sectors": ["Transport"], "title": "MFF-CIVIL AVIATION DEVELOPMENT INVESTMENT PROGRAM -PROJ 1 (STL)", "status": "Implementation", "locationName": "Hoskins Airport"}}, {"type": "Feature", "geometry": {"type": "Point", "coordinates": [150.808, -2.5794]}, "properties": {"id": "46004-43141-023-LN2589", "sectors": ["Transport"], "title": "MFF-CIVIL AVIATION DEVELOPMENT INVESTMENT PROGRAM -PROJ 1 (STL)", "status": "Implementation", "locationName": "Kavieng Airport"}}, {"type": "Feature", "geometry": {"type": "Point", "coordinates": [144.29601, -5.82679]}, "properties": {"id": "46004-43141-023-LN2589", "sectors": ["Transport"], "title": "MFF-CIVIL AVIATION DEVELOPMENT INVESTMENT PROGRAM -PROJ 1 (STL)", "status": "Implementation", "locationName": "Mount Hagen Kagamuga Airport"}}, {"type": "Feature", "geometry": {"type": "Point", "coordinates": [147.0, -6.0]}, "properties": {"id": "46004-43141-023-LN2590", "sectors": ["Transport"], "title": "MFF-CIVIL AVIATION DEVELOPMENT INVESTMENT PROGRAM -PROJ 1 (HTL)", "status": "Implementation", "locationName": "Papua New Guinea"}}, {"type": "Feature", "geometry": {"type": "Point", "coordinates": [147.22005, -9.44338]}, "properties": {"id": "46004-43141-023-LN2590", "sectors": ["Transport"], "title": "MFF-CIVIL AVIATION DEVELOPMENT INVESTMENT PROGRAM -PROJ 1 (HTL)", "status": "Implementation", "locationName": "Jacksons International Airport"}}, {"type": "Feature", "geometry": {"type": "Point", "coordinates": [143.66919, -3.58383]}, "properties": {"id": "46004-43141-023-LN2590", "sectors": ["Transport"], "title": "MFF-CIVIL AVIATION DEVELOPMENT INVESTMENT PROGRAM -PROJ 1 (HTL)", "status": "Implementation", "locationName": "Wewak"}}, {"type": "Feature", "geometry": {"type": "Point", "coordinates": [145.39188, -6.08169]}, "properties": {"id": "46004-43141-023-LN2590", "sectors": ["Transport"], "title": "MFF-CIVIL AVIATION DEVELOPMENT INVESTMENT PROGRAM -PROJ 1 (HTL)", "status": "Implementation", "locationName": "Goroka Airport"}}, {"type": "Feature", "geometry": {"type": "Point", "coordinates": [150.33756, -10.31108]}, "properties": {"id": "46004-43141-023-LN2590", "sectors": ["Transport"], "title": "MFF-CIVIL AVIATION DEVELOPMENT INVESTMENT PROGRAM -PROJ 1 (HTL)", "status": "Implementation", "locationName": "Gurney Airport"}}, {"type": "Feature", "geometry": {"type": "Point", "coordinates": [150.405, -5.46217]}, "properties": {"id": "46004-43141-023-LN2590", "sectors": ["Transport"], "title": "MFF-CIVIL AVIATION DEVELOPMENT INVESTMENT PROGRAM -PROJ 1 (HTL)", "status": "Implementation", "locationName": "Hoskins Airport"}}, {"type": "Feature", "geometry": {"type": "Point", "coordinates": [150.808, -2.5794]}, "properties": {"id": "46004-43141-023-LN2590", "sectors": ["Transport"], "title": "MFF-CIVIL AVIATION DEVELOPMENT INVESTMENT PROGRAM -PROJ 1 (HTL)", "status": "Implementation", "locationName": "Kavieng Airport"}}, {"type": "Feature", "geometry": {"type": "Point", "coordinates": [144.29601, -5.82679]}, "properties": {"id": "46004-43141-023-LN2590", "sectors": ["Transport"], "title": "MFF-CIVIL AVIATION DEVELOPMENT INVESTMENT PROGRAM -PROJ 1 (HTL)", "status": "Implementation", "locationName": "Mount Hagen Kagamuga Airport"}}, {"type": "Feature", "geometry": {"type": "Point", "coordinates": [141.0088, -2.61192]}, "properties": {"id": "46004-42135-013-LN2591", "sectors": ["Industry and trade"], "title": "PILOT BORDER TRADE AND INVESTMENT DEVELOPMENT PROJECT", "status": "Implementation", "locationName": "Wutung"}}, {"type": "Feature", "geometry": {"type": "Point", "coordinates": [142.0, -3.5]}, "properties": {"id": "46004-42135-013-LN2591", "sectors": ["Industry and trade"], "title": "PILOT BORDER TRADE AND INVESTMENT DEVELOPMENT PROJECT", "status": "Implementation", "locationName": "West Sepik Province"}}, {"type": "Feature", "geometry": {"type": "Point", "coordinates": [147.0, -6.0]}, "properties": {"id": "46004-44304-013-LN2686", "sectors": ["Finance"], "title": "MICROFINANCE EXPANSION PROJECT", "status": "Implementation", "locationName": "Papua New Guinea"}}, {"type": "Feature", "geometry": {"type": "Point", "coordinates": [147.86384, -8.94867]}, "properties": {"id": "46004-41504-023-LN2713", "sectors": ["Energy"], "title": "MFF-TOWN ELECTRIFICATION INVESTMENT PROGRAM-TRANCHE 1", "status": "Implementation", "locationName": "Waju"}}, {"type": "Feature", "geometry": {"type": "Point", "coordinates": [154.95376, -5.5379]}, "properties": {"id": "46004-41504-023-LN2713", "sectors": ["Energy"], "title": "MFF-TOWN ELECTRIFICATION INVESTMENT PROGRAM-TRANCHE 1", "status": "Implementation", "locationName": "Ramazon River"}}, {"type": "Feature", "geometry": {"type": "Point", "coordinates": [148.33333, -9.0]}, "properties": {"id": "46004-41504-023-LN2713", "sectors": ["Energy"], "title": "MFF-TOWN ELECTRIFICATION INVESTMENT PROGRAM-TRANCHE 1", "status": "Implementation", "locationName": "Popondetta District"}}, {"type": "Feature", "geometry": {"type": "Point", "coordinates": [148.24095, -8.75931]}, "properties": {"id": "46004-41504-023-LN2713", "sectors": ["Energy"], "title": "MFF-TOWN ELECTRIFICATION INVESTMENT PROGRAM-TRANCHE 1", "status": "Implementation", "locationName": "Popondetta"}}, {"type": "Feature", "geometry": {"type": "Point", "coordinates": [147.87968, -8.91731]}, "properties": {"id": "46004-41504-023-LN2713", "sectors": ["Energy"], "title": "MFF-TOWN ELECTRIFICATION INVESTMENT PROGRAM-TRANCHE 1", "status": "Implementation", "locationName": "Luwuni Creek"}}, {"type": "Feature", "geometry": {"type": "Point", "coordinates": [147.91667, -9.0]}, "properties": {"id": "46004-41504-023-LN2713", "sectors": ["Energy"], "title": "MFF-TOWN ELECTRIFICATION INVESTMENT PROGRAM-TRANCHE 1", "status": "Implementation", "locationName": "Kokoda District"}}, {"type": "Feature", "geometry": {"type": "Point", "coordinates": [147.74073, -8.87853]}, "properties": {"id": "46004-41504-023-LN2713", "sectors": ["Energy"], "title": "MFF-TOWN ELECTRIFICATION INVESTMENT PROGRAM-TRANCHE 1", "status": "Implementation", "locationName": "Kokoda"}}, {"type": "Feature", "geometry": {"type": "Point", "coordinates": [150.14285, -5.55021]}, "properties": {"id": "46004-41504-023-LN2713", "sectors": ["Energy"], "title": "MFF-TOWN ELECTRIFICATION INVESTMENT PROGRAM-TRANCHE 1", "status": "Implementation", "locationName": "Kimbe"}}, {"type": "Feature", "geometry": {"type": "Point", "coordinates": [151.008, -5.33056]}, "properties": {"id": "46004-41504-023-LN2713", "sectors": ["Energy"], "title": "MFF-TOWN ELECTRIFICATION INVESTMENT PROGRAM-TRANCHE 1", "status": "Implementation", "locationName": "Bialla"}}, {"type": "Feature", "geometry": {"type": "Point", "coordinates": [150.06101, -5.68119]}, "properties": {"id": "46004-41504-023-LN2713", "sectors": ["Energy"], "title": "MFF-TOWN ELECTRIFICATION INVESTMENT PROGRAM-TRANCHE 1", "status": "Implementation", "locationName": "Kimbe"}}, {"type": "Feature", "geometry": {"type": "Point", "coordinates": [150.94335, -5.51452]}, "properties": {"id": "46004-41504-023-LN2713", "sectors": ["Energy"], "title": "MFF-TOWN ELECTRIFICATION INVESTMENT PROGRAM-TRANCHE 1", "status": "Implementation", "locationName": "Bialla"}}, {"type": "Feature", "geometry": {"type": "Point", "coordinates": [154.67278, -5.42194]}, "properties": {"id": "46004-41504-023-LN2713", "sectors": ["Energy"], "title": "MFF-TOWN ELECTRIFICATION INVESTMENT PROGRAM-TRANCHE 1", "status": "Implementation", "locationName": "Buka"}}, {"type": "Feature", "geometry": {"type": "Point", "coordinates": [154.67278, -5.42194]}, "properties": {"id": "46004-41504-023-LN2713", "sectors": ["Energy"], "title": "MFF-TOWN ELECTRIFICATION INVESTMENT PROGRAM-TRANCHE 1", "status": "Implementation", "locationName": "North Bougainville District"}}, {"type": "Feature", "geometry": {"type": "Point", "coordinates": [147.86384, -8.94867]}, "properties": {"id": "46004-41504-023-LN2714", "sectors": ["Energy"], "title": "MFF-TOWN ELECTRIFICATION INVESTMENT PROGRAM-TRANCHE 1", "status": "Implementation", "locationName": "Waju"}}, {"type": "Feature", "geometry": {"type": "Point", "coordinates": [154.95376, -5.5379]}, "properties": {"id": "46004-41504-023-LN2714", "sectors": ["Energy"], "title": "MFF-TOWN ELECTRIFICATION INVESTMENT PROGRAM-TRANCHE 1", "status": "Implementation", "locationName": "Ramazon River"}}, {"type": "Feature", "geometry": {"type": "Point", "coordinates": [148.33333, -9.0]}, "properties": {"id": "46004-41504-023-LN2714", "sectors": ["Energy"], "title": "MFF-TOWN ELECTRIFICATION INVESTMENT PROGRAM-TRANCHE 1", "status": "Implementation", "locationName": "Popondetta District"}}, {"type": "Feature", "geometry": {"type": "Point", "coordinates": [148.24095, -8.75931]}, "properties": {"id": "46004-41504-023-LN2714", "sectors": ["Energy"], "title": "MFF-TOWN ELECTRIFICATION INVESTMENT PROGRAM-TRANCHE 1", "status": "Implementation", "locationName": "Popondetta"}}, {"type": "Feature", "geometry": {"type": "Point", "coordinates": [147.87968, -8.91731]}, "properties": {"id": "46004-41504-023-LN2714", "sectors": ["Energy"], "title": "MFF-TOWN ELECTRIFICATION INVESTMENT PROGRAM-TRANCHE 1", "status": "Implementation", "locationName": "Luwuni Creek"}}, {"type": "Feature", "geometry": {"type": "Point", "coordinates": [147.91667, -9.0]}, "properties": {"id": "46004-41504-023-LN2714", "sectors": ["Energy"], "title": "MFF-TOWN ELECTRIFICATION INVESTMENT PROGRAM-TRANCHE 1", "status": "Implementation", "locationName": "Kokoda District"}}, {"type": "Feature", "geometry": {"type": "Point", "coordinates": [147.74073, -8.87853]}, "properties": {"id": "46004-41504-023-LN2714", "sectors": ["Energy"], "title": "MFF-TOWN ELECTRIFICATION INVESTMENT PROGRAM-TRANCHE 1", "status": "Implementation", "locationName": "Kokoda"}}, {"type": "Feature", "geometry": {"type": "Point", "coordinates": [150.14285, -5.55021]}, "properties": {"id": "46004-41504-023-LN2714", "sectors": ["Energy"], "title": "MFF-TOWN ELECTRIFICATION INVESTMENT PROGRAM-TRANCHE 1", "status": "Implementation", "locationName": "Kimbe"}}, {"type": "Feature", "geometry": {"type": "Point", "coordinates": [151.008, -5.33056]}, "properties": {"id": "46004-41504-023-LN2714", "sectors": ["Energy"], "title": "MFF-TOWN ELECTRIFICATION INVESTMENT PROGRAM-TRANCHE 1", "status": "Implementation", "locationName": "Bialla"}}, {"type": "Feature", "geometry": {"type": "Point", "coordinates": [150.06101, -5.68119]}, "properties": {"id": "46004-41504-023-LN2714", "sectors": ["Energy"], "title": "MFF-TOWN ELECTRIFICATION INVESTMENT PROGRAM-TRANCHE 1", "status": "Implementation", "locationName": "Kimbe"}}, {"type": "Feature", "geometry": {"type": "Point", "coordinates": [150.94335, -5.51452]}, "properties": {"id": "46004-41504-023-LN2714", "sectors": ["Energy"], "title": "MFF-TOWN ELECTRIFICATION INVESTMENT PROGRAM-TRANCHE 1", "status": "Implementation", "locationName": "Bialla"}}, {"type": "Feature", "geometry": {"type": "Point", "coordinates": [154.67278, -5.42194]}, "properties": {"id": "46004-41504-023-LN2714", "sectors": ["Energy"], "title": "MFF-TOWN ELECTRIFICATION INVESTMENT PROGRAM-TRANCHE 1", "status": "Implementation", "locationName": "Buka"}}, {"type": "Feature", "geometry": {"type": "Point", "coordinates": [154.67278, -5.42194]}, "properties": {"id": "46004-41504-023-LN2714", "sectors": ["Energy"], "title": "MFF-TOWN ELECTRIFICATION INVESTMENT PROGRAM-TRANCHE 1", "status": "Implementation", "locationName": "North Bougainville District"}}, {"type": "Feature", "geometry": {"type": "Point", "coordinates": [150.63584, -5.6449]}, "properties": {"id": "46004-43200-024-LN2783", "sectors": ["Transport", "Information and communication technology"], "title": "BRIDGE REPLACEMENT FOR IMPROVED RURAL ACCESS SECTOR PROJECT", "status": "Implementation", "locationName": "Ubai"}}, {"type": "Feature", "geometry": {"type": "Point", "coordinates": [143.38333, -3.73333]}, "properties": {"id": "46004-43200-024-LN2783", "sectors": ["Transport", "Information and communication technology"], "title": "BRIDGE REPLACEMENT FOR IMPROVED RURAL ACCESS SECTOR PROJECT", "status": "Implementation", "locationName": "Suondo"}}, {"type": "Feature", "geometry": {"type": "Point", "coordinates": [147.79656, -9.82292]}, "properties": {"id": "46004-43200-024-LN2783", "sectors": ["Transport", "Information and communication technology"], "title": "BRIDGE REPLACEMENT FOR IMPROVED RURAL ACCESS SECTOR PROJECT", "status": "Implementation", "locationName": "Sivitatana"}}, {"type": "Feature", "geometry": {"type": "Point", "coordinates": [150.96796, -5.52643]}, "properties": {"id": "46004-43200-024-LN2783", "sectors": ["Transport", "Information and communication technology"], "title": "BRIDGE REPLACEMENT FOR IMPROVED RURAL ACCESS SECTOR PROJECT", "status": "Implementation", "locationName": "Sale"}}, {"type": "Feature", "geometry": {"type": "Point", "coordinates": [151.03333, -5.43333]}, "properties": {"id": "46004-43200-024-LN2783", "sectors": ["Transport", "Information and communication technology"], "title": "BRIDGE REPLACEMENT FOR IMPROVED RURAL ACCESS SECTOR PROJECT", "status": "Implementation", "locationName": "Old Kiava"}}, {"type": "Feature", "geometry": {"type": "Point", "coordinates": [143.49411, -3.73735]}, "properties": {"id": "46004-43200-024-LN2783", "sectors": ["Transport", "Information and communication technology"], "title": "BRIDGE REPLACEMENT FOR IMPROVED RURAL ACCESS SECTOR PROJECT", "status": "Implementation", "locationName": "Nangumaru"}}, {"type": "Feature", "geometry": {"type": "Point", "coordinates": [143.43744, -3.74474]}, "properties": {"id": "46004-43200-024-LN2783", "sectors": ["Transport", "Information and communication technology"], "title": "BRIDGE REPLACEMENT FOR IMPROVED RURAL ACCESS SECTOR PROJECT", "status": "Implementation", "locationName": "Mundjiharanji Villages"}}, {"type": "Feature", "geometry": {"type": "Point", "coordinates": [150.77692, -5.61732]}, "properties": {"id": "46004-43200-024-LN2783", "sectors": ["Transport", "Information and communication technology"], "title": "BRIDGE REPLACEMENT FOR IMPROVED RURAL ACCESS SECTOR PROJECT", "status": "Implementation", "locationName": "Mirapu"}}, {"type": "Feature", "geometry": {"type": "Point", "coordinates": [150.59094, -5.64459]}, "properties": {"id": "46004-43200-024-LN2783", "sectors": ["Transport", "Information and communication technology"], "title": "BRIDGE REPLACEMENT FOR IMPROVED RURAL ACCESS SECTOR PROJECT", "status": "Implementation", "locationName": "Lavege"}}, {"type": "Feature", "geometry": {"type": "Point", "coordinates": [147.29764, -9.38566]}, "properties": {"id": "46004-43200-024-LN2783", "sectors": ["Transport", "Information and communication technology"], "title": "BRIDGE REPLACEMENT FOR IMPROVED RURAL ACCESS SECTOR PROJECT", "status": "Implementation", "locationName": "Laloki"}}, {"type": "Feature", "geometry": {"type": "Point", "coordinates": [147.73639, -9.83306]}, "properties": {"id": "46004-43200-024-LN2783", "sectors": ["Transport", "Information and communication technology"], "title": "BRIDGE REPLACEMENT FOR IMPROVED RURAL ACCESS SECTOR PROJECT", "status": "Implementation", "locationName": "Koke Bagu Plantation"}}, {"type": "Feature", "geometry": {"type": "Point", "coordinates": [151.28333, -5.11667]}, "properties": {"id": "46004-43200-024-LN2783", "sectors": ["Transport", "Information and communication technology"], "title": "BRIDGE REPLACEMENT FOR IMPROVED RURAL ACCESS SECTOR PROJECT", "status": "Implementation", "locationName": "Kipa"}}, {"type": "Feature", "geometry": {"type": "Point", "coordinates": [151.03333, -5.4]}, "properties": {"id": "46004-43200-024-LN2783", "sectors": ["Transport", "Information and communication technology"], "title": "BRIDGE REPLACEMENT FOR IMPROVED RURAL ACCESS SECTOR PROJECT", "status": "Implementation", "locationName": "Kiava"}}, {"type": "Feature", "geometry": {"type": "Point", "coordinates": [147.23333, -9.2]}, "properties": {"id": "46004-43200-024-LN2783", "sectors": ["Transport", "Information and communication technology"], "title": "BRIDGE REPLACEMENT FOR IMPROVED RURAL ACCESS SECTOR PROJECT", "status": "Implementation", "locationName": "Karema"}}, {"type": "Feature", "geometry": {"type": "Point", "coordinates": [145.9671, -6.09931]}, "properties": {"id": "46004-43200-024-LN2783", "sectors": ["Transport", "Information and communication technology"], "title": "BRIDGE REPLACEMENT FOR IMPROVED RURAL ACCESS SECTOR PROJECT", "status": "Implementation", "locationName": "Gusap"}}, {"type": "Feature", "geometry": {"type": "Point", "coordinates": [145.58333, -5.38333]}, "properties": {"id": "46004-43200-024-LN2783", "sectors": ["Transport", "Information and communication technology"], "title": "BRIDGE REPLACEMENT FOR IMPROVED RURAL ACCESS SECTOR PROJECT", "status": "Implementation", "locationName": "Gomo"}}, {"type": "Feature", "geometry": {"type": "Point", "coordinates": [151.13393, -5.19666]}, "properties": {"id": "46004-43200-024-LN2783", "sectors": ["Transport", "Information and communication technology"], "title": "BRIDGE REPLACEMENT FOR IMPROVED RURAL ACCESS SECTOR PROJECT", "status": "Implementation", "locationName": "Gigipuna"}}, {"type": "Feature", "geometry": {"type": "Point", "coordinates": [145.6467, -5.39239]}, "properties": {"id": "46004-43200-024-LN2783", "sectors": ["Transport", "Information and communication technology"], "title": "BRIDGE REPLACEMENT FOR IMPROVED RURAL ACCESS SECTOR PROJECT", "status": "Implementation", "locationName": "Duduela"}}, {"type": "Feature", "geometry": {"type": "Point", "coordinates": [145.90019, -5.97804]}, "properties": {"id": "46004-43200-024-LN2783", "sectors": ["Transport", "Information and communication technology"], "title": "BRIDGE REPLACEMENT FOR IMPROVED RURAL ACCESS SECTOR PROJECT", "status": "Implementation", "locationName": "Bumbu"}}, {"type": "Feature", "geometry": {"type": "Point", "coordinates": [146.49678, -8.65512]}, "properties": {"id": "46004-43200-024-LN2783", "sectors": ["Transport", "Information and communication technology"], "title": "BRIDGE REPLACEMENT FOR IMPROVED RURAL ACCESS SECTOR PROJECT", "status": "Implementation", "locationName": "Bereina"}}, {"type": "Feature", "geometry": {"type": "Point", "coordinates": [145.71256, -5.85851]}, "properties": {"id": "46004-43200-024-LN2783", "sectors": ["Transport", "Information and communication technology"], "title": "BRIDGE REPLACEMENT FOR IMPROVED RURAL ACCESS SECTOR PROJECT", "status": "Implementation", "locationName": "Bembei"}}, {"type": "Feature", "geometry": {"type": "Point", "coordinates": [147.58638, -9.78668]}, "properties": {"id": "46004-43200-024-LN2783", "sectors": ["Transport", "Information and communication technology"], "title": "BRIDGE REPLACEMENT FOR IMPROVED RURAL ACCESS SECTOR PROJECT", "status": "Implementation", "locationName": "Babaga"}}, {"type": "Feature", "geometry": {"type": "Point", "coordinates": [145.56102, -5.72244]}, "properties": {"id": "46004-43200-024-LN2783", "sectors": ["Transport", "Information and communication technology"], "title": "BRIDGE REPLACEMENT FOR IMPROVED RURAL ACCESS SECTOR PROJECT", "status": "Implementation", "locationName": "Asas"}}, {"type": "Feature", "geometry": {"type": "Point", "coordinates": [151.25, -5.01667]}, "properties": {"id": "46004-43200-024-LN2783", "sectors": ["Transport", "Information and communication technology"], "title": "BRIDGE REPLACEMENT FOR IMPROVED RURAL ACCESS SECTOR PROJECT", "status": "Implementation", "locationName": "Langela"}}, {"type": "Feature", "geometry": {"type": "Point", "coordinates": [150.63584, -5.6449]}, "properties": {"id": "46004-43200-024-LN2784", "sectors": ["Transport"], "title": "BRIDGE REPLACEMENT FOR IMPROVED RURAL ACCESS SECTOR PROJECT", "status": "Implementation", "locationName": "Ubai"}}, {"type": "Feature", "geometry": {"type": "Point", "coordinates": [143.38333, -3.73333]}, "properties": {"id": "46004-43200-024-LN2784", "sectors": ["Transport"], "title": "BRIDGE REPLACEMENT FOR IMPROVED RURAL ACCESS SECTOR PROJECT", "status": "Implementation", "locationName": "Suondo"}}, {"type": "Feature", "geometry": {"type": "Point", "coordinates": [147.79656, -9.82292]}, "properties": {"id": "46004-43200-024-LN2784", "sectors": ["Transport"], "title": "BRIDGE REPLACEMENT FOR IMPROVED RURAL ACCESS SECTOR PROJECT", "status": "Implementation", "locationName": "Sivitatana"}}, {"type": "Feature", "geometry": {"type": "Point", "coordinates": [150.96796, -5.52643]}, "properties": {"id": "46004-43200-024-LN2784", "sectors": ["Transport"], "title": "BRIDGE REPLACEMENT FOR IMPROVED RURAL ACCESS SECTOR PROJECT", "status": "Implementation", "locationName": "Sale"}}, {"type": "Feature", "geometry": {"type": "Point", "coordinates": [151.03333, -5.43333]}, "properties": {"id": "46004-43200-024-LN2784", "sectors": ["Transport"], "title": "BRIDGE REPLACEMENT FOR IMPROVED RURAL ACCESS SECTOR PROJECT", "status": "Implementation", "locationName": "Old Kiava"}}, {"type": "Feature", "geometry": {"type": "Point", "coordinates": [143.49411, -3.73735]}, "properties": {"id": "46004-43200-024-LN2784", "sectors": ["Transport"], "title": "BRIDGE REPLACEMENT FOR IMPROVED RURAL ACCESS SECTOR PROJECT", "status": "Implementation", "locationName": "Nangumaru"}}, {"type": "Feature", "geometry": {"type": "Point", "coordinates": [143.43744, -3.74474]}, "properties": {"id": "46004-43200-024-LN2784", "sectors": ["Transport"], "title": "BRIDGE REPLACEMENT FOR IMPROVED RURAL ACCESS SECTOR PROJECT", "status": "Implementation", "locationName": "Mundjiharanji Villages"}}, {"type": "Feature", "geometry": {"type": "Point", "coordinates": [150.77692, -5.61732]}, "properties": {"id": "46004-43200-024-LN2784", "sectors": ["Transport"], "title": "BRIDGE REPLACEMENT FOR IMPROVED RURAL ACCESS SECTOR PROJECT", "status": "Implementation", "locationName": "Mirapu"}}, {"type": "Feature", "geometry": {"type": "Point", "coordinates": [150.59094, -5.64459]}, "properties": {"id": "46004-43200-024-LN2784", "sectors": ["Transport"], "title": "BRIDGE REPLACEMENT FOR IMPROVED RURAL ACCESS SECTOR PROJECT", "status": "Implementation", "locationName": "Lavege"}}, {"type": "Feature", "geometry": {"type": "Point", "coordinates": [147.29764, -9.38566]}, "properties": {"id": "46004-43200-024-LN2784", "sectors": ["Transport"], "title": "BRIDGE REPLACEMENT FOR IMPROVED RURAL ACCESS SECTOR PROJECT", "status": "Implementation", "locationName": "Laloki"}}, {"type": "Feature", "geometry": {"type": "Point", "coordinates": [147.73639, -9.83306]}, "properties": {"id": "46004-43200-024-LN2784", "sectors": ["Transport"], "title": "BRIDGE REPLACEMENT FOR IMPROVED RURAL ACCESS SECTOR PROJECT", "status": "Implementation", "locationName": "Koke Bagu Plantation"}}, {"type": "Feature", "geometry": {"type": "Point", "coordinates": [151.28333, -5.11667]}, "properties": {"id": "46004-43200-024-LN2784", "sectors": ["Transport"], "title": "BRIDGE REPLACEMENT FOR IMPROVED RURAL ACCESS SECTOR PROJECT", "status": "Implementation", "locationName": "Kipa"}}, {"type": "Feature", "geometry": {"type": "Point", "coordinates": [151.03333, -5.4]}, "properties": {"id": "46004-43200-024-LN2784", "sectors": ["Transport"], "title": "BRIDGE REPLACEMENT FOR IMPROVED RURAL ACCESS SECTOR PROJECT", "status": "Implementation", "locationName": "Kiava"}}, {"type": "Feature", "geometry": {"type": "Point", "coordinates": [147.23333, -9.2]}, "properties": {"id": "46004-43200-024-LN2784", "sectors": ["Transport"], "title": "BRIDGE REPLACEMENT FOR IMPROVED RURAL ACCESS SECTOR PROJECT", "status": "Implementation", "locationName": "Karema"}}, {"type": "Feature", "geometry": {"type": "Point", "coordinates": [145.9671, -6.09931]}, "properties": {"id": "46004-43200-024-LN2784", "sectors": ["Transport"], "title": "BRIDGE REPLACEMENT FOR IMPROVED RURAL ACCESS SECTOR PROJECT", "status": "Implementation", "locationName": "Gusap"}}, {"type": "Feature", "geometry": {"type": "Point", "coordinates": [145.58333, -5.38333]}, "properties": {"id": "46004-43200-024-LN2784", "sectors": ["Transport"], "title": "BRIDGE REPLACEMENT FOR IMPROVED RURAL ACCESS SECTOR PROJECT", "status": "Implementation", "locationName": "Gomo"}}, {"type": "Feature", "geometry": {"type": "Point", "coordinates": [151.13393, -5.19666]}, "properties": {"id": "46004-43200-024-LN2784", "sectors": ["Transport"], "title": "BRIDGE REPLACEMENT FOR IMPROVED RURAL ACCESS SECTOR PROJECT", "status": "Implementation", "locationName": "Gigipuna"}}, {"type": "Feature", "geometry": {"type": "Point", "coordinates": [145.6467, -5.39239]}, "properties": {"id": "46004-43200-024-LN2784", "sectors": ["Transport"], "title": "BRIDGE REPLACEMENT FOR IMPROVED RURAL ACCESS SECTOR PROJECT", "status": "Implementation", "locationName": "Duduela"}}, {"type": "Feature", "geometry": {"type": "Point", "coordinates": [145.90019, -5.97804]}, "properties": {"id": "46004-43200-024-LN2784", "sectors": ["Transport"], "title": "BRIDGE REPLACEMENT FOR IMPROVED RURAL ACCESS SECTOR PROJECT", "status": "Implementation", "locationName": "Bumbu"}}, {"type": "Feature", "geometry": {"type": "Point", "coordinates": [146.49678, -8.65512]}, "properties": {"id": "46004-43200-024-LN2784", "sectors": ["Transport"], "title": "BRIDGE REPLACEMENT FOR IMPROVED RURAL ACCESS SECTOR PROJECT", "status": "Implementation", "locationName": "Bereina"}}, {"type": "Feature", "geometry": {"type": "Point", "coordinates": [145.71256, -5.85851]}, "properties": {"id": "46004-43200-024-LN2784", "sectors": ["Transport"], "title": "BRIDGE REPLACEMENT FOR IMPROVED RURAL ACCESS SECTOR PROJECT", "status": "Implementation", "locationName": "Bembei"}}, {"type": "Feature", "geometry": {"type": "Point", "coordinates": [147.58638, -9.78668]}, "properties": {"id": "46004-43200-024-LN2784", "sectors": ["Transport"], "title": "BRIDGE REPLACEMENT FOR IMPROVED RURAL ACCESS SECTOR PROJECT", "status": "Implementation", "locationName": "Babaga"}}, {"type": "Feature", "geometry": {"type": "Point", "coordinates": [145.56102, -5.72244]}, "properties": {"id": "46004-43200-024-LN2784", "sectors": ["Transport"], "title": "BRIDGE REPLACEMENT FOR IMPROVED RURAL ACCESS SECTOR PROJECT", "status": "Implementation", "locationName": "Asas"}}, {"type": "Feature", "geometry": {"type": "Point", "coordinates": [151.25, -5.01667]}, "properties": {"id": "46004-43200-024-LN2784", "sectors": ["Transport"], "title": "BRIDGE REPLACEMENT FOR IMPROVED RURAL ACCESS SECTOR PROJECT", "status": "Implementation", "locationName": "Langela"}}, {"type": "Feature", "geometry": {"type": "Point", "coordinates": [149.82605, -5.87833]}, "properties": {"id": "46004-41509-013-LN2785", "sectors": ["Health"], "title": "RURAL PRIMARY HEALTH SERVICES DELIVERY PROJECT", "status": "Implementation", "locationName": "West New Britain Province"}}, {"type": "Feature", "geometry": {"type": "Point", "coordinates": [144.25, -5.75]}, "properties": {"id": "46004-41509-013-LN2785", "sectors": ["Health"], "title": "RURAL PRIMARY HEALTH SERVICES DELIVERY PROJECT", "status": "Implementation", "locationName": "Western Highlands Province"}}, {"type": "Feature", "geometry": {"type": "Point", "coordinates": [149.58333, -5.66667]}, "properties": {"id": "46004-41509-013-LN2785", "sectors": ["Health"], "title": "RURAL PRIMARY HEALTH SERVICES DELIVERY PROJECT", "status": "Implementation", "locationName": "Talasea District"}}, {"type": "Feature", "geometry": {"type": "Point", "coordinates": [147.0, -6.0]}, "properties": {"id": "46004-41509-013-LN2785", "sectors": ["Health"], "title": "RURAL PRIMARY HEALTH SERVICES DELIVERY PROJECT", "status": "Implementation", "locationName": "Papua New Guinea"}}, {"type": "Feature", "geometry": {"type": "Point", "coordinates": [155.0, -6.0]}, "properties": {"id": "46004-41509-013-LN2785", "sectors": ["Health"], "title": "RURAL PRIMARY HEALTH SERVICES DELIVERY PROJECT", "status": "Implementation", "locationName": "Bougainville"}}, {"type": "Feature", "geometry": {"type": "Point", "coordinates": [146.9672, -7.0106]}, "properties": {"id": "46004-41509-013-LN2785", "sectors": ["Health"], "title": "RURAL PRIMARY HEALTH SERVICES DELIVERY PROJECT", "status": "Implementation", "locationName": "Morobe Province"}}, {"type": "Feature", "geometry": {"type": "Point", "coordinates": [144.0, -5.25]}, "properties": {"id": "46004-41509-013-LN2785", "sectors": ["Health"], "title": "RURAL PRIMARY HEALTH SERVICES DELIVERY PROJECT", "status": "Implementation", "locationName": "Kompiam District"}}, {"type": "Feature", "geometry": {"type": "Point", "coordinates": [149.91667, -6.08333]}, "properties": {"id": "46004-41509-013-LN2785", "sectors": ["Health"], "title": "RURAL PRIMARY HEALTH SERVICES DELIVERY PROJECT", "status": "Implementation", "locationName": "Kandrian District"}}, {"type": "Feature", "geometry": {"type": "Point", "coordinates": [143.5, -5.5]}, "properties": {"id": "46004-41509-013-LN2785", "sectors": ["Health"], "title": "RURAL PRIMARY HEALTH SERVICES DELIVERY PROJECT", "status": "Implementation", "locationName": "Enga Province"}}, {"type": "Feature", "geometry": {"type": "Point", "coordinates": [143.75, -4.0]}, "properties": {"id": "46004-41509-013-LN2785", "sectors": ["Health"], "title": "RURAL PRIMARY HEALTH SERVICES DELIVERY PROJECT", "status": "Implementation", "locationName": "East Sepik Province"}}, {"type": "Feature", "geometry": {"type": "Point", "coordinates": [145.58333, -6.5]}, "properties": {"id": "46004-41509-013-LN2785", "sectors": ["Health"], "title": "RURAL PRIMARY HEALTH SERVICES DELIVERY PROJECT", "status": "Implementation", "locationName": "Eastern Highlands Province"}}, {"type": "Feature", "geometry": {"type": "Point", "coordinates": [144.13333, -5.98333]}, "properties": {"id": "46004-41509-013-LN2785", "sectors": ["Health"], "title": "RURAL PRIMARY HEALTH SERVICES DELIVERY PROJECT", "status": "Implementation", "locationName": "Bonga"}}, {"type": "Feature", "geometry": {"type": "Point", "coordinates": [150.31494, -10.55262]}, "properties": {"id": "46004-41509-013-LN2785", "sectors": ["Health"], "title": "RURAL PRIMARY HEALTH SERVICES DELIVERY PROJECT", "status": "Implementation", "locationName": "Milne Bay Province"}}, {"type": "Feature", "geometry": {"type": "Point", "coordinates": [150.37042, -10.31664]}, "properties": {"id": "46004-41509-013-LN2785", "sectors": ["Health"], "title": "RURAL PRIMARY HEALTH SERVICES DELIVERY PROJECT", "status": "Implementation", "locationName": "Gurney"}}, {"type": "Feature", "geometry": {"type": "Point", "coordinates": [150.64642, -10.33673]}, "properties": {"id": "46004-41509-013-LN2785", "sectors": ["Health"], "title": "RURAL PRIMARY HEALTH SERVICES DELIVERY PROJECT", "status": "Implementation", "locationName": "Bubuleta"}}, {"type": "Feature", "geometry": {"type": "Point", "coordinates": [143.16667, -5.38333]}, "properties": {"id": "46004-41509-013-LN2785", "sectors": ["Health"], "title": "RURAL PRIMARY HEALTH SERVICES DELIVERY PROJECT", "status": "Implementation", "locationName": "Lagaip-Porgera District"}}, {"type": "Feature", "geometry": {"type": "Point", "coordinates": [150.08333, -10.25]}, "properties": {"id": "46004-41509-013-LN2785", "sectors": ["Health"], "title": "RURAL PRIMARY HEALTH SERVICES DELIVERY PROJECT", "status": "Implementation", "locationName": "Alotau District"}}, {"type": "Feature", "geometry": {"type": "Point", "coordinates": [144.15, -5.53333]}, "properties": {"id": "46004-41509-013-LN2785", "sectors": ["Health"], "title": "RURAL PRIMARY HEALTH SERVICES DELIVERY PROJECT", "status": "Implementation", "locationName": "Mul-Baiyer District"}}, {"type": "Feature", "geometry": {"type": "Point", "coordinates": [144.15, -5.98333]}, "properties": {"id": "46004-41509-013-LN2785", "sectors": ["Health"], "title": "RURAL PRIMARY HEALTH SERVICES DELIVERY PROJECT", "status": "Implementation", "locationName": "Tambul-Nebilyer District"}}, {"type": "Feature", "geometry": {"type": "Point", "coordinates": [155.56583, -6.22806]}, "properties": {"id": "46004-41509-013-LN2785", "sectors": ["Health"], "title": "RURAL PRIMARY HEALTH SERVICES DELIVERY PROJECT", "status": "Implementation", "locationName": "Central Bougainville District"}}, {"type": "Feature", "geometry": {"type": "Point", "coordinates": [155.68455, -6.74604]}, "properties": {"id": "46004-41509-013-LN2785", "sectors": ["Health"], "title": "RURAL PRIMARY HEALTH SERVICES DELIVERY PROJECT", "status": "Implementation", "locationName": "South Bougainville District"}}, {"type": "Feature", "geometry": {"type": "Point", "coordinates": [146.98469, -6.72208]}, "properties": {"id": "46004-40037-043-LN2803", "sectors": ["Transport", "Information and communication technology"], "title": "LAE PORT DEVELOPMENT PROJECT-ADDITIONAL FINANCING", "status": "Implementation", "locationName": "Lae"}}, {"type": "Feature", "geometry": {"type": "Point", "coordinates": [146.98469, -6.72208]}, "properties": {"id": "46004-40037-043-LN2804", "sectors": ["Transport"], "title": "LAE PORT DEVELOPMENT PROJECT-ADDITIONAL FINANCING", "status": "Implementation", "locationName": "Lae"}}, {"type": "Feature", "geometry": {"type": "Point", "coordinates": [147.19899, -9.49736]}, "properties": {"id": "46004-44375-013-LN2978", "sectors": ["Transport"], "title": "MARITIME AND WATERWAYS SAFETY PROJECT(SF)", "status": "Implementation", "locationName": "Kila Kila Number 1"}}, {"type": "Feature", "geometry": {"type": "Point", "coordinates": [149.15713, -9.33843]}, "properties": {"id": "46004-44375-013-LN2978", "sectors": ["Transport"], "title": "MARITIME AND WATERWAYS SAFETY PROJECT(SF)", "status": "Implementation", "locationName": "Wanigela"}}, {"type": "Feature", "geometry": {"type": "Point", "coordinates": [147.51361, -9.79917]}, "properties": {"id": "46004-44375-013-LN2978", "sectors": ["Transport"], "title": "MARITIME AND WATERWAYS SAFETY PROJECT(SF)", "status": "Implementation", "locationName": "Gabagaba"}}, {"type": "Feature", "geometry": {"type": "Point", "coordinates": [144.67662, -6.96503]}, "properties": {"id": "46004-44375-013-LN2978", "sectors": ["Transport"], "title": "MARITIME AND WATERWAYS SAFETY PROJECT(SF)", "status": "Implementation", "locationName": "Mount Faveng"}}, {"type": "Feature", "geometry": {"type": "Point", "coordinates": [147.11667, -9.46667]}, "properties": {"id": "46004-44375-013-LN2978", "sectors": ["Transport"], "title": "MARITIME AND WATERWAYS SAFETY PROJECT(SF)", "status": "Implementation", "locationName": "Esade Motu Motu"}}, {"type": "Feature", "geometry": {"type": "Point", "coordinates": [150.75692, -9.6871]}, "properties": {"id": "46004-44375-013-LN2978", "sectors": ["Transport"], "title": "MARITIME AND WATERWAYS SAFETY PROJECT(SF)", "status": "Implementation", "locationName": "Dawson Strait"}}, {"type": "Feature", "geometry": {"type": "Point", "coordinates": [147.26278, -9.50444]}, "properties": {"id": "46004-44375-013-LN2978", "sectors": ["Transport"], "title": "MARITIME AND WATERWAYS SAFETY PROJECT(SF)", "status": "Implementation", "locationName": "Bootless Inlet"}}, {"type": "Feature", "geometry": {"type": "Point", "coordinates": [142.36247, -3.15174]}, "properties": {"id": "46004-44375-013-LN2978", "sectors": ["Transport"], "title": "MARITIME AND WATERWAYS SAFETY PROJECT(SF)", "status": "Implementation", "locationName": "Aitape"}}, {"type": "Feature", "geometry": {"type": "Point", "coordinates": [147.6709, -10.08253]}, "properties": {"id": "46004-44375-013-LN2978", "sectors": ["Transport"], "title": "MARITIME AND WATERWAYS SAFETY PROJECT(SF)", "status": "Implementation", "locationName": "Wolverine Entrance"}}, {"type": "Feature", "geometry": {"type": "Point", "coordinates": [152.48735, -10.87066]}, "properties": {"id": "46004-44375-013-LN2978", "sectors": ["Transport"], "title": "MARITIME AND WATERWAYS SAFETY PROJECT(SF)", "status": "Implementation", "locationName": "South Passage"}}, {"type": "Feature", "geometry": {"type": "Point", "coordinates": [152.48606, -10.80987]}, "properties": {"id": "46004-44375-013-LN2978", "sectors": ["Transport"], "title": "MARITIME AND WATERWAYS SAFETY PROJECT(SF)", "status": "Implementation", "locationName": "Redlick Passage"}}, {"type": "Feature", "geometry": {"type": "Point", "coordinates": [152.38277, -11.03949]}, "properties": {"id": "46004-44375-013-LN2978", "sectors": ["Transport"], "title": "MARITIME AND WATERWAYS SAFETY PROJECT(SF)", "status": "Implementation", "locationName": "Rara Islet"}}, {"type": "Feature", "geometry": {"type": "Point", "coordinates": [152.39977, -10.77052]}, "properties": {"id": "46004-44375-013-LN2978", "sectors": ["Transport"], "title": "MARITIME AND WATERWAYS SAFETY PROJECT(SF)", "status": "Implementation", "locationName": "Panapompom Island"}}, {"type": "Feature", "geometry": {"type": "Point", "coordinates": [152.37169, -10.68271]}, "properties": {"id": "46004-44375-013-LN2978", "sectors": ["Transport"], "title": "MARITIME AND WATERWAYS SAFETY PROJECT(SF)", "status": "Implementation", "locationName": "Deboyne Island"}}, {"type": "Feature", "geometry": {"type": "Point", "coordinates": [152.39184, -10.79181]}, "properties": {"id": "46004-44375-013-LN2978", "sectors": ["Transport"], "title": "MARITIME AND WATERWAYS SAFETY PROJECT(SF)", "status": "Implementation", "locationName": "Nivani Island"}}, {"type": "Feature", "geometry": {"type": "Point", "coordinates": [152.72885, -10.67072]}, "properties": {"id": "46004-44375-013-LN2978", "sectors": ["Transport"], "title": "MARITIME AND WATERWAYS SAFETY PROJECT(SF)", "status": "Implementation", "locationName": "Misima Island"}}, {"type": "Feature", "geometry": {"type": "Point", "coordinates": [150.52381, -10.38026]}, "properties": {"id": "46004-44375-013-LN2978", "sectors": ["Transport"], "title": "MARITIME AND WATERWAYS SAFETY PROJECT(SF)", "status": "Implementation", "locationName": "Milne Bay"}}, {"type": "Feature", "geometry": {"type": "Point", "coordinates": [148.17414, -10.07842]}, "properties": {"id": "46004-44375-013-LN2978", "sectors": ["Transport"], "title": "MARITIME AND WATERWAYS SAFETY PROJECT(SF)", "status": "Implementation", "locationName": "McFarlane Harbour"}}, {"type": "Feature", "geometry": {"type": "Point", "coordinates": [148.20912, -10.0376]}, "properties": {"id": "46004-44375-013-LN2978", "sectors": ["Transport"], "title": "MARITIME AND WATERWAYS SAFETY PROJECT(SF)", "status": "Implementation", "locationName": "Marshall Lagoon"}}, {"type": "Feature", "geometry": {"type": "Point", "coordinates": [152.13795, -11.25528]}, "properties": {"id": "46004-44375-013-LN2978", "sectors": ["Transport"], "title": "MARITIME AND WATERWAYS SAFETY PROJECT(SF)", "status": "Implementation", "locationName": "Jomard Islands"}}, {"type": "Feature", "geometry": {"type": "Point", "coordinates": [152.40953, -10.80831]}, "properties": {"id": "46004-44375-013-LN2978", "sectors": ["Transport"], "title": "MARITIME AND WATERWAYS SAFETY PROJECT(SF)", "status": "Implementation", "locationName": "Deboyne Lagoon"}}, {"type": "Feature", "geometry": {"type": "Point", "coordinates": [151.79101, -10.76972]}, "properties": {"id": "46004-44375-013-LN2978", "sectors": ["Transport"], "title": "MARITIME AND WATERWAYS SAFETY PROJECT(SF)", "status": "Implementation", "locationName": "Conflict Group"}}, {"type": "Feature", "geometry": {"type": "Point", "coordinates": [150.68333, -10.58333]}, "properties": {"id": "46004-44375-013-LN2978", "sectors": ["Transport"], "title": "MARITIME AND WATERWAYS SAFETY PROJECT(SF)", "status": "Implementation", "locationName": "China Strait"}}, {"type": "Feature", "geometry": {"type": "Point", "coordinates": [148.0, -10.0]}, "properties": {"id": "46004-44375-013-LN2978", "sectors": ["Transport"], "title": "MARITIME AND WATERWAYS SAFETY PROJECT(SF)", "status": "Implementation", "locationName": "Central Province"}}, {"type": "Feature", "geometry": {"type": "Point", "coordinates": [148.79534, -10.24855]}, "properties": {"id": "46004-44375-013-LN2978", "sectors": ["Transport"], "title": "MARITIME AND WATERWAYS SAFETY PROJECT(SF)", "status": "Implementation", "locationName": "Buruma Point"}}, {"type": "Feature", "geometry": {"type": "Point", "coordinates": [149.60146, -10.36054]}, "properties": {"id": "46004-44375-013-LN2978", "sectors": ["Transport"], "title": "MARITIME AND WATERWAYS SAFETY PROJECT(SF)", "status": "Implementation", "locationName": "Baibara Island"}}, {"type": "Feature", "geometry": {"type": "Point", "coordinates": [147.93031, -10.25661]}, "properties": {"id": "46004-44375-013-LN2978", "sectors": ["Transport"], "title": "MARITIME AND WATERWAYS SAFETY PROJECT(SF)", "status": "Implementation", "locationName": "Aroma Passage"}}, {"type": "Feature", "geometry": {"type": "Point", "coordinates": [150.45742, -10.31509]}, "properties": {"id": "46004-44375-013-LN2978", "sectors": ["Transport"], "title": "MARITIME AND WATERWAYS SAFETY PROJECT(SF)", "status": "Implementation", "locationName": "Alotau"}}, {"type": "Feature", "geometry": {"type": "Point", "coordinates": [152.44451, -10.75681]}, "properties": {"id": "46004-44375-013-LN2978", "sectors": ["Transport"], "title": "MARITIME AND WATERWAYS SAFETY PROJECT(SF)", "status": "Implementation", "locationName": "Losai Island"}}, {"type": "Feature", "geometry": {"type": "Point", "coordinates": [152.43477, -10.84412]}, "properties": {"id": "46004-44375-013-LN2978", "sectors": ["Transport"], "title": "MARITIME AND WATERWAYS SAFETY PROJECT(SF)", "status": "Implementation", "locationName": "Nibub Passage"}}, {"type": "Feature", "geometry": {"type": "Point", "coordinates": [152.84616, -10.68745]}, "properties": {"id": "46004-44375-013-LN2978", "sectors": ["Transport"], "title": "MARITIME AND WATERWAYS SAFETY PROJECT(SF)", "status": "Implementation", "locationName": "Bwagaoia Harbour"}}, {"type": "Feature", "geometry": {"type": "Point", "coordinates": [152.37117, -10.82774]}, "properties": {"id": "46004-44375-013-LN2978", "sectors": ["Transport"], "title": "MARITIME AND WATERWAYS SAFETY PROJECT(SF)", "status": "Implementation", "locationName": "Nivani Passage"}}, {"type": "Feature", "geometry": {"type": "Point", "coordinates": [150.06101, -5.68119]}, "properties": {"id": "46004-44375-013-LN2978", "sectors": ["Transport"], "title": "MARITIME AND WATERWAYS SAFETY PROJECT(SF)", "status": "Implementation", "locationName": "Kimbe"}}, {"type": "Feature", "geometry": {"type": "Point", "coordinates": [145.7889, -5.23367]}, "properties": {"id": "46004-44375-013-LN2978", "sectors": ["Transport"], "title": "MARITIME AND WATERWAYS SAFETY PROJECT(SF)", "status": "Implementation", "locationName": "Madang"}}, {"type": "Feature", "geometry": {"type": "Point", "coordinates": [149.83008, -8.45896]}, "properties": {"id": "46004-44375-013-LN2978", "sectors": ["Transport"], "title": "MARITIME AND WATERWAYS SAFETY PROJECT(SF)", "status": "Implementation", "locationName": "Star Reefs"}}, {"type": "Feature", "geometry": {"type": "Point", "coordinates": [152.36821, -10.67784]}, "properties": {"id": "46004-44375-013-LN2978", "sectors": ["Transport"], "title": "MARITIME AND WATERWAYS SAFETY PROJECT(SF)", "status": "Implementation", "locationName": "Panaete Island"}}, {"type": "Feature", "geometry": {"type": "Point", "coordinates": [150.79029, -9.29089]}, "properties": {"id": "46004-44375-013-LN2978", "sectors": ["Transport"], "title": "MARITIME AND WATERWAYS SAFETY PROJECT(SF)", "status": "Implementation", "locationName": "Yabwaia Island"}}, {"type": "Feature", "geometry": {"type": "Point", "coordinates": [141.0088, -2.61192]}, "properties": {"id": "46004-44375-013-LN2978", "sectors": ["Transport"], "title": "MARITIME AND WATERWAYS SAFETY PROJECT(SF)", "status": "Implementation", "locationName": "Wutung"}}, {"type": "Feature", "geometry": {"type": "Point", "coordinates": [143.62678, -3.55342]}, "properties": {"id": "46004-44375-013-LN2978", "sectors": ["Transport"], "title": "MARITIME AND WATERWAYS SAFETY PROJECT(SF)", "status": "Implementation", "locationName": "Wewak"}}, {"type": "Feature", "geometry": {"type": "Point", "coordinates": [149.82605, -5.87833]}, "properties": {"id": "46004-44375-013-LN2978", "sectors": ["Transport"], "title": "MARITIME AND WATERWAYS SAFETY PROJECT(SF)", "status": "Implementation", "locationName": "West New Britain Province"}}, {"type": "Feature", "geometry": {"type": "Point", "coordinates": [147.13333, -9.46667]}, "properties": {"id": "46004-44375-013-LN2978", "sectors": ["Transport"], "title": "MARITIME AND WATERWAYS SAFETY PROJECT(SF)", "status": "Implementation", "locationName": "Vahunabada"}}, {"type": "Feature", "geometry": {"type": "Point", "coordinates": [152.16667, -4.23333]}, "properties": {"id": "46004-44375-013-LN2978", "sectors": ["Transport"], "title": "MARITIME AND WATERWAYS SAFETY PROJECT(SF)", "status": "Implementation", "locationName": "Simpson Harbour"}}, {"type": "Feature", "geometry": {"type": "Point", "coordinates": [145.8, -5.18333]}, "properties": {"id": "46004-44375-013-LN2978", "sectors": ["Transport"], "title": "MARITIME AND WATERWAYS SAFETY PROJECT(SF)", "status": "Implementation", "locationName": "Schlangen Island"}}, {"type": "Feature", "geometry": {"type": "Point", "coordinates": [147.50944, -9.85556]}, "properties": {"id": "46004-44375-013-LN2978", "sectors": ["Transport"], "title": "MARITIME AND WATERWAYS SAFETY PROJECT(SF)", "status": "Implementation", "locationName": "Round Point"}}, {"type": "Feature", "geometry": {"type": "Point", "coordinates": [152.17215, -4.19671]}, "properties": {"id": "46004-44375-013-LN2978", "sectors": ["Transport"], "title": "MARITIME AND WATERWAYS SAFETY PROJECT(SF)", "status": "Implementation", "locationName": "Rabaul"}}, {"type": "Feature", "geometry": {"type": "Point", "coordinates": [147.17972, -9.44314]}, "properties": {"id": "46004-44375-013-LN2978", "sectors": ["Transport"], "title": "MARITIME AND WATERWAYS SAFETY PROJECT(SF)", "status": "Implementation", "locationName": "Port Moresby"}}, {"type": "Feature", "geometry": {"type": "Point", "coordinates": [146.11956, -5.53786]}, "properties": {"id": "46004-44375-013-LN2978", "sectors": ["Transport"], "title": "MARITIME AND WATERWAYS SAFETY PROJECT(SF)", "status": "Implementation", "locationName": "Pommern Bay"}}, {"type": "Feature", "geometry": {"type": "Point", "coordinates": [145.81667, -5.16667]}, "properties": {"id": "46004-44375-013-LN2978", "sectors": ["Transport"], "title": "MARITIME AND WATERWAYS SAFETY PROJECT(SF)", "status": "Implementation", "locationName": "Panab Island"}}, {"type": "Feature", "geometry": {"type": "Point", "coordinates": [147.26695, -9.59995]}, "properties": {"id": "46004-44375-013-LN2978", "sectors": ["Transport"], "title": "MARITIME AND WATERWAYS SAFETY PROJECT(SF)", "status": "Implementation", "locationName": "Padana Nahua"}}, {"type": "Feature", "geometry": {"type": "Point", "coordinates": [155.0, -6.0]}, "properties": {"id": "46004-44375-013-LN2978", "sectors": ["Transport"], "title": "MARITIME AND WATERWAYS SAFETY PROJECT(SF)", "status": "Implementation", "locationName": "Bougainville"}}, {"type": "Feature", "geometry": {"type": "Point", "coordinates": [148.5, -9.0]}, "properties": {"id": "46004-44375-013-LN2978", "sectors": ["Transport"], "title": "MARITIME AND WATERWAYS SAFETY PROJECT(SF)", "status": "Implementation", "locationName": "Northern Province"}}, {"type": "Feature", "geometry": {"type": "Point", "coordinates": [151.5, -3.0]}, "properties": {"id": "46004-44375-013-LN2978", "sectors": ["Transport"], "title": "MARITIME AND WATERWAYS SAFETY PROJECT(SF)", "status": "Implementation", "locationName": "New Ireland"}}, {"type": "Feature", "geometry": {"type": "Point", "coordinates": [148.13326, -5.90804]}, "properties": {"id": "46004-44375-013-LN2978", "sectors": ["Transport"], "title": "MARITIME AND WATERWAYS SAFETY PROJECT(SF)", "status": "Implementation", "locationName": "Nesup Channel"}}, {"type": "Feature", "geometry": {"type": "Point", "coordinates": [151.01098, -8.73598]}, "properties": {"id": "46004-44375-013-LN2978", "sectors": ["Transport"], "title": "MARITIME AND WATERWAYS SAFETY PROJECT(SF)", "status": "Implementation", "locationName": "Muwo Island"}}, {"type": "Feature", "geometry": {"type": "Point", "coordinates": [152.18621, -4.24187]}, "properties": {"id": "46004-44375-013-LN2978", "sectors": ["Transport"], "title": "MARITIME AND WATERWAYS SAFETY PROJECT(SF)", "status": "Implementation", "locationName": "Matupit Island"}}, {"type": "Feature", "geometry": {"type": "Point", "coordinates": [145.5, -5.0]}, "properties": {"id": "46004-44375-013-LN2978", "sectors": ["Transport"], "title": "MARITIME AND WATERWAYS SAFETY PROJECT(SF)", "status": "Implementation", "locationName": "Madang Province"}}, {"type": "Feature", "geometry": {"type": "Point", "coordinates": [146.96092, -9.4675]}, "properties": {"id": "46004-44375-013-LN2978", "sectors": ["Transport"], "title": "MARITIME AND WATERWAYS SAFETY PROJECT(SF)", "status": "Implementation", "locationName": "Liljeblad Passage"}}, {"type": "Feature", "geometry": {"type": "Point", "coordinates": [146.98469, -6.72208]}, "properties": {"id": "46004-44375-013-LN2978", "sectors": ["Transport"], "title": "MARITIME AND WATERWAYS SAFETY PROJECT(SF)", "status": "Implementation", "locationName": "Lae"}}, {"type": "Feature", "geometry": {"type": "Point", "coordinates": [146.1, -5.51667]}, "properties": {"id": "46004-44375-013-LN2978", "sectors": ["Transport"], "title": "MARITIME AND WATERWAYS SAFETY PROJECT(SF)", "status": "Implementation", "locationName": "Kulilau"}}, {"type": "Feature", "geometry": {"type": "Point", "coordinates": [151.35165, -8.62015]}, "properties": {"id": "46004-44375-013-LN2978", "sectors": ["Transport"], "title": "MARITIME AND WATERWAYS SAFETY PROJECT(SF)", "status": "Implementation", "locationName": "Kitava Island"}}, {"type": "Feature", "geometry": {"type": "Point", "coordinates": [148.35442, -8.62836]}, "properties": {"id": "46004-44375-013-LN2978", "sectors": ["Transport"], "title": "MARITIME AND WATERWAYS SAFETY PROJECT(SF)", "status": "Implementation", "locationName": "Cape Killerton"}}, {"type": "Feature", "geometry": {"type": "Point", "coordinates": [147.47811, -9.5028]}, "properties": {"id": "46004-43197-013-LN2998", "sectors": ["Energy"], "title": "PORT MORESBY POWER GRID DEVELOPMENT PROJECT", "status": "Implementation", "locationName": "Sirinumu Dam"}}, {"type": "Feature", "geometry": {"type": "Point", "coordinates": [147.17972, -9.44314]}, "properties": {"id": "46004-43197-013-LN2998", "sectors": ["Energy"], "title": "PORT MORESBY POWER GRID DEVELOPMENT PROJECT", "status": "Implementation", "locationName": "Port Moresby"}}, {"type": "Feature", "geometry": {"type": "Point", "coordinates": [146.91976, -9.12269]}, "properties": {"id": "46004-43197-013-LN2998", "sectors": ["Energy"], "title": "PORT MORESBY POWER GRID DEVELOPMENT PROJECT", "status": "Implementation", "locationName": "Laloki River"}}, {"type": "Feature", "geometry": {"type": "Point", "coordinates": [147.19899, -9.49736]}, "properties": {"id": "46004-43197-013-LN2998", "sectors": ["Energy"], "title": "PORT MORESBY POWER GRID DEVELOPMENT PROJECT", "status": "Implementation", "locationName": "Kila Kila Number 1"}}, {"type": "Feature", "geometry": {"type": "Point", "coordinates": [147.27905, -9.13648]}, "properties": {"id": "46004-43197-013-LN2998", "sectors": ["Energy"], "title": "PORT MORESBY POWER GRID DEVELOPMENT PROJECT", "status": "Implementation", "locationName": "Hiri"}}, {"type": "Feature", "geometry": {"type": "Point", "coordinates": [147.47811, -9.5028]}, "properties": {"id": "46004-43197-013-LN2999", "sectors": ["Energy"], "title": "PORT MORESBY POWER GRID DEVELOPMENT PROJECT (SF)", "status": "Implementation", "locationName": "Sirinumu Dam"}}, {"type": "Feature", "geometry": {"type": "Point", "coordinates": [147.17972, -9.44314]}, "properties": {"id": "46004-43197-013-LN2999", "sectors": ["Energy"], "title": "PORT MORESBY POWER GRID DEVELOPMENT PROJECT (SF)", "status": "Implementation", "locationName": "Port Moresby"}}, {"type": "Feature", "geometry": {"type": "Point", "coordinates": [146.91976, -9.12269]}, "properties": {"id": "46004-43197-013-LN2999", "sectors": ["Energy"], "title": "PORT MORESBY POWER GRID DEVELOPMENT PROJECT (SF)", "status": "Implementation", "locationName": "Laloki River"}}, {"type": "Feature", "geometry": {"type": "Point", "coordinates": [147.19899, -9.49736]}, "properties": {"id": "46004-43197-013-LN2999", "sectors": ["Energy"], "title": "PORT MORESBY POWER GRID DEVELOPMENT PROJECT (SF)", "status": "Implementation", "locationName": "Kila Kila Number 1"}}, {"type": "Feature", "geometry": {"type": "Point", "coordinates": [147.27905, -9.13648]}, "properties": {"id": "46004-43197-013-LN2999", "sectors": ["Energy"], "title": "PORT MORESBY POWER GRID DEVELOPMENT PROJECT (SF)", "status": "Implementation", "locationName": "Hiri"}}, {"type": "Feature", "geometry": {"type": "Point", "coordinates": [147.0, -6.0]}, "properties": {"id": "46004-43141-043-LN3069 ", "sectors": ["Transport", "Information and communication technology"], "title": "MFF:CIVIL AVIATION DEVELOPMENT INVESTMENT PROGRAM - PROJECT 2", "status": "Implementation", "locationName": "Papua New Guinea"}}, {"type": "Feature", "geometry": {"type": "Point", "coordinates": [147.42417, -2.06194]}, "properties": {"id": "46004-43141-043-LN3069 ", "sectors": ["Transport", "Information and communication technology"], "title": "MFF:CIVIL AVIATION DEVELOPMENT INVESTMENT PROGRAM - PROJECT 2", "status": "Implementation", "locationName": "Momote Airport"}}, {"type": "Feature", "geometry": {"type": "Point", "coordinates": [145.39188, -6.08169]}, "properties": {"id": "46004-43141-043-LN3069 ", "sectors": ["Transport", "Information and communication technology"], "title": "MFF:CIVIL AVIATION DEVELOPMENT INVESTMENT PROGRAM - PROJECT 2", "status": "Implementation", "locationName": "Goroka Airport"}}, {"type": "Feature", "geometry": {"type": "Point", "coordinates": [154.673, -5.42232]}, "properties": {"id": "46004-43141-043-LN3069 ", "sectors": ["Transport", "Information and communication technology"], "title": "MFF:CIVIL AVIATION DEVELOPMENT INVESTMENT PROGRAM - PROJECT 2", "status": "Implementation", "locationName": "Buka Airport"}}, {"type": "Feature", "geometry": {"type": "Point", "coordinates": [144.97099, -6.02429]}, "properties": {"id": "46004-43141-043-LN3069 ", "sectors": ["Transport", "Information and communication technology"], "title": "MFF:CIVIL AVIATION DEVELOPMENT INVESTMENT PROGRAM - PROJECT 2", "status": "Implementation", "locationName": "Chimbu Airport"}}, {"type": "Feature", "geometry": {"type": "Point", "coordinates": [148.30901, -8.80454]}, "properties": {"id": "46004-43141-043-LN3069 ", "sectors": ["Transport", "Information and communication technology"], "title": "MFF:CIVIL AVIATION DEVELOPMENT INVESTMENT PROGRAM - PROJECT 2", "status": "Implementation", "locationName": "Popondetta Airport"}}, {"type": "Feature", "geometry": {"type": "Point", "coordinates": [141.302, -2.69717]}, "properties": {"id": "46004-43141-043-LN3069 ", "sectors": ["Transport", "Information and communication technology"], "title": "MFF:CIVIL AVIATION DEVELOPMENT INVESTMENT PROGRAM - PROJECT 2", "status": "Implementation", "locationName": "Vanimo Airport"}}, {"type": "Feature", "geometry": {"type": "Point", "coordinates": [147.0, -6.0]}, "properties": {"id": "46004-43141-043-LN3070", "sectors": ["Transport"], "title": "MFF:CIVIL AVIATION DEVELOPMENT INVESTMENT PROGRAM - PROJECT 2", "status": "Implementation", "locationName": "Papua New Guinea"}}, {"type": "Feature", "geometry": {"type": "Point", "coordinates": [147.42417, -2.06194]}, "properties": {"id": "46004-43141-043-LN3070", "sectors": ["Transport"], "title": "MFF:CIVIL AVIATION DEVELOPMENT INVESTMENT PROGRAM - PROJECT 2", "status": "Implementation", "locationName": "Momote Airport"}}, {"type": "Feature", "geometry": {"type": "Point", "coordinates": [145.39188, -6.08169]}, "properties": {"id": "46004-43141-043-LN3070", "sectors": ["Transport"], "title": "MFF:CIVIL AVIATION DEVELOPMENT INVESTMENT PROGRAM - PROJECT 2", "status": "Implementation", "locationName": "Goroka Airport"}}, {"type": "Feature", "geometry": {"type": "Point", "coordinates": [154.673, -5.42232]}, "properties": {"id": "46004-43141-043-LN3070", "sectors": ["Transport"], "title": "MFF:CIVIL AVIATION DEVELOPMENT INVESTMENT PROGRAM - PROJECT 2", "status": "Implementation", "locationName": "Buka Airport"}}, {"type": "Feature", "geometry": {"type": "Point", "coordinates": [144.97099, -6.02429]}, "properties": {"id": "46004-43141-043-LN3070", "sectors": ["Transport"], "title": "MFF:CIVIL AVIATION DEVELOPMENT INVESTMENT PROGRAM - PROJECT 2", "status": "Implementation", "locationName": "Chimbu Airport"}}, {"type": "Feature", "geometry": {"type": "Point", "coordinates": [148.30901, -8.80454]},