{"id": "TJ", "type": "FeatureCollection", "features": [{"type": "Feature", "geometry": {"type": "Point", "coordinates": [69.34843, 38.37137]}, "properties": {"id": "46004-42189-012-GRNT0124", "sectors": ["Energy"], "title": "NUREK 500 KV SWITCHYARD RECONSTRUCTION PROJECT", "status": "Implementation", "locationName": "Nurek Dam"}}, {"type": "Feature", "geometry": {"type": "Point", "coordinates": [69.70885, 38.71731]}, "properties": {"id": "46004-38236-022-GRNT0154", "sectors": ["Transport"], "title": "DUSHANBE-KYRGYZ BORDER ROAD REHABILITATION PROJ (P", "status": "Completion", "locationName": "Obigarm"}}, {"type": "Feature", "geometry": {"type": "Point", "coordinates": [70.67358, 39.10055]}, "properties": {"id": "46004-38236-022-GRNT0154", "sectors": ["Transport"], "title": "DUSHANBE-KYRGYZ BORDER ROAD REHABILITATION PROJ (P", "status": "Completion", "locationName": "Nimichi-Poy\u00ebn"}}, {"type": "Feature", "geometry": {"type": "Point", "coordinates": [70.15082, 39.01084]}, "properties": {"id": "46004-38236-022-GRNT0154", "sectors": ["Transport"], "title": "DUSHANBE-KYRGYZ BORDER ROAD REHABILITATION PROJ (P", "status": "Completion", "locationName": "Novobod"}}, {"type": "Feature", "geometry": {"type": "Point", "coordinates": [70.26273, 39.01079]}, "properties": {"id": "46004-38236-022-GRNT0154", "sectors": ["Transport"], "title": "DUSHANBE-KYRGYZ BORDER ROAD REHABILITATION PROJ (P", "status": "Completion", "locationName": "Kaznok"}}, {"type": "Feature", "geometry": {"type": "Point", "coordinates": [70.50538, 39.08611]}, "properties": {"id": "46004-38236-022-GRNT0154", "sectors": ["Transport"], "title": "DUSHANBE-KYRGYZ BORDER ROAD REHABILITATION PROJ (P", "status": "Completion", "locationName": "Kalanak"}}, {"type": "Feature", "geometry": {"type": "Point", "coordinates": [70.28867, 38.98381]}, "properties": {"id": "46004-38236-022-GRNT0154", "sectors": ["Transport"], "title": "DUSHANBE-KYRGYZ BORDER ROAD REHABILITATION PROJ (P", "status": "Completion", "locationName": "Kadara"}}, {"type": "Feature", "geometry": {"type": "Point", "coordinates": [68.77905, 38.53575]}, "properties": {"id": "46004-38236-022-GRNT0154", "sectors": ["Transport"], "title": "DUSHANBE-KYRGYZ BORDER ROAD REHABILITATION PROJ (P", "status": "Completion", "locationName": "Dushanbe"}}, {"type": "Feature", "geometry": {"type": "Point", "coordinates": [69.73692, 38.69331]}, "properties": {"id": "46004-38236-022-GRNT0154", "sectors": ["Transport"], "title": "DUSHANBE-KYRGYZ BORDER ROAD REHABILITATION PROJ (P", "status": "Completion", "locationName": "Roghun"}}, {"type": "Feature", "geometry": {"type": "Point", "coordinates": [70.8, 39.2]}, "properties": {"id": "46004-38236-022-GRNT0154", "sectors": ["Transport"], "title": "DUSHANBE-KYRGYZ BORDER ROAD REHABILITATION PROJ (P", "status": "Completion", "locationName": "Tojikobod District"}}, {"type": "Feature", "geometry": {"type": "Point", "coordinates": [69.77, 38.75]}, "properties": {"id": "46004-38236-022-GRNT0154", "sectors": ["Transport"], "title": "DUSHANBE-KYRGYZ BORDER ROAD REHABILITATION PROJ (P", "status": "Completion", "locationName": "Roghun District"}}, {"type": "Feature", "geometry": {"type": "Point", "coordinates": [70.35998, 39.23491]}, "properties": {"id": "46004-38236-022-GRNT0154", "sectors": ["Transport"], "title": "DUSHANBE-KYRGYZ BORDER ROAD REHABILITATION PROJ (P", "status": "Completion", "locationName": "Nohiyai Rasht"}}, {"type": "Feature", "geometry": {"type": "Point", "coordinates": [70.08629, 38.87272]}, "properties": {"id": "46004-38236-022-GRNT0154", "sectors": ["Transport"], "title": "DUSHANBE-KYRGYZ BORDER ROAD REHABILITATION PROJ (P", "status": "Completion", "locationName": "Nohiyai Nurobod"}}, {"type": "Feature", "geometry": {"type": "Point", "coordinates": [68.58544, 38.35096]}, "properties": {"id": "46004-38236-022-GRNT0154", "sectors": ["Transport"], "title": "DUSHANBE-KYRGYZ BORDER ROAD REHABILITATION PROJ (P", "status": "Completion", "locationName": "Nohiyai R\u016bdak\u00ed"}}, {"type": "Feature", "geometry": {"type": "Point", "coordinates": [71.0, 39.0]}, "properties": {"id": "46004-43150-022-GRNT0213", "sectors": ["Energy"], "title": "REGIONAL POWER TRANSMISSION PROJECT", "status": "Implementation", "locationName": "Tajikistan"}}, {"type": "Feature", "geometry": {"type": "Point", "coordinates": [68.13849, 37.26206]}, "properties": {"id": "46004-43150-022-GRNT0213", "sectors": ["Energy"], "title": "REGIONAL POWER TRANSMISSION PROJECT", "status": "Implementation", "locationName": "Shahritus"}}, {"type": "Feature", "geometry": {"type": "Point", "coordinates": [68.235, 38.50417]}, "properties": {"id": "46004-43150-022-GRNT0213", "sectors": ["Energy"], "title": "REGIONAL POWER TRANSMISSION PROJECT", "status": "Implementation", "locationName": "Regor"}}, {"type": "Feature", "geometry": {"type": "Point", "coordinates": [69.13209, 38.29432]}, "properties": {"id": "46004-43150-022-GRNT0213", "sectors": ["Energy"], "title": "REGIONAL POWER TRANSMISSION PROJECT", "status": "Implementation", "locationName": "Pastakon"}}, {"type": "Feature", "geometry": {"type": "Point", "coordinates": [68.55975, 37.41763]}, "properties": {"id": "46004-43150-022-GRNT0213", "sectors": ["Energy"], "title": "REGIONAL POWER TRANSMISSION PROJECT", "status": "Implementation", "locationName": "Yakkadin"}}, {"type": "Feature", "geometry": {"type": "Point", "coordinates": [68.53106, 37.49167]}, "properties": {"id": "46004-43150-022-GRNT0213", "sectors": ["Energy"], "title": "REGIONAL POWER TRANSMISSION PROJECT", "status": "Implementation", "locationName": "Jilik\u016dl"}}, {"type": "Feature", "geometry": {"type": "Point", "coordinates": [68.66398, 37.34812]}, "properties": {"id": "46004-43150-022-GRNT0213", "sectors": ["Energy"], "title": "REGIONAL POWER TRANSMISSION PROJECT", "status": "Implementation", "locationName": "D\u016dst\u00ed"}}, {"type": "Feature", "geometry": {"type": "Point", "coordinates": [68.71443, 37.33594]}, "properties": {"id": "46004-43150-022-GRNT0213", "sectors": ["Energy"], "title": "REGIONAL POWER TRANSMISSION PROJECT", "status": "Implementation", "locationName": "Pervoye Maya"}}, {"type": "Feature", "geometry": {"type": "Point", "coordinates": [68.61773, 37.41037]}, "properties": {"id": "46004-43150-022-GRNT0213", "sectors": ["Energy"], "title": "REGIONAL POWER TRANSMISSION PROJECT", "status": "Implementation", "locationName": "Tel\u2019man"}}, {"type": "Feature", "geometry": {"type": "Point", "coordinates": [68.24005, 37.4724]}, "properties": {"id": "46004-43150-022-GRNT0213", "sectors": ["Energy"], "title": "REGIONAL POWER TRANSMISSION PROJECT", "status": "Implementation", "locationName": "Sovetobod"}}, {"type": "Feature", "geometry": {"type": "Point", "coordinates": [69.79585, 40.26598]}, "properties": {"id": "46004-43150-022-GRNT0213", "sectors": ["Energy"], "title": "REGIONAL POWER TRANSMISSION PROJECT", "status": "Implementation", "locationName": "Qayroqqum"}}, {"type": "Feature", "geometry": {"type": "Point", "coordinates": [70.3502, 40.66992]}, "properties": {"id": "46004-43150-022-GRNT0213", "sectors": ["Energy"], "title": "REGIONAL POWER TRANSMISSION PROJECT", "status": "Implementation", "locationName": "Shaydon"}}, {"type": "Feature", "geometry": {"type": "Point", "coordinates": [69.74396, 40.42716]}, "properties": {"id": "46004-43150-022-GRNT0213", "sectors": ["Energy"], "title": "REGIONAL POWER TRANSMISSION PROJECT", "status": "Implementation", "locationName": "Ghafurov District"}}, {"type": "Feature", "geometry": {"type": "Point", "coordinates": [70.3502, 40.69364]}, "properties": {"id": "46004-43150-022-GRNT0213", "sectors": ["Energy"], "title": "REGIONAL POWER TRANSMISSION PROJECT", "status": "Implementation", "locationName": "Nohiyai Asht"}}, {"type": "Feature", "geometry": {"type": "Point", "coordinates": [68.26299, 37.49623]}, "properties": {"id": "46004-43150-022-GRNT0213", "sectors": ["Energy"], "title": "REGIONAL POWER TRANSMISSION PROJECT", "status": "Implementation", "locationName": "Qabodiyon District"}}, {"type": "Feature", "geometry": {"type": "Point", "coordinates": [68.70115, 37.36052]}, "properties": {"id": "46004-43150-022-GRNT0213", "sectors": ["Energy"], "title": "REGIONAL POWER TRANSMISSION PROJECT", "status": "Implementation", "locationName": "Qumsangir District"}}, {"type": "Feature", "geometry": {"type": "Point", "coordinates": [68.47444, 37.55438]}, "properties": {"id": "46004-43150-022-GRNT0213", "sectors": ["Energy"], "title": "REGIONAL POWER TRANSMISSION PROJECT", "status": "Implementation", "locationName": "Jilikul District"}}, {"type": "Feature", "geometry": {"type": "Point", "coordinates": [68.48479, 37.5529]}, "properties": {"id": "46004-43150-022-GRNT0213", "sectors": ["Energy"], "title": "REGIONAL POWER TRANSMISSION PROJECT", "status": "Implementation", "locationName": "Nuri Vakhsh"}}, {"type": "Feature", "geometry": {"type": "Point", "coordinates": [69.70885, 38.71731]}, "properties": {"id": "46004-38236-022-LN2196", "sectors": ["Transport"], "title": "DUSHANBE-KYRGYZ BORDER ROAD REHABILITATION PROJECT-PHASE II(TAJ)", "status": "Completion", "locationName": "Obigarm"}}, {"type": "Feature", "geometry": {"type": "Point", "coordinates": [70.67358, 39.10055]}, "properties": {"id": "46004-38236-022-LN2196", "sectors": ["Transport"], "title": "DUSHANBE-KYRGYZ BORDER ROAD REHABILITATION PROJECT-PHASE II(TAJ)", "status": "Completion", "locationName": "Nimichi-Poy\u00ebn"}}, {"type": "Feature", "geometry": {"type": "Point", "coordinates": [70.15082, 39.01084]}, "properties": {"id": "46004-38236-022-LN2196", "sectors": ["Transport"], "title": "DUSHANBE-KYRGYZ BORDER ROAD REHABILITATION PROJECT-PHASE II(TAJ)", "status": "Completion", "locationName": "Novobod"}}, {"type": "Feature", "geometry": {"type": "Point", "coordinates": [70.26273, 39.01079]}, "properties": {"id": "46004-38236-022-LN2196", "sectors": ["Transport"], "title": "DUSHANBE-KYRGYZ BORDER ROAD REHABILITATION PROJECT-PHASE II(TAJ)", "status": "Completion", "locationName": "Kaznok"}}, {"type": "Feature", "geometry": {"type": "Point", "coordinates": [70.50538, 39.08611]}, "properties": {"id": "46004-38236-022-LN2196", "sectors": ["Transport"], "title": "DUSHANBE-KYRGYZ BORDER ROAD REHABILITATION PROJECT-PHASE II(TAJ)", "status": "Completion", "locationName": "Kalanak"}}, {"type": "Feature", "geometry": {"type": "Point", "coordinates": [70.28867, 38.98381]}, "properties": {"id": "46004-38236-022-LN2196", "sectors": ["Transport"], "title": "DUSHANBE-KYRGYZ BORDER ROAD REHABILITATION PROJECT-PHASE II(TAJ)", "status": "Completion", "locationName": "Kadara"}}, {"type": "Feature", "geometry": {"type": "Point", "coordinates": [68.77905, 38.53575]}, "properties": {"id": "46004-38236-022-LN2196", "sectors": ["Transport"], "title": "DUSHANBE-KYRGYZ BORDER ROAD REHABILITATION PROJECT-PHASE II(TAJ)", "status": "Completion", "locationName": "Dushanbe"}}, {"type": "Feature", "geometry": {"type": "Point", "coordinates": [69.73692, 38.69331]}, "properties": {"id": "46004-38236-022-LN2196", "sectors": ["Transport"], "title": "DUSHANBE-KYRGYZ BORDER ROAD REHABILITATION PROJECT-PHASE II(TAJ)", "status": "Completion", "locationName": "Roghun"}}, {"type": "Feature", "geometry": {"type": "Point", "coordinates": [70.8, 39.2]}, "properties": {"id": "46004-38236-022-LN2196", "sectors": ["Transport"], "title": "DUSHANBE-KYRGYZ BORDER ROAD REHABILITATION PROJECT-PHASE II(TAJ)", "status": "Completion", "locationName": "Tojikobod District"}}, {"type": "Feature", "geometry": {"type": "Point", "coordinates": [69.77, 38.75]}, "properties": {"id": "46004-38236-022-LN2196", "sectors": ["Transport"], "title": "DUSHANBE-KYRGYZ BORDER ROAD REHABILITATION PROJECT-PHASE II(TAJ)", "status": "Completion", "locationName": "Roghun District"}}, {"type": "Feature", "geometry": {"type": "Point", "coordinates": [70.35998, 39.23491]}, "properties": {"id": "46004-38236-022-LN2196", "sectors": ["Transport"], "title": "DUSHANBE-KYRGYZ BORDER ROAD REHABILITATION PROJECT-PHASE II(TAJ)", "status": "Completion", "locationName": "Nohiyai Rasht"}}, {"type": "Feature", "geometry": {"type": "Point", "coordinates": [70.08629, 38.87272]}, "properties": {"id": "46004-38236-022-LN2196", "sectors": ["Transport"], "title": "DUSHANBE-KYRGYZ BORDER ROAD REHABILITATION PROJECT-PHASE II(TAJ)", "status": "Completion", "locationName": "Nohiyai Nurobod"}}, {"type": "Feature", "geometry": {"type": "Point", "coordinates": [68.58544, 38.35096]}, "properties": {"id": "46004-38236-022-LN2196", "sectors": ["Transport"], "title": "DUSHANBE-KYRGYZ BORDER ROAD REHABILITATION PROJECT-PHASE II(TAJ)", "status": "Completion", "locationName": "Nohiyai R\u016bdak\u00ed"}}, {"type": "Feature", "geometry": {"type": "Point", "coordinates": [69.70885, 38.71731]}, "properties": {"id": "46004-38236-022-GRNT0023", "sectors": ["Health"], "title": "HIV/AIDS AND MIGRATION (ADF)", "status": "Completion", "locationName": "Obigarm"}}, {"type": "Feature", "geometry": {"type": "Point", "coordinates": [70.67358, 39.10055]}, "properties": {"id": "46004-38236-022-GRNT0023", "sectors": ["Health"], "title": "HIV/AIDS AND MIGRATION (ADF)", "status": "Completion", "locationName": "Nimichi-Poy\u00ebn"}}, {"type": "Feature", "geometry": {"type": "Point", "coordinates": [70.15082, 39.01084]}, "properties": {"id": "46004-38236-022-GRNT0023", "sectors": ["Health"], "title": "HIV/AIDS AND MIGRATION (ADF)", "status": "Completion", "locationName": "Novobod"}}, {"type": "Feature", "geometry": {"type": "Point", "coordinates": [70.26273, 39.01079]}, "properties": {"id": "46004-38236-022-GRNT0023", "sectors": ["Health"], "title": "HIV/AIDS AND MIGRATION (ADF)", "status": "Completion", "locationName": "Kaznok"}}, {"type": "Feature", "geometry": {"type": "Point", "coordinates": [70.50538, 39.08611]}, "properties": {"id": "46004-38236-022-GRNT0023", "sectors": ["Health"], "title": "HIV/AIDS AND MIGRATION (ADF)", "status": "Completion", "locationName": "Kalanak"}}, {"type": "Feature", "geometry": {"type": "Point", "coordinates": [70.28867, 38.98381]}, "properties": {"id": "46004-38236-022-GRNT0023", "sectors": ["Health"], "title": "HIV/AIDS AND MIGRATION (ADF)", "status": "Completion", "locationName": "Kadara"}}, {"type": "Feature", "geometry": {"type": "Point", "coordinates": [68.77905, 38.53575]}, "properties": {"id": "46004-38236-022-GRNT0023", "sectors": ["Health"], "title": "HIV/AIDS AND MIGRATION (ADF)", "status": "Completion", "locationName": "Dushanbe"}}, {"type": "Feature", "geometry": {"type": "Point", "coordinates": [69.73692, 38.69331]}, "properties": {"id": "46004-38236-022-GRNT0023", "sectors": ["Health"], "title": "HIV/AIDS AND MIGRATION (ADF)", "status": "Completion", "locationName": "Roghun"}}, {"type": "Feature", "geometry": {"type": "Point", "coordinates": [70.8, 39.2]}, "properties": {"id": "46004-38236-022-GRNT0023", "sectors": ["Health"], "title": "HIV/AIDS AND MIGRATION (ADF)", "status": "Completion", "locationName": "Tojikobod District"}}, {"type": "Feature", "geometry": {"type": "Point", "coordinates": [69.77, 38.75]}, "properties": {"id": "46004-38236-022-GRNT0023", "sectors": ["Health"], "title": "HIV/AIDS AND MIGRATION (ADF)", "status": "Completion", "locationName": "Roghun District"}}, {"type": "Feature", "geometry": {"type": "Point", "coordinates": [70.35998, 39.23491]}, "properties": {"id": "46004-38236-022-GRNT0023", "sectors": ["Health"], "title": "HIV/AIDS AND MIGRATION (ADF)", "status": "Completion", "locationName": "Nohiyai Rasht"}}, {"type": "Feature", "geometry": {"type": "Point", "coordinates": [70.08629, 38.87272]}, "properties": {"id": "46004-38236-022-GRNT0023", "sectors": ["Health"], "title": "HIV/AIDS AND MIGRATION (ADF)", "status": "Completion", "locationName": "Nohiyai Nurobod"}}, {"type": "Feature", "geometry": {"type": "Point", "coordinates": [68.58544, 38.35096]}, "properties": {"id": "46004-38236-022-GRNT0023", "sectors": ["Health"], "title": "HIV/AIDS AND MIGRATION (ADF)", "status": "Completion", "locationName": "Nohiyai R\u016bdak\u00ed"}}, {"type": "Feature", "geometry": {"type": "Point", "coordinates": [68.61126, 37.19041]}, "properties": {"id": "46004-40043-013-LN2303", "sectors": ["Energy"], "title": "REGIONAL POWR TRANSMISSION INTERCONNECTION PROJ (TAJIK COMPONENT)", "status": "Completion", "locationName": "Qizil Qal\u2018ah"}}, {"type": "Feature", "geometry": {"type": "Point", "coordinates": [68.857, 36.72896]}, "properties": {"id": "46004-40043-013-LN2303", "sectors": ["Energy"], "title": "REGIONAL POWR TRANSMISSION INTERCONNECTION PROJ (TAJIK COMPONENT)", "status": "Completion", "locationName": "Kunduz"}}, {"type": "Feature", "geometry": {"type": "Point", "coordinates": [68.64001, 36.00118]}, "properties": {"id": "46004-40043-013-LN2303", "sectors": ["Energy"], "title": "REGIONAL POWR TRANSMISSION INTERCONNECTION PROJ (TAJIK COMPONENT)", "status": "Completion", "locationName": "Puli Khumri"}}, {"type": "Feature", "geometry": {"type": "Point", "coordinates": [69.33333, 38.83333]}, "properties": {"id": "46004-37530-013-LN2313", "sectors": ["Finance"], "title": "RURAL DEVELOPMENT PROJECT", "status": "Implementation", "locationName": "Vahdat"}}, {"type": "Feature", "geometry": {"type": "Point", "coordinates": [69.77, 38.75]}, "properties": {"id": "46004-37530-013-LN2313", "sectors": ["Finance"], "title": "RURAL DEVELOPMENT PROJECT", "status": "Implementation", "locationName": "Roghun District"}}, {"type": "Feature", "geometry": {"type": "Point", "coordinates": [68.75, 38.75]}, "properties": {"id": "46004-37530-013-LN2313", "sectors": ["Finance"], "title": "RURAL DEVELOPMENT PROJECT", "status": "Implementation", "locationName": "Varzob District"}}, {"type": "Feature", "geometry": {"type": "Point", "coordinates": [68.58544, 38.35096]}, "properties": {"id": "46004-37530-013-LN2313", "sectors": ["Finance"], "title": "RURAL DEVELOPMENT PROJECT", "status": "Implementation", "locationName": "Nohiyai R\u016bdak\u00ed"}}, {"type": "Feature", "geometry": {"type": "Point", "coordinates": [69.3167, 38.55]}, "properties": {"id": "46004-37530-013-LN2313", "sectors": ["Finance"], "title": "RURAL DEVELOPMENT PROJECT", "status": "Implementation", "locationName": "Faizobod District"}}, {"type": "Feature", "geometry": {"type": "Point", "coordinates": [69.56667, 37.7747]}, "properties": {"id": "46004-40046-013-LN2356", "sectors": ["Agriculture, natural resources and rural development"], "title": "KHATLON PROVINCE FLOOD RISK MANAGEMENT PROJECT", "status": "Completion", "locationName": "Yokhsu"}}, {"type": "Feature", "geometry": {"type": "Point", "coordinates": [70.64424, 38.77634]}, "properties": {"id": "46004-40046-013-LN2356", "sectors": ["Agriculture, natural resources and rural development"], "title": "KHATLON PROVINCE FLOOD RISK MANAGEMENT PROJECT", "status": "Completion", "locationName": "Sayod"}}, {"type": "Feature", "geometry": {"type": "Point", "coordinates": [69.41456, 37.65191]}, "properties": {"id": "46004-40046-013-LN2356", "sectors": ["Agriculture, natural resources and rural development"], "title": "KHATLON PROVINCE FLOOD RISK MANAGEMENT PROJECT", "status": "Completion", "locationName": "Somonch\u00ed"}}, {"type": "Feature", "geometry": {"type": "Point", "coordinates": [69.55488, 37.7788]}, "properties": {"id": "46004-40046-013-LN2356", "sectors": ["Agriculture, natural resources and rural development"], "title": "KHATLON PROVINCE FLOOD RISK MANAGEMENT PROJECT", "status": "Completion", "locationName": "Qurbonshahid"}}, {"type": "Feature", "geometry": {"type": "Point", "coordinates": [69.56057, 37.61293]}, "properties": {"id": "46004-40046-013-LN2356", "sectors": ["Agriculture, natural resources and rural development"], "title": "KHATLON PROVINCE FLOOD RISK MANAGEMENT PROJECT", "status": "Completion", "locationName": "Metint\u016dqay"}}, {"type": "Feature", "geometry": {"type": "Point", "coordinates": [69.62226, 37.92785]}, "properties": {"id": "46004-40046-013-LN2356", "sectors": ["Agriculture, natural resources and rural development"], "title": "KHATLON PROVINCE FLOOD RISK MANAGEMENT PROJECT", "status": "Completion", "locationName": "Vose' District"}}, {"type": "Feature", "geometry": {"type": "Point", "coordinates": [69.8086, 38.01318]}, "properties": {"id": "46004-40046-013-LN2356", "sectors": ["Agriculture, natural resources and rural development"], "title": "KHATLON PROVINCE FLOOD RISK MANAGEMENT PROJECT", "status": "Completion", "locationName": "Kulob District"}}, {"type": "Feature", "geometry": {"type": "Point", "coordinates": [69.33277, 37.52526]}, "properties": {"id": "46004-40046-013-LN2356", "sectors": ["Agriculture, natural resources and rural development"], "title": "KHATLON PROVINCE FLOOD RISK MANAGEMENT PROJECT", "status": "Completion", "locationName": "Farkhor District"}}, {"type": "Feature", "geometry": {"type": "Point", "coordinates": [72.6615, 37.0176]}, "properties": {"id": "46004-40046-013-LN2356", "sectors": ["Agriculture, natural resources and rural development"], "title": "KHATLON PROVINCE FLOOD RISK MANAGEMENT PROJECT", "status": "Completion", "locationName": "Pyanj River"}}, {"type": "Feature", "geometry": {"type": "Point", "coordinates": [71.0, 39.0]}, "properties": {"id": "46004-39676-023-LN2359", "sectors": ["Transport"], "title": "CAREC REGIONAL ROAD CORRIDOR IMPROVEMENT PROJECT", "status": "Completion", "locationName": "Tajikistan"}}, {"type": "Feature", "geometry": {"type": "Point", "coordinates": [70.67358, 39.10055]}, "properties": {"id": "46004-39676-023-LN2359", "sectors": ["Transport"], "title": "CAREC REGIONAL ROAD CORRIDOR IMPROVEMENT PROJECT", "status": "Completion", "locationName": "Nimichi-Poy\u00ebn"}}, {"type": "Feature", "geometry": {"type": "Point", "coordinates": [71.19155, 39.21966]}, "properties": {"id": "46004-39676-023-LN2359", "sectors": ["Transport"], "title": "CAREC REGIONAL ROAD CORRIDOR IMPROVEMENT PROJECT", "status": "Completion", "locationName": "Jirghatol"}}, {"type": "Feature", "geometry": {"type": "Point", "coordinates": [68.77905, 38.53575]}, "properties": {"id": "46004-39676-023-LN2359", "sectors": ["Transport"], "title": "CAREC REGIONAL ROAD CORRIDOR IMPROVEMENT PROJECT", "status": "Completion", "locationName": "Dushanbe"}}, {"type": "Feature", "geometry": {"type": "Point", "coordinates": [73.24836, 39.72883]}, "properties": {"id": "46004-39676-023-LN2359", "sectors": ["Transport"], "title": "CAREC REGIONAL ROAD CORRIDOR IMPROVEMENT PROJECT", "status": "Completion", "locationName": "Sary-Tash"}}, {"type": "Feature", "geometry": {"type": "Point", "coordinates": [73.89872, 39.67925]}, "properties": {"id": "46004-39676-023-LN2359", "sectors": ["Transport"], "title": "CAREC REGIONAL ROAD CORRIDOR IMPROVEMENT PROJECT", "status": "Completion", "locationName": "Irkeshtam"}}, {"type": "Feature", "geometry": {"type": "Point", "coordinates": [72.20518, 39.55274]}, "properties": {"id": "46004-39676-023-LN2359", "sectors": ["Transport"], "title": "CAREC REGIONAL ROAD CORRIDOR IMPROVEMENT PROJECT", "status": "Completion", "locationName": "Daroot-Korgon"}}, {"type": "Feature", "geometry": {"type": "Point", "coordinates": [75.0, 41.5]}, "properties": {"id": "46004-39676-023-LN2359", "sectors": ["Transport"], "title": "CAREC REGIONAL ROAD CORRIDOR IMPROVEMENT PROJECT", "status": "Completion", "locationName": "Kyrgyzstan"}}, {"type": "Feature", "geometry": {"type": "Point", "coordinates": [105.0, 35.0]}, "properties": {"id": "46004-39676-023-LN2359", "sectors": ["Transport"], "title": "CAREC REGIONAL ROAD CORRIDOR IMPROVEMENT PROJECT", "status": "Completion", "locationName": "China"}}, {"type": "Feature", "geometry": {"type": "Point", "coordinates": [70.35998, 39.23491]}, "properties": {"id": "46004-39676-023-LN2359", "sectors": ["Transport"], "title": "CAREC REGIONAL ROAD CORRIDOR IMPROVEMENT PROJECT", "status": "Completion", "locationName": "Nohiyai Rasht"}}, {"type": "Feature", "geometry": {"type": "Point", "coordinates": [71.57632, 39.291]}, "properties": {"id": "46004-39676-023-LN2359", "sectors": ["Transport"], "title": "CAREC REGIONAL ROAD CORRIDOR IMPROVEMENT PROJECT", "status": "Completion", "locationName": "Nohiyai Jirghatol"}}, {"type": "Feature", "geometry": {"type": "Point", "coordinates": [71.79254, 39.48564]}, "properties": {"id": "46004-39676-023-LN2359", "sectors": ["Transport"], "title": "CAREC REGIONAL ROAD CORRIDOR IMPROVEMENT PROJECT", "status": "Completion", "locationName": "Karamyk"}}, {"type": "Feature", "geometry": {"type": "Point", "coordinates": [73.55941, 39.85862]}, "properties": {"id": "46004-39676-023-LN2359", "sectors": ["Transport"], "title": "CAREC REGIONAL ROAD CORRIDOR IMPROVEMENT PROJECT", "status": "Completion", "locationName": "Alay District"}}, {"type": "Feature", "geometry": {"type": "Point", "coordinates": [72.2001, 39.552]}, "properties": {"id": "46004-39676-023-LN2359", "sectors": ["Transport"], "title": "CAREC REGIONAL ROAD CORRIDOR IMPROVEMENT PROJECT", "status": "Completion", "locationName": "Chong-Alay"}}, {"type": "Feature", "geometry": {"type": "Point", "coordinates": [68.16667, 38.58333]}, "properties": {"id": "46004-42052-022-GRNT0245", "sectors": ["Transport"], "title": "CAREC CORRIDOR 3(DUSHANBE-UZBEKISTAN BORDER)IMPROV", "status": "Implementation", "locationName": "Tursunzoda District"}}, {"type": "Feature", "geometry": {"type": "Point", "coordinates": [71.0, 39.0]}, "properties": {"id": "46004-42052-022-GRNT0245", "sectors": ["Transport"], "title": "CAREC CORRIDOR 3(DUSHANBE-UZBEKISTAN BORDER)IMPROV", "status": "Implementation", "locationName": "Tajikistan"}}, {"type": "Feature", "geometry": {"type": "Point", "coordinates": [68.77905, 38.53575]}, "properties": {"id": "46004-42052-022-GRNT0245", "sectors": ["Transport"], "title": "CAREC CORRIDOR 3(DUSHANBE-UZBEKISTAN BORDER)IMPROV", "status": "Implementation", "locationName": "Dushanbe"}}, {"type": "Feature", "geometry": {"type": "Point", "coordinates": [68.23163, 38.51271]}, "properties": {"id": "46004-42052-022-GRNT0245", "sectors": ["Transport"], "title": "CAREC CORRIDOR 3(DUSHANBE-UZBEKISTAN BORDER)IMPROV", "status": "Implementation", "locationName": "Tursunzoda"}}, {"type": "Feature", "geometry": {"type": "Point", "coordinates": [68.77974, 38.5577]}, "properties": {"id": "46004-42052-022-GRNT0245", "sectors": ["Transport"], "title": "CAREC CORRIDOR 3(DUSHANBE-UZBEKISTAN BORDER)IMPROV", "status": "Implementation", "locationName": "Dushanbe"}}, {"type": "Feature", "geometry": {"type": "Point", "coordinates": [68.42, 38.7]}, "properties": {"id": "46004-42052-022-GRNT0245", "sectors": ["Transport"], "title": "CAREC CORRIDOR 3(DUSHANBE-UZBEKISTAN BORDER)IMPROV", "status": "Implementation", "locationName": "Shahrinaw District"}}, {"type": "Feature", "geometry": {"type": "Point", "coordinates": [68.50698, 38.66909]}, "properties": {"id": "46004-42052-022-GRNT0245", "sectors": ["Transport"], "title": "CAREC CORRIDOR 3(DUSHANBE-UZBEKISTAN BORDER)IMPROV", "status": "Implementation", "locationName": "Nohiyai Hisor"}}, {"type": "Feature", "geometry": {"type": "Point", "coordinates": [68.58544, 38.35096]}, "properties": {"id": "46004-42052-022-GRNT0245", "sectors": ["Transport"], "title": "CAREC CORRIDOR 3(DUSHANBE-UZBEKISTAN BORDER)IMPROV", "status": "Implementation", "locationName": "Nohiyai R\u016bdak\u00ed"}}, {"type": "Feature", "geometry": {"type": "Point", "coordinates": [71.0, 39.0]}, "properties": {"id": "46004-44061-012-GRNT0251", "sectors": ["Public sector management"], "title": "STRENGTHENING PUBLIC RESOURCE MANAGEMENT PROGRAM", "status": "Completion", "locationName": "Tajikistan"}}, {"type": "Feature", "geometry": {"type": "Point", "coordinates": [67.60931, 39.49524]}, "properties": {"id": "46004-45432-002-GRNT0301", "sectors": ["Transport"], "title": "CAREC CORRIDOR 6 (AYNI-UZBEKISTAN BORDER ROAD) IMP", "status": "Implementation", "locationName": "Panjakent"}}, {"type": "Feature", "geometry": {"type": "Point", "coordinates": [68.51182, 39.41831]}, "properties": {"id": "46004-45432-002-GRNT0301", "sectors": ["Transport"], "title": "CAREC CORRIDOR 6 (AYNI-UZBEKISTAN BORDER ROAD) IMP", "status": "Implementation", "locationName": "Khushikat"}}, {"type": "Feature", "geometry": {"type": "Point", "coordinates": [68.53766, 39.39406]}, "properties": {"id": "46004-45432-002-GRNT0301", "sectors": ["Transport"], "title": "CAREC CORRIDOR 6 (AYNI-UZBEKISTAN BORDER ROAD) IMP", "status": "Implementation", "locationName": "Ayn\u00ed"}}, {"type": "Feature", "geometry": {"type": "Point", "coordinates": [68.78884, 39.29536]}, "properties": {"id": "46004-45432-002-GRNT0301", "sectors": ["Transport"], "title": "CAREC CORRIDOR 6 (AYNI-UZBEKISTAN BORDER ROAD) IMP", "status": "Implementation", "locationName": "Aini District"}}, {"type": "Feature", "geometry": {"type": "Point", "coordinates": [67.79159, 39.37452]}, "properties": {"id": "46004-45432-002-GRNT0301", "sectors": ["Transport"], "title": "CAREC CORRIDOR 6 (AYNI-UZBEKISTAN BORDER ROAD) IMP", "status": "Implementation", "locationName": "Panjakent District"}}, {"type": "Feature", "geometry": {"type": "Point", "coordinates": [67.56667, 39.51667]}, "properties": {"id": "46004-45432-002-GRNT0301", "sectors": ["Transport"], "title": "CAREC CORRIDOR 6 (AYNI-UZBEKISTAN BORDER ROAD) IMP", "status": "Implementation", "locationName": "Sarazm"}}, {"type": "Feature", "geometry": {"type": "Point", "coordinates": [71.79254, 39.48564]}, "properties": {"id": "46004-46124-001-GRNT0341", "sectors": ["Finance"], "title": "CAREC REGIONAL IMPROVEMENT OF BORDER SERVICES PROJ", "status": "Implementation", "locationName": "Karamyk"}}, {"type": "Feature", "geometry": {"type": "Point", "coordinates": [70.7265, 40.12238]}, "properties": {"id": "46004-46124-001-GRNT0341", "sectors": ["Finance"], "title": "CAREC REGIONAL IMPROVEMENT OF BORDER SERVICES PROJ", "status": "Implementation", "locationName": "Guliston"}}, {"type": "Feature", "geometry": {"type": "Point", "coordinates": [71.0, 39.0]}, "properties": {"id": "46004-45229-001-GRNT0346", "sectors": ["Finance"], "title": "ACCESS TO GREEN FINANCE PROJECT", "status": "Implementation", "locationName": "Tajikistan"}}, {"type": "Feature", "geometry": {"type": "Point", "coordinates": [69.64416, 37.80396]}, "properties": {"id": "46004-46543-002-GRNT0356", "sectors": ["Transport"], "title": "CAREC CORRIDORS 3 & 5 ENHANCEMENT PROJECT", "status": "Implementation", "locationName": "Vose\u2019"}}, {"type": "Feature", "geometry": {"type": "Point", "coordinates": [69.97531, 38.34194]}, "properties": {"id": "46004-46543-002-GRNT0356", "sectors": ["Transport"], "title": "CAREC CORRIDORS 3 & 5 ENHANCEMENT PROJECT", "status": "Implementation", "locationName": "Khovaling"}}, {"type": "Feature", "geometry": {"type": "Point", "coordinates": [69.62226, 37.92785]}, "properties": {"id": "46004-46543-002-GRNT0356", "sectors": ["Transport"], "title": "CAREC CORRIDORS 3 & 5 ENHANCEMENT PROJECT", "status": "Implementation", "locationName": "Vose' District"}}, {"type": "Feature", "geometry": {"type": "Point", "coordinates": [70.10587, 38.40851]}, "properties": {"id": "46004-46543-002-GRNT0356", "sectors": ["Transport"], "title": "CAREC CORRIDORS 3 & 5 ENHANCEMENT PROJECT", "status": "Implementation", "locationName": "Khovaling District"}}, {"type": "Feature", "geometry": {"type": "Point", "coordinates": [71.57632, 39.291]}, "properties": {"id": "46004-46543-002-GRNT0356", "sectors": ["Transport"], "title": "CAREC CORRIDORS 3 & 5 ENHANCEMENT PROJECT", "status": "Implementation", "locationName": "Nohiyai Jirghatol"}}, {"type": "Feature", "geometry": {"type": "Point", "coordinates": [68.937, 37.8839]}, "properties": {"id": "46004-46418-001-GRNT0376", "sectors": ["Energy"], "title": "GOLOVNAYA 240-MEGAWATT HYDROPOWER PLANT REHABILITA", "status": "Implementation", "locationName": "Golovnaya Power Plant"}}, {"type": "Feature", "geometry": {"type": "Point", "coordinates": [69.33333, 38.83333]}, "properties": {"id": "46004-37530-013-GRNT0072", "sectors": ["Finance"], "title": "RURAL DEVELOPMENT", "status": "Implementation", "locationName": "Vahdat"}}, {"type": "Feature", "geometry": {"type": "Point", "coordinates": [69.77, 38.75]}, "properties": {"id": "46004-37530-013-GRNT0072", "sectors": ["Finance"], "title": "RURAL DEVELOPMENT", "status": "Implementation", "locationName": "Roghun District"}}, {"type": "Feature", "geometry": {"type": "Point", "coordinates": [68.75, 38.75]}, "properties": {"id": "46004-37530-013-GRNT0072", "sectors": ["Finance"], "title": "RURAL DEVELOPMENT", "status": "Implementation", "locationName": "Varzob District"}}, {"type": "Feature", "geometry": {"type": "Point", "coordinates": [68.58544, 38.35096]}, "properties": {"id": "46004-37530-013-GRNT0072", "sectors": ["Finance"], "title": "RURAL DEVELOPMENT", "status": "Implementation", "locationName": "Nohiyai R\u016bdak\u00ed"}}, {"type": "Feature", "geometry": {"type": "Point", "coordinates": [69.3167, 38.55]}, "properties": {"id": "46004-37530-013-GRNT0072", "sectors": ["Finance"], "title": "RURAL DEVELOPMENT", "status": "Implementation", "locationName": "Faizobod District"}}, {"type": "Feature", "geometry": {"type": "Point", "coordinates": [71.0, 39.0]}, "properties": {"id": "46004-39676-023-GRNT0085", "sectors": ["Transport"], "title": "CAREC REGIONAL ROAD CORRIDOR IMPROVEMENT PROJECT (", "status": "Completion", "locationName": "Tajikistan"}}, {"type": "Feature", "geometry": {"type": "Point", "coordinates": [70.67358, 39.10055]}, "properties": {"id": "46004-39676-023-GRNT0085", "sectors": ["Transport"], "title": "CAREC REGIONAL ROAD CORRIDOR IMPROVEMENT PROJECT (", "status": "Completion", "locationName": "Nimichi-Poy\u00ebn"}}, {"type": "Feature", "geometry": {"type": "Point", "coordinates": [71.19155, 39.21966]}, "properties": {"id": "46004-39676-023-GRNT0085", "sectors": ["Transport"], "title": "CAREC REGIONAL ROAD CORRIDOR IMPROVEMENT PROJECT (", "status": "Completion", "locationName": "Jirghatol"}}, {"type": "Feature", "geometry": {"type": "Point", "coordinates": [68.77905, 38.53575]}, "properties": {"id": "46004-39676-023-GRNT0085", "sectors": ["Transport"], "title": "CAREC REGIONAL ROAD CORRIDOR IMPROVEMENT PROJECT (", "status": "Completion", "locationName": "Dushanbe"}}, {"type": "Feature", "geometry": {"type": "Point", "coordinates": [73.24836, 39.72883]}, "properties": {"id": "46004-39676-023-GRNT0085", "sectors": ["Transport"], "title": "CAREC REGIONAL ROAD CORRIDOR IMPROVEMENT PROJECT (", "status": "Completion", "locationName": "Sary-Tash"}}, {"type": "Feature", "geometry": {"type": "Point", "coordinates": [73.89872, 39.67925]}, "properties": {"id": "46004-39676-023-GRNT0085", "sectors": ["Transport"], "title": "CAREC REGIONAL ROAD CORRIDOR IMPROVEMENT PROJECT (", "status": "Completion", "locationName": "Irkeshtam"}}, {"type": "Feature", "geometry": {"type": "Point", "coordinates": [72.20518, 39.55274]}, "properties": {"id": "46004-39676-023-GRNT0085", "sectors": ["Transport"], "title": "CAREC REGIONAL ROAD CORRIDOR IMPROVEMENT PROJECT (", "status": "Completion", "locationName": "Daroot-Korgon"}}, {"type": "Feature", "geometry": {"type": "Point", "coordinates": [75.0, 41.5]}, "properties": {"id": "46004-39676-023-GRNT0085", "sectors": ["Transport"], "title": "CAREC REGIONAL ROAD CORRIDOR IMPROVEMENT PROJECT (", "status": "Completion", "locationName": "Kyrgyzstan"}}, {"type": "Feature", "geometry": {"type": "Point", "coordinates": [105.0, 35.0]}, "properties": {"id": "46004-39676-023-GRNT0085", "sectors": ["Transport"], "title": "CAREC REGIONAL ROAD CORRIDOR IMPROVEMENT PROJECT (", "status": "Completion", "locationName": "China"}}, {"type": "Feature", "geometry": {"type": "Point", "coordinates": [70.35998, 39.23491]}, "properties": {"id": "46004-39676-023-GRNT0085", "sectors": ["Transport"], "title": "CAREC REGIONAL ROAD CORRIDOR IMPROVEMENT PROJECT (", "status": "Completion", "locationName": "Nohiyai Rasht"}}, {"type": "Feature", "geometry": {"type": "Point", "coordinates": [71.57632, 39.291]}, "properties": {"id": "46004-39676-023-GRNT0085", "sectors": ["Transport"], "title": "CAREC REGIONAL ROAD CORRIDOR IMPROVEMENT PROJECT (", "status": "Completion", "locationName": "Nohiyai Jirghatol"}}, {"type": "Feature", "geometry": {"type": "Point", "coordinates": [71.79254, 39.48564]}, "properties": {"id": "46004-39676-023-GRNT0085", "sectors": ["Transport"], "title": "CAREC REGIONAL ROAD CORRIDOR IMPROVEMENT PROJECT (", "status": "Completion", "locationName": "Karamyk"}}, {"type": "Feature", "geometry": {"type": "Point", "coordinates": [73.55941, 39.85862]}, "properties": {"id": "46004-39676-023-GRNT0085", "sectors": ["Transport"], "title": "CAREC REGIONAL ROAD CORRIDOR IMPROVEMENT PROJECT (", "status": "Completion", "locationName": "Alay District"}}, {"type": "Feature", "geometry": {"type": "Point", "coordinates": [72.2001, 39.552]}, "properties": {"id": "46004-39676-023-GRNT0085", "sectors": ["Transport"], "title": "CAREC REGIONAL ROAD CORRIDOR IMPROVEMENT PROJECT (", "status": "Completion", "locationName": "Chong-Alay"}}], "properties": {"bounds": [67.34269006300022, 36.67864084900019, 75.16412479700008, 41.039976705000086], "name": "Tajikistan"}}