{"id": "WS", "type": "FeatureCollection", "features": [{"type": "Feature", "geometry": {"type": "Point", "coordinates": [187.86667, -13.8]}, "properties": {"id": "46004-34285-013-LN2220", "sectors": ["Education"], "title": "EDUCATION SECTOR PROJECT II", "status": "Implementation", "locationName": "Samoa"}}, {"type": "Feature", "geometry": {"type": "Point", "coordinates": [187.44928, -13.77987]}, "properties": {"id": "46004-34285-013-LN2220", "sectors": ["Education"], "title": "EDUCATION SECTOR PROJECT II", "status": "Implementation", "locationName": "Fagaloa"}}, {"type": "Feature", "geometry": {"type": "Point", "coordinates": [188.25, -13.91667]}, "properties": {"id": "46004-38183-013-LN2368", "sectors": ["Energy"], "title": "POWER SECTOR EXPANSION PROJECT", "status": "Implementation", "locationName": "Upolu"}}, {"type": "Feature", "geometry": {"type": "Point", "coordinates": [188.2, -13.91667]}, "properties": {"id": "46004-38183-013-LN2368", "sectors": ["Energy"], "title": "POWER SECTOR EXPANSION PROJECT", "status": "Implementation", "locationName": "Tuamasaga"}}, {"type": "Feature", "geometry": {"type": "Point", "coordinates": [188.24079, -13.85099]}, "properties": {"id": "46004-38183-013-LN2368", "sectors": ["Energy"], "title": "POWER SECTOR EXPANSION PROJECT", "status": "Implementation", "locationName": "Tanugamanono"}}, {"type": "Feature", "geometry": {"type": "Point", "coordinates": [188.21921, -13.81528]}, "properties": {"id": "46004-38183-013-LN2368", "sectors": ["Energy"], "title": "POWER SECTOR EXPANSION PROJECT", "status": "Implementation", "locationName": "Mulinu\u2019u Point"}}, {"type": "Feature", "geometry": {"type": "Point", "coordinates": [188.23334, -13.83333]}, "properties": {"id": "46004-38183-013-LN2368", "sectors": ["Energy"], "title": "POWER SECTOR EXPANSION PROJECT", "status": "Implementation", "locationName": "Apia"}}, {"type": "Feature", "geometry": {"type": "Point", "coordinates": [188.23361, -13.83539]}, "properties": {"id": "46004-38183-013-LN2368", "sectors": ["Energy"], "title": "POWER SECTOR EXPANSION PROJECT", "status": "Implementation", "locationName": "Togafuafua"}}, {"type": "Feature", "geometry": {"type": "Point", "coordinates": [188.23554, -13.88739]}, "properties": {"id": "46004-38183-013-LN2368", "sectors": ["Energy"], "title": "POWER SECTOR EXPANSION PROJECT", "status": "Implementation", "locationName": "Vaimauga West"}}, {"type": "Feature", "geometry": {"type": "Point", "coordinates": [188.22882, -13.83483]}, "properties": {"id": "46004-38183-013-LN2368", "sectors": ["Energy"], "title": "POWER SECTOR EXPANSION PROJECT", "status": "Implementation", "locationName": "Saleufi"}}, {"type": "Feature", "geometry": {"type": "Point", "coordinates": [187.86667, -13.8]}, "properties": {"id": "46004-46384-001-GRNT0360", "sectors": ["Public sector management"], "title": "PUBLIC SECTOR FINANCIAL MANAGEMENT PROGRAM", "status": "Implementation", "locationName": "Samoa"}}, {"type": "Feature", "geometry": {"type": "Point", "coordinates": [188.23874, -13.86417]}, "properties": {"id": "46004-46044-002-GRNT0370", "sectors": ["Energy"], "title": "RENEWABLE ENERGY DEVELOPMENT & POWER SECTOR REHABI", "status": "Implementation", "locationName": "Vailima"}}, {"type": "Feature", "geometry": {"type": "Point", "coordinates": [187.69302, -13.75551]}, "properties": {"id": "46004-46044-002-GRNT0370", "sectors": ["Energy"], "title": "RENEWABLE ENERGY DEVELOPMENT & POWER SECTOR REHABI", "status": "Implementation", "locationName": "Vailoa"}}, {"type": "Feature", "geometry": {"type": "Point", "coordinates": [188.22842, -13.88932]}, "properties": {"id": "46004-46044-002-GRNT0370", "sectors": ["Energy"], "title": "RENEWABLE ENERGY DEVELOPMENT & POWER SECTOR REHABI", "status": "Implementation", "locationName": "Tiapapata"}}, {"type": "Feature", "geometry": {"type": "Point", "coordinates": [188.18762, -14.00703]}, "properties": {"id": "46004-46044-002-GRNT0370", "sectors": ["Energy"], "title": "RENEWABLE ENERGY DEVELOPMENT & POWER SECTOR REHABI", "status": "Implementation", "locationName": "Tafitoala"}}, {"type": "Feature", "geometry": {"type": "Point", "coordinates": [188.19766, -14.00385]}, "properties": {"id": "46004-46044-002-GRNT0370", "sectors": ["Energy"], "title": "RENEWABLE ENERGY DEVELOPMENT & POWER SECTOR REHABI", "status": "Implementation", "locationName": "Mulivai"}}, {"type": "Feature", "geometry": {"type": "Point", "coordinates": [188.25077, -13.85118]}, "properties": {"id": "46004-46044-002-GRNT0370", "sectors": ["Energy"], "title": "RENEWABLE ENERGY DEVELOPMENT & POWER SECTOR REHABI", "status": "Implementation", "locationName": "Magiagi"}}, {"type": "Feature", "geometry": {"type": "Point", "coordinates": [188.17056, -13.99591]}, "properties": {"id": "46004-46044-002-GRNT0370", "sectors": ["Energy"], "title": "RENEWABLE ENERGY DEVELOPMENT & POWER SECTOR REHABI", "status": "Implementation", "locationName": "Fusi"}}, {"type": "Feature", "geometry": {"type": "Point", "coordinates": [188.17556, -14.0006]}, "properties": {"id": "46004-46044-002-GRNT0370", "sectors": ["Energy"], "title": "RENEWABLE ENERGY DEVELOPMENT & POWER SECTOR REHABI", "status": "Implementation", "locationName": "Fausaga"}}, {"type": "Feature", "geometry": {"type": "Point", "coordinates": [188.02997, -13.93529]}, "properties": {"id": "46004-46044-002-GRNT0370", "sectors": ["Energy"], "title": "RENEWABLE ENERGY DEVELOPMENT & POWER SECTOR REHABI", "status": "Implementation", "locationName": "Faleaseela"}}, {"type": "Feature", "geometry": {"type": "Point", "coordinates": [188.24689, -13.84182]}, "properties": {"id": "46004-46044-002-GRNT0370", "sectors": ["Energy"], "title": "RENEWABLE ENERGY DEVELOPMENT & POWER SECTOR REHABI", "status": "Implementation", "locationName": "Faatoia"}}, {"type": "Feature", "geometry": {"type": "Point", "coordinates": [188.23742, -13.86944]}, "properties": {"id": "46004-46044-002-GRNT0370", "sectors": ["Energy"], "title": "RENEWABLE ENERGY DEVELOPMENT & POWER SECTOR REHABI", "status": "Implementation", "locationName": "Avele"}}, {"type": "Feature", "geometry": {"type": "Point", "coordinates": [188.23661, -13.87406]}, "properties": {"id": "46004-46044-002-GRNT0370", "sectors": ["Energy"], "title": "RENEWABLE ENERGY DEVELOPMENT & POWER SECTOR REHABI", "status": "Implementation", "locationName": "Vaoala"}}, {"type": "Feature", "geometry": {"type": "Point", "coordinates": [188.24271, -13.84316]}, "properties": {"id": "46004-46044-002-GRNT0370", "sectors": ["Energy"], "title": "RENEWABLE ENERGY DEVELOPMENT & POWER SECTOR REHABI", "status": "Implementation", "locationName": "Lelata"}}, {"type": "Feature", "geometry": {"type": "Point", "coordinates": [188.24574, -13.87254]}, "properties": {"id": "46004-46044-002-GRNT0370", "sectors": ["Energy"], "title": "RENEWABLE ENERGY DEVELOPMENT & POWER SECTOR REHABI", "status": "Implementation", "locationName": "Alaoa Water Treatment Plant"}}, {"type": "Feature", "geometry": {"type": "Point", "coordinates": [188.23874, -13.86417]}, "properties": {"id": "46004-46044-002-GRNT0373", "sectors": ["Energy"], "title": "RENEWABLE ENERGY DEV'L & POWER SECTOR REHABILITATI", "status": "Implementation", "locationName": "Vailima"}}, {"type": "Feature", "geometry": {"type": "Point", "coordinates": [187.69302, -13.75551]}, "properties": {"id": "46004-46044-002-GRNT0373", "sectors": ["Energy"], "title": "RENEWABLE ENERGY DEV'L & POWER SECTOR REHABILITATI", "status": "Implementation", "locationName": "Vailoa"}}, {"type": "Feature", "geometry": {"type": "Point", "coordinates": [188.22842, -13.88932]}, "properties": {"id": "46004-46044-002-GRNT0373", "sectors": ["Energy"], "title": "RENEWABLE ENERGY DEV'L & POWER SECTOR REHABILITATI", "status": "Implementation", "locationName": "Tiapapata"}}, {"type": "Feature", "geometry": {"type": "Point", "coordinates": [188.18762, -14.00703]}, "properties": {"id": "46004-46044-002-GRNT0373", "sectors": ["Energy"], "title": "RENEWABLE ENERGY DEV'L & POWER SECTOR REHABILITATI", "status": "Implementation", "locationName": "Tafitoala"}}, {"type": "Feature", "geometry": {"type": "Point", "coordinates": [188.19766, -14.00385]}, "properties": {"id": "46004-46044-002-GRNT0373", "sectors": ["Energy"], "title": "RENEWABLE ENERGY DEV'L & POWER SECTOR REHABILITATI", "status": "Implementation", "locationName": "Mulivai"}}, {"type": "Feature", "geometry": {"type": "Point", "coordinates": [188.25077, -13.85118]}, "properties": {"id": "46004-46044-002-GRNT0373", "sectors": ["Energy"], "title": "RENEWABLE ENERGY DEV'L & POWER SECTOR REHABILITATI", "status": "Implementation", "locationName": "Magiagi"}}, {"type": "Feature", "geometry": {"type": "Point", "coordinates": [188.17056, -13.99591]}, "properties": {"id": "46004-46044-002-GRNT0373", "sectors": ["Energy"], "title": "RENEWABLE ENERGY DEV'L & POWER SECTOR REHABILITATI", "status": "Implementation", "locationName": "Fusi"}}, {"type": "Feature", "geometry": {"type": "Point", "coordinates": [188.17556, -14.0006]}, "properties": {"id": "46004-46044-002-GRNT0373", "sectors": ["Energy"], "title": "RENEWABLE ENERGY DEV'L & POWER SECTOR REHABILITATI", "status": "Implementation", "locationName": "Fausaga"}}, {"type": "Feature", "geometry": {"type": "Point", "coordinates": [188.02997, -13.93529]}, "properties": {"id": "46004-46044-002-GRNT0373", "sectors": ["Energy"], "title": "RENEWABLE ENERGY DEV'L & POWER SECTOR REHABILITATI", "status": "Implementation", "locationName": "Faleaseela"}}, {"type": "Feature", "geometry": {"type": "Point", "coordinates": [188.24689, -13.84182]}, "properties": {"id": "46004-46044-002-GRNT0373", "sectors": ["Energy"], "title": "RENEWABLE ENERGY DEV'L & POWER SECTOR REHABILITATI", "status": "Implementation", "locationName": "Faatoia"}}, {"type": "Feature", "geometry": {"type": "Point", "coordinates": [188.23742, -13.86944]}, "properties": {"id": "46004-46044-002-GRNT0373", "sectors": ["Energy"], "title": "RENEWABLE ENERGY DEV'L & POWER SECTOR REHABILITATI", "status": "Implementation", "locationName": "Avele"}}, {"type": "Feature", "geometry": {"type": "Point", "coordinates": [188.23661, -13.87406]}, "properties": {"id": "46004-46044-002-GRNT0373", "sectors": ["Energy"], "title": "RENEWABLE ENERGY DEV'L & POWER SECTOR REHABILITATI", "status": "Implementation", "locationName": "Vaoala"}}, {"type": "Feature", "geometry": {"type": "Point", "coordinates": [188.24271, -13.84316]}, "properties": {"id": "46004-46044-002-GRNT0373", "sectors": ["Energy"], "title": "RENEWABLE ENERGY DEV'L & POWER SECTOR REHABILITATI", "status": "Implementation", "locationName": "Lelata"}}, {"type": "Feature", "geometry": {"type": "Point", "coordinates": [188.24574, -13.87254]}, "properties": {"id": "46004-46044-002-GRNT0373", "sectors": ["Energy"], "title": "RENEWABLE ENERGY DEV'L & POWER SECTOR REHABILITATI", "status": "Implementation", "locationName": "Alaoa Water Treatment Plant"}}, {"type": "Feature", "geometry": {"type": "Point", "coordinates": [188.25, -13.91667]}, "properties": {"id": "46004-38183-013-GRNT0087", "sectors": ["Energy"], "title": "POWER SECTOR EXPANSION PROJECT", "status": "Implementation", "locationName": "Upolu"}}, {"type": "Feature", "geometry": {"type": "Point", "coordinates": [188.2, -13.91667]}, "properties": {"id": "46004-38183-013-GRNT0087", "sectors": ["Energy"], "title": "POWER SECTOR EXPANSION PROJECT", "status": "Implementation", "locationName": "Tuamasaga"}}, {"type": "Feature", "geometry": {"type": "Point", "coordinates": [188.24079, -13.85099]}, "properties": {"id": "46004-38183-013-GRNT0087", "sectors": ["Energy"], "title": "POWER SECTOR EXPANSION PROJECT", "status": "Implementation", "locationName": "Tanugamanono"}}, {"type": "Feature", "geometry": {"type": "Point", "coordinates": [188.21921, -13.81528]}, "properties": {"id": "46004-38183-013-GRNT0087", "sectors": ["Energy"], "title": "POWER SECTOR EXPANSION PROJECT", "status": "Implementation", "locationName": "Mulinu\u2019u Point"}}, {"type": "Feature", "geometry": {"type": "Point", "coordinates": [188.23334, -13.83333]}, "properties": {"id": "46004-38183-013-GRNT0087", "sectors": ["Energy"], "title": "POWER SECTOR EXPANSION PROJECT", "status": "Implementation", "locationName": "Apia"}}, {"type": "Feature", "geometry": {"type": "Point", "coordinates": [188.23361, -13.83539]}, "properties": {"id": "46004-38183-013-GRNT0087", "sectors": ["Energy"], "title": "POWER SECTOR EXPANSION PROJECT", "status": "Implementation", "locationName": "Togafuafua"}}, {"type": "Feature", "geometry": {"type": "Point", "coordinates": [188.23554, -13.88739]}, "properties": {"id": "46004-38183-013-GRNT0087", "sectors": ["Energy"], "title": "POWER SECTOR EXPANSION PROJECT", "status": "Implementation", "locationName": "Vaimauga West"}}, {"type": "Feature", "geometry": {"type": "Point", "coordinates": [188.22882, -13.83483]}, "properties": {"id": "46004-38183-013-GRNT0087", "sectors": ["Energy"], "title": "POWER SECTOR EXPANSION PROJECT", "status": "Implementation", "locationName": "Saleufi"}}, {"type": "Feature", "geometry": {"type": "Point", "coordinates": [187.86667, -13.8]}, "properties": {"id": "46004-36513-032-GRNT0097", "sectors": ["Information and communication technology"], "title": "SCHOOLNET AND COMMUNITY ACCESS PROJECT", "status": "Implementation", "locationName": "Samoa"}}], "properties": {"bounds": [187.21741783900012, -14.05282968499999, 188.56230716200008, -13.46282317499994], "name": "Samoa"}}